id,ident,type,name,latitude_deg,longitude_deg,elevation_ft,continent,iso_country,iso_region,municipality,scheduled_service,gps_code,iata_code,local_code,home_link,wikipedia_link,keywords,score,last_updated
"#meta +id","#meta +code","#loc +airport +type","#loc +airport +name","#geo +lat","#geo +lon","#geo +elevation +ft","#region +continent +code","#country +code +iso2","#adm1 +code +iso","#loc +municipality +name","#status +scheduled","#loc +airport +code +gps","#loc +airport +code +iata","#loc +airport +code +local","#meta +url +airport","#meta +url +wikipedia","#meta +keywords","#meta +score","#date +updated"
5097,OEJN,large_airport,"King Abdulaziz International Airport",21.6796,39.156502,48,AS,SA,SA-02,Jeddah,1,OEJN,JED,,http://www.jed-airport.com/,http://en.wikipedia.org/wiki/King_Abdulaziz_International_Airport,"Mecca, Hajj",1013075,2016-11-17T21:21:49+00:00
5112,OERK,large_airport,"King Khaled International Airport",24.957599639892578,46.69879913330078,2049,AS,SA,SA-01,Riyadh,1,OERK,RUH,,,http://en.wikipedia.org/wiki/King_Khalid_International_Airport,Riyad,51600,2008-06-13T14:30:04+00:00
5087,OEDF,large_airport,"King Fahd International Airport",26.471200942993164,49.79790115356445,72,AS,SA,SA-04,"Ad Dammam",1,OEDF,DMM,,,http://en.wikipedia.org/wiki/King_Fahd_International_Airport,,1675,2008-06-13T14:30:04+00:00
5101,OEMA,large_airport,"Prince Mohammad Bin Abdulaziz Airport",24.5534,39.705101,2151,AS,SA,SA-03,Medina,1,OEMA,MED,,http://www.tibahairports.com/en-EN/Pages/Main.aspx,http://en.wikipedia.org/wiki/Prince_Mohammad_Bin_Abdulaziz_Airport,Medinah,1475,2017-03-16T04:19:53+00:00
5121,OETB,medium_airport,"Tabuk Airport",28.3654,36.6189,2551,AS,SA,SA-07,Tabuk,1,OETB,TUU,,,http://en.wikipedia.org/wiki/Tabuk_Regional_Airport,,1050,2016-02-13T23:27:11+00:00
5090,OEGN,medium_airport,"Jizan Regional Airport",16.901100158691406,42.58580017089844,20,AS,SA,SA-09,Jizan,1,OEGN,GIZ,,,http://en.wikipedia.org/wiki/Gizan_Regional_Airport,"Gizan, King Abdullah Bin Abdulaziz Airport",1000,2008-06-13T14:30:04+00:00
5122,OETF,medium_airport,"Ta’if Regional Airport",21.483001,40.543442,4848,AS,SA,SA-02,Ta’if,1,OETF,TIF,,,http://en.wikipedia.org/wiki/Ta%E2%80%99if_Regional_Airport,"Taif Airport",875,2016-02-13T23:43:31+00:00
5089,OEDR,large_airport,"King Abdulaziz Air Base",26.265399932900003,50.152000427199994,84,AS,SA,SA-04,,0,OEDR,DHA,,,http://en.wikipedia.org/wiki/Dhahran_International_Airport,,1075,2010-01-22T17:44:27+00:00
5091,OEGS,medium_airport,"Gassim Airport",26.302799224853516,43.77439880371094,2126,AS,SA,SA-05,,1,OEGS,ELQ,,,http://en.wikipedia.org/wiki/Gassim_Regional_Airport,,1000,2008-06-13T14:30:04+00:00
5082,OEAB,medium_airport,"Abha Regional Airport",18.240400314299997,42.65660095210001,6858,AS,SA,SA-14,Abha,1,OEAB,AHB,,,http://en.wikipedia.org/wiki/Abha_Regional_Airport,,1050,2010-09-02T22:09:53+00:00
5114,OERR,medium_airport,"Arar Domestic Airport",30.906600952148438,41.13819885253906,1813,AS,SA,SA-08,Arar,1,OERR,RAE,,,http://en.wikipedia.org/wiki/Arar_Domestic_Airport,,800,2008-06-13T14:30:04+00:00
5083,OEAH,medium_airport,"Al Ahsa Airport",25.28529930114746,49.485198974609375,588,AS,SA,SA-04,,1,OEAH,HOF,,,http://en.wikipedia.org/wiki/Al-Ahsa_Domestic_Airport,,1050,2008-06-13T14:30:04+00:00
5084,OEBA,medium_airport,"Al Baha Airport",20.2961006165,41.6343002319,5486,AS,SA,SA-11,,1,OEBA,ABT,,,http://en.wikipedia.org/wiki/Al-Baha_Domestic_Airport,Al-Aqiq,1050,2012-06-08T23:25:17+00:00
5093,OEHL,medium_airport,"Ha'il Airport",27.437901,41.686298,3331,AS,SA,SA-06,Ha'il,1,OEHL,HAS,,,http://en.wikipedia.org/wiki/Ha'il_Regional_Airport,"Hail Airport",1050,2016-10-05T12:28:09+00:00
5125,OETR,medium_airport,"Turaif Domestic Airport",31.692188,38.731544,2803,AS,SA,SA-08,Turaif,1,OETR,TUI,,,http://en.wikipedia.org/wiki/Turaif_Domestic_Airport,,875,2016-02-13T23:48:14+00:00
5092,OEGT,medium_airport,"Gurayat Domestic Airport",31.412413,37.278898,1672,AS,SA,SA-08,Gurayat,1,OEGT,URY,,,http://en.wikipedia.org/wiki/Gurayat_Domestic_Airport,"Guriat Airport",800,2016-02-13T23:35:32+00:00
5103,OEPA,medium_airport,"Al Qaisumah/Hafr Al Batin Airport",28.335199,46.125099,1174,AS,SA,SA-04,Qaisumah,1,OEPA,AQI,,,https://en.wikipedia.org/wiki/Al_Qaisumah/Hafr_Al_Batin_Airport,"Qaisumah Domestic Airport",800,2016-05-29T13:18:40+00:00
5127,OEWD,medium_airport,"Wadi Al Dawasir Airport",20.504299163800003,45.199600219699995,2062,AS,SA,SA-01,,1,OEWD,WAE,,,http://en.wikipedia.org/wiki/Wadi_al-Dawasir_Domestic_Airport,,1050,2013-03-31T19:19:51+00:00
5119,OESK,medium_airport,"Al-Jawf Domestic Airport",29.78510093688965,40.099998474121094,2261,AS,SA,SA-12,Al-Jawf,1,OESK,AJF,,,http://en.wikipedia.org/wiki/Al-Jawf_Domestic_Airport,"Al Jouf Airport",1000,2008-07-11T08:55:34+00:00
5129,OEYN,medium_airport,"Prince Abdulmohsin Bin Abdulaziz Airport",24.144199,38.0634,26,AS,SA,SA-03,Yanbu,1,OEYN,YNB,,https://gaca.gov.sa/web/en-gb/airport/prince-abdulmohsin-bin-abdulaziz-airport,http://en.wikipedia.org/wiki/Yenbo_Airport,Yenbo,1000,2016-04-29T09:17:34+00:00
5085,OEBH,medium_airport,"Bisha Airport",19.984399795532227,42.62089920043945,3887,AS,SA,SA-14,,1,OEBH,BHH,,,http://en.wikipedia.org/wiki/Bisha_Domestic_Airport,,875,2008-06-13T14:30:04+00:00
5102,OENG,medium_airport,"Nejran Airport",17.611400604248047,44.4192008972168,3982,AS,SA,SA-10,,1,OENG,EAM,,,http://en.wikipedia.org/wiki/Najran_Domestic_Airport,,800,2008-06-13T14:30:04+00:00
5116,OERY,medium_airport,"Riyadh Air Base",24.709800720214844,46.72520065307617,2082,AS,SA,SA-01,Riyadh,0,OERY,XXN,,,http://en.wikipedia.org/wiki/Riyadh_Air_Base,Riyad,475,2008-06-13T14:30:04+00:00
5118,OESH,medium_airport,"Sharurah Airport",17.466899871826172,47.12139892578125,2363,AS,SA,SA-10,,1,OESH,SHW,,,http://en.wikipedia.org/wiki/Sharurah_Domestic_Airport,,1000,2008-06-13T14:30:04+00:00
5128,OEWJ,medium_airport,"Al Wajh Domestic Airport",26.19860076904297,36.47639846801758,66,AS,SA,SA-07,"Al Wajh",1,OEWJ,EJH,,,http://en.wikipedia.org/wiki/Wedjh_Domestic_Airport,Wejh,1000,2008-06-13T14:30:04+00:00
5098,OEKK,medium_airport,"King Khaled Military City Airport",27.9009,45.528198,1352,AS,SA,SA-04,"King Khaled Military City",1,OEKK,KMC,,,https://en.wikipedia.org/wiki/King_Khaled_Military_City_Airport,,875,2016-05-29T13:11:01+00:00
5111,OERF,medium_airport,"Rafha Domestic Airport",29.626399993896484,43.4906005859375,1474,AS,SA,SA-08,Rafha,1,OERF,RAH,,,http://en.wikipedia.org/wiki/Rafha_Domestic_Airport,,875,2008-06-13T14:30:04+00:00
5099,OEKM,medium_airport,"King Khaled Air Base",18.297300338745117,42.80350112915039,6778,AS,SA,SA-14,,0,OEKM,KMX,,,,,475,2008-06-13T14:30:04+00:00
5109,OEPS,medium_airport,"Prince Sultan Air Base",24.062700271606445,47.580501556396484,1651,AS,SA,SA-01,,0,OEPS,AKH,,,,OEKH,450,2008-06-13T14:30:04+00:00
5760,OE53,small_airport,"King Abdul Aziz Military Academy Airport",24.942100524902344,46.39120101928711,2420,AS,SA,SA-01,,0,OE53,,OE53,,,,50,2008-07-13T22:11:27+00:00
5104,OEPC,small_airport,"Pump Station 3 Airport",25.17449951171875,47.488399505615234,1740,AS,SA,SA-04,,0,OEPC,,,,,,50,2008-06-13T14:30:04+00:00
30952,OEDW,closed,"Dawadmi Domestic Airport",24.5,44.400002,3429,AS,SA,SA-01,Dawadmi,1,OEDW,,,,,"DWD, Prinz Salman bin Abdulaziz Airport, Dwadmi",800,2018-02-18T11:23:38+00:00
42257,AE-0001,small_airport,"Batha Airport",24.214693,51.44989,,AS,SA,SA-04,Batha,1,OEBT,,,,,"Ras Sumeira UAE,",350,2018-02-18T10:47:23+00:00
5095,OEJB,medium_airport,"Jubail Airport",27.038999557495117,49.40510177612305,26,AS,SA,SA-04,Jubail,0,OEJB,QJB,,,,OEJL,350,2008-06-13T14:30:04+00:00
5113,OERM,medium_airport,"Ras Mishab Airport",28.079599380493164,48.611000061035156,13,AS,SA,SA-04,,0,OERM,,,,,,250,2008-06-13T14:30:04+00:00
5115,OERT,medium_airport,"Ras Tanura Airport",26.723100662231445,50.030799865722656,6,AS,SA,SA-04,,0,OERT,,,,,,250,2008-06-13T14:30:04+00:00
5124,OETN,medium_airport,"Ras Tanajib Airport",27.867799758911133,48.769100189208984,30,AS,SA,SA-04,,0,OETN,,,,,,250,2008-06-13T14:30:04+00:00
5088,OEDM,medium_airport,"King Salman Abdulaziz Airport",24.4499,44.121201,3026,AS,SA,SA-01,Dawadmi,1,OEDM,DWD,,,,"Al Dawadmi Airport",250,2018-02-18T11:32:36+00:00
5094,OEHW,small_airport,"Hawtah Airport",22.96780014038086,46.89950180053711,2091,AS,SA,SA-01,,0,OEHW,,,,,,50,2008-06-13T14:30:04+00:00
5105,OEPF,small_airport,"Pump Station 6 Airport",24.71030044555664,44.964500427246094,2530,AS,SA,SA-01,,0,OEPF,,,,,,50,2008-06-13T14:30:04+00:00
5106,OEPI,small_airport,"Pump Station 9 Airport",24.276100158691406,42.143699645996094,3000,AS,SA,SA-01,,0,OEPI,,,,,,50,2008-06-13T14:30:04+00:00
5120,OESL,small_airport,"Sulayel Airport",20.46470069885254,45.619598388671875,2021,AS,SA,SA-01,,0,OESL,SLF,,,,,50,2008-06-13T14:30:04+00:00
5123,OETH,small_airport,"Thumamah Airport",25.21299934387207,46.64099884033203,1870,AS,SA,SA-01,,0,OETH,,OE44,,,,50,2008-06-13T14:30:04+00:00
5754,OE46,small_airport,"Al Lidem Airport",20.475900650024414,44.75749969482422,2225,AS,SA,SA-01,,0,OE46,,OE46,,,,50,2008-06-13T14:30:04+00:00
5758,OE51,small_airport,"Al Kharj East Airport",24.05150032043457,47.65420150756836,1650,AS,SA,SA-01,,0,OE51,,OE51,,,,50,2008-06-13T14:30:04+00:00
5759,OE52,small_airport,"Al Artawiyah South Airport",26.611600875854492,45.321998596191406,1900,AS,SA,SA-01,,0,OE52,,OE52,,,,50,2008-06-13T14:30:04+00:00
5761,OE54,small_airport,"Hafar Al Atk Airport",25.99340057373047,46.53670120239258,1970,AS,SA,SA-01,,0,OE54,,OE54,,,,50,2008-06-13T14:30:04+00:00
42263,OE47,small_airport,"Al Kharj",24.06072235107422,47.410804748535156,,AS,SA,SA-01,,0,OE47,,,,,,50,2008-10-12T13:52:48+00:00
5110,OERB,small_airport,"Rabigh Airport",22.702600479125977,39.069801330566406,22,AS,SA,SA-02,,0,OERB,,,,,,50,2008-06-13T14:30:04+00:00
5752,OE43,small_airport,"Arfa Airport",21.32360076904297,41.198299407958984,4155,AS,SA,SA-02,,0,OE43,,OE43,,,,50,2008-06-13T14:30:04+00:00
5755,OE48,small_airport,"Quz South Airport",18.893199920654297,41.35499954223633,200,AS,SA,SA-02,,0,OE48,,OE48,,,,50,2008-06-13T14:30:04+00:00
5756,OE49,small_airport,"Mecca East Airport",21.4375,39.99420166015625,1210,AS,SA,SA-02,,0,OE49,,OE49,,,,50,2008-06-13T14:30:04+00:00
5107,OEPJ,small_airport,"Pump Station 10 Airport",24.1072998046875,41.0359992980957,2840,AS,SA,SA-03,,0,OEPJ,,,,,,50,2008-06-13T14:30:04+00:00
5081,OEAA,small_airport,"Abu Ali Airport",27.31909942626953,49.587100982666016,69,AS,SA,SA-04,,0,OEAA,,,,,,50,2008-06-13T14:30:04+00:00
5086,OEBQ,small_airport,"Abqaiq Airport",25.911300659179688,49.59120178222656,229,AS,SA,SA-04,,0,OEBQ,,,,,,50,2008-06-13T14:30:04+00:00
5108,OEPK,small_airport,"Ipsa 3 Airport",27.954200744628906,46.74259948730469,1000,AS,SA,SA-04,,0,OEPK,,,,,,50,2008-06-13T14:30:04+00:00
5117,OESB,small_airport,"Shaibah Airport",22.51449966430664,53.9640998840332,300,AS,SA,SA-04,,0,OESB,,,,,,50,2008-06-13T14:30:04+00:00
5753,OE45,small_airport,"Ras Khafji Airport",28.38990020751953,48.51649856567383,50,AS,SA,SA-04,,0,OE45,,OE45,,,,50,2008-06-13T14:30:04+00:00
5763,OE56,small_airport,"Khalfan Airport",22.710100173950195,53.28120040893555,305,AS,SA,SA-04,,0,OE56,,OE56,,,,50,2008-06-13T14:30:04+00:00
42264,SA-0002,small_airport,"Al Wariah SE Highway Strip",27.64583396911621,47.99305725097656,,AS,SA,SA-04,,0,,,,,,,50,2008-10-12T13:56:49+00:00
42265,SA-0003,small_airport,"Qalibah Highway Strip",27.975000381469727,37.951942443847656,,AS,SA,SA-07,,0,,,,,,,50,2008-10-12T14:00:03+00:00
42262,SA-0001,small_airport,"Al Bir Highway Strip",28.88599967956543,36.15883255004883,,AS,SA,SA-08,,0,,,,,,,50,2008-10-12T13:48:56+00:00
5762,OE55,small_airport,"Aradah Airport",21.226999,55.2673,699,AS,SA,SA-04,Ardah,0,OEAD,,,,,"OE55, Ghafah Airport",50,2018-02-18T09:22:01+00:00
32088,OEHR,small_airport,"Haradh Airport",24.09653,49.22432,110,AS,SA,SA-04,Harad,0,OEHR,,,,http://en.wikipedia.org/wiki/Haradh_Airport,,50,2015-01-27T14:54:36+00:00
5096,OEJF,medium_airport,"King Faisal Naval Base",21.348100662231445,39.17300033569336,7,AS,SA,SA-02,Jeddah,0,OEJF,,,,,,50,2009-07-16T12:50:10+00:00
5757,OE50,small_airport,"King Abdulaziz Naval Base",26.941601,49.704102,10,AS,SA,SA-04,Jubail,0,OEJL,,,,http://en.wikipedia.org/wiki/King_Abdulaziz_Naval_Base,OE50,50,2018-02-18T04:32:53+00:00
5100,OEKR,small_airport,"Old Khurais Airport",25.069599,48.194901,1300,AS,SA,SA-04,"Khurais oil field",0,OEKR,,,,https://en.wikipedia.org/wiki/Khurais_Airport_(old),,50,2018-02-18T12:43:16+00:00
32093,OENR,small_airport,"Nariya Airport",27.5,48.5,180,AS,SA,SA-04,Nariya,0,OENR,,,,,,50,2008-06-13T14:30:04+00:00
5126,OEUD,small_airport,"Udhailiyah Airport",25.1511001587,49.3288002014,759,AS,SA,SA-04,Udhailiyah,0,OEUD,,,,http://en.wikipedia.org/wiki/Udhayliyah_Airport,,50,2013-11-27T00:42:48+00:00
32094,OEUM,small_airport,"Umm Lajj Airport",25.16699981689453,37.33300018310547,50,AS,SA,SA-07,"Umm Lejj",0,OEUM,,,,,,50,2008-06-13T14:30:04+00:00
32751,OEZL,small_airport,"Zilfi Airport",26.350000381469727,44.83300018310547,1900,AS,SA,SA-01,Zilfi,0,OEZL,ZUL,,,,,50,2008-06-13T14:30:04+00:00
42266,SA-0004,closed,"Ras Safaniya",27.993610382080078,48.77527618408203,,AS,SA,SA-04,,0,,,,,,,0,2008-10-12T14:03:42+00:00
44981,SA-0005,small_airport,"Al Hasa Airport",25.4064729902,49.484428167299995,,AS,SA,SA-04,,0,,,,,,,0,2009-09-04T07:58:30+00:00
44982,SA-0006,small_airport,"Ugtah Highway Strip",24.794468208199998,50.7424592972,,AS,SA,SA-04,,0,,,,,,,0,2009-09-04T08:00:54+00:00
317969,SA-0008,closed,"Kharmiyah Airstrip",28.1325,45.7518,1290,AS,SA,SA-04,,0,,,,,,,0,2016-05-20T02:26:17+00:00
44985,SA-0007,small_airport,"Uwayqilah Airport",30.346972527299997,42.2126054764,,AS,SA,SA-08,,0,,,,,,,0,2009-09-04T08:12:26+00:00
325562,SA-0009,closed,"Erase Me 18",-0.4,0,,AS,SA,SA-11,,0,,,,,,,0,2017-11-26T09:35:32+00:00
328105,SA-0011,large_airport,"Ash Sharqiyah Region, Saudi Arabia",1,2.9999999999,,AS,SA,SA-U-A,,0,,,,,,"Bg, Sblc, Mtn",0,2018-05-29T20:11:47+00:00
326441,OEGH,closed,"Al Ghat Airport",26.026479,44.959166,2509,AS,SA,SA-01,"Al Ghat",0,OEGH,,,,,,0,2018-02-18T12:04:35+00:00
300611,ULH,medium_airport,"Majeed Bin Abdulaziz Airport",26.48,38.1288888889,2050,AS,SA,SA-03,"Al Ula",0,OEAO,ULH,,,http://en.wikipedia.org/wiki/Prince_Abdul_Majeed_bin_Abdulaziz_Domestic_Airport,,0,2015-05-07T22:40:46+00:00
326442,SA-0010,small_airport,"Khurais Airport",25.26533,48.178333,,AS,SA,SA-04,"Khurais oil field",0,OEKN,,,,https://en.wikipedia.org/wiki/Khurais_Airport,,0,2018-02-18T12:46:56+00:00
326438,OEBN,small_airport,"Thablotin Airport",19.831632,54.022115,403,AS,SA,SA-04,Thabhloten,0,OEBN,,,,,,0,2018-02-18T09:44:47+00:00
