id,ident,type,name,latitude_deg,longitude_deg,elevation_ft,continent,iso_country,iso_region,municipality,scheduled_service,gps_code,iata_code,local_code,home_link,wikipedia_link,keywords,score,last_updated
"#meta +id","#meta +code","#loc +airport +type","#loc +airport +name","#geo +lat","#geo +lon","#geo +elevation +ft","#region +continent +code","#country +code +iso2","#adm1 +code +iso","#loc +municipality +name","#status +scheduled","#loc +airport +code +gps","#loc +airport +code +iata","#loc +airport +code +local","#meta +url +airport","#meta +url +wikipedia","#meta +keywords","#meta +score","#date +updated"
6184,SLLP,medium_airport,"El Alto International Airport",-16.5132999420166,-68.19229888916016,13355,SA,BO,BO-L,"La Paz / El Alto",1,SLLP,LPB,,,http://en.wikipedia.org/wiki/El_Alto_International_Airport,,1050,2008-07-14T12:56:12+00:00
6193,SLVR,large_airport,"Viru Viru International Airport",-17.6448,-63.135399,1224,SA,BO,BO-S,"Santa Cruz",1,SLVR,VVI,,,http://en.wikipedia.org/wiki/Viru_Viru_International_Airport,,1050,2019-01-13T13:52:47+00:00
6180,SLCB,medium_airport,"Jorge Wilsterman International Airport",-17.421100616455078,-66.1771011352539,8360,SA,BO,BO-C,Cochabamba,1,SLCB,CBB,,,http://en.wikipedia.org/wiki/Jorge_Wilstermann_International_Airport,,875,2008-07-14T12:56:12+00:00
6189,SLSU,medium_airport,"Juana Azurduy De Padilla Airport",-19.007099151611328,-65.2886962890625,9540,SA,BO,BO-H,Sucre,1,SLSU,SRE,,,http://en.wikipedia.org/wiki/Juana_Azurduy_de_Padilla_International_Airport,,875,2008-07-14T12:56:12+00:00
6183,SLET,medium_airport,"El Trompillo Airport",-17.8115997314,-63.1715011597,1371,SA,BO,BO-S,"Santa Cruz",1,SLET,SRZ,,,http://en.wikipedia.org/wiki/El_Trompillo_Airport,,875,2012-01-28T13:03:47+00:00
41591,BO-0001,small_airport,"Rurenabaque Airport",-14.427900314299999,-67.4968032837,676,SA,BO,BO-B,Rurenabaque,0,SLRQ,RBQ,,,http://en.wikipedia.org/wiki/Rurrenabaque_Airport,,50,2012-01-28T12:44:54+00:00
6190,SLTJ,medium_airport,"Capitan Oriel Lea Plaza Airport",-21.5557003021,-64.7013015747,6079,SA,BO,BO-T,Tarija,1,SLTJ,TJA,,,http://en.wikipedia.org/wiki/Cap._Oriel_Lea_Plaza_Airport,,875,2012-01-28T13:06:25+00:00
6191,SLTR,medium_airport,"Teniente Av. Jorge Henrich Arauz Airport",-14.8186998367,-64.9179992676,509,SA,BO,BO-B,Trinidad,0,SLTR,TDD,,,http://en.wikipedia.org/wiki/Tte._Av._Jorge_Henrich_Arauz_Airport,,275,2012-01-28T13:08:41+00:00
6182,SLCO,medium_airport,"Capitán Aníbal Arab Airport",-11.040399551400002,-68.7829971313,889,SA,BO,BO-N,Cobija,1,SLCO,CIJ,,,http://en.wikipedia.org/wiki/Cap._Anibal_Arab_Airport,,875,2012-01-28T12:21:02+00:00
29926,SLGY,small_airport,"Capitán de Av. Emilio Beltrán Airport",-10.820599556,-65.3455963135,557,SA,BO,BO-B,Guayaramerín,1,SLGY,GYA,,,http://en.wikipedia.org/wiki/Guayaramer%C3%ADn_Airport,,450,2012-01-28T12:25:17+00:00
30334,SLRI,small_airport,"Capitán Av. Selin Zeitun Lopez Airport",-11,-66,462,SA,BO,BO-B,Riberalta,1,SLRI,RIB,,,http://en.wikipedia.org/wiki/Cap._Av._Selin_Zeitun_Lopez_Airport,,450,2012-01-28T12:40:27+00:00
30364,SLSB,small_airport,"Capitán Av. German Quiroga G. Airport",-14.859199523925781,-66.73750305175781,633,SA,BO,BO-B,"San Borja",1,SLSB,SRJ,,,http://en.wikipedia.org/wiki/Capitán_Germán_Quiroga_Guardia_Airport,,450,2009-01-17T11:45:49+00:00
39530,SLPR,small_airport,"Puerto Rico Airport",-11.107663,-67.551155,597,SA,BO,BO-N,"Puerto Rico/Manuripi",1,SLPR,PUR,,,https://en.wikipedia.org/wiki/Puerto_Rico_Airport,,350,2018-09-16T02:59:35+00:00
30331,SLRY,small_airport,"Reyes Airport",-14.3044,-67.353401,935,SA,BO,BO-B,Reyes,1,SLRY,REY,,,https://en.wikipedia.org/wiki/Reyes_Airport,,350,2018-09-16T02:58:20+00:00
6187,SLPS,medium_airport,"Capitán Av. Salvador Ogaya G. airport",-18.975301,-57.820599,440,SA,BO,BO-S,"Puerto Suárez",1,SLPS,PSZ,,,http://en.wikipedia.org/wiki/Puerto_Su%C3%A1rez_International_Airport,,275,2018-10-25T00:22:54+00:00
6194,SLYA,medium_airport,"Yacuiba Airport",-21.960899353027344,-63.65169906616211,2112,SA,BO,BO-T,Yacuíba,0,SLYA,BYC,,,http://en.wikipedia.org/wiki/Yacuiba_Airport,,275,2008-07-14T12:56:12+00:00
6179,SLBJ,medium_airport,"Bermejo Airport",-22.7733001709,-64.31289672850001,1249,SA,BO,BO-T,Bermejo,0,SLBJ,BJO,,,http://en.wikipedia.org/wiki/Bermejo_Airport,,250,2012-01-28T12:16:09+00:00
6185,SLOR,medium_airport,"Juan Mendoza Airport",-17.962600708,-67.0762023926,12152,SA,BO,BO-O,Oruro,0,SLOR,ORU,,http://en.wikipedia.org/wiki/Juan_Mendoza_Airport,,,250,2012-01-28T12:29:59+00:00
6186,SLPO,medium_airport,"Capitan Nicolas Rojas Airport",-19.5431003571,-65.72370147710001,12913,SA,BO,BO-P,Potosí,0,SLPO,POI,,,http://en.wikipedia.org/wiki/Cap._Nicolas_Rojas_Airport,,250,2012-01-28T12:33:11+00:00
6188,SLSA,medium_airport,"Santa Ana Del Yacuma Airport",-13.762200355500001,-65.4352035522,472,SA,BO,BO-B,"Santa Ana del Yacuma",0,SLSA,SBL,,,http://en.wikipedia.org/wiki/Santa_Ana_del_Yacuma_Airport,,250,2012-01-28T13:00:32+00:00
6192,SLVM,medium_airport,"Teniente Coronel Rafael Pabón Airport",-21.255199432399998,-63.4056015015,1305,SA,BO,BO-T,Villamontes,0,SLVM,VLM,,,http://en.wikipedia.org/wiki/Tcnl._Rafael_Pab%C3%B3n_Airport,,250,2012-01-28T13:12:52+00:00
39460,SLSF,small_airport,"San Rafael Airport",-17.2891,-62.304,890,SA,BO,BO-S,,0,SLSF,,,,,,50,2015-04-24T23:54:18+00:00
39430,SLCY,small_airport,"Collpa Airport",-17.565000534057617,-63.17470169067383,1170,SA,BO,BO-S,"A. Ibañez",0,SLCY,,,,,,50,2008-07-14T12:56:12+00:00
39546,SLSK,small_airport,"Santa Rosa Del Sara Airport",-17.100000381469727,-63.63333511352539,850,SA,BO,BO-S,"A. Ibañez",0,SLSK,,,,,,50,2008-07-15T08:00:43+00:00
39492,SLCL,small_airport,"Collpani Airport",-18.891666412353516,-66.78333282470703,12185,SA,BO,BO-O,Abaroa,0,SLCL,,,,,,50,2008-07-15T07:59:48+00:00
39465,SLSE,small_airport,"Santa Teresita Airport",-16.28499984741211,-59.49516677856445,756,SA,BO,BO-S,"Angel Sandoval",0,SLSE,,,,,,50,2008-07-14T12:56:12+00:00
29662,SLAP,small_airport,"Apolo Airport",-14.735600471496582,-68.41190338134766,4639,SA,BO,BO-L,Apolo,0,SLAP,APB,,,,,50,2008-07-14T12:56:12+00:00
39556,SLVA,small_airport,"Villa Aroma Airport",-17.366666793823242,-67.75,12533,SA,BO,BO-L,Aroma,0,SLVA,,,,,,50,2008-07-15T08:00:53+00:00
29671,SLAS,small_airport,"Ascención De Guarayos Airport",-15.930299758911133,-63.156700134277344,807,SA,BO,BO-S,"Ascensión de Guarayos",0,SLAS,ASC,,,,,50,2008-07-14T12:56:12+00:00
39417,SLAN,small_airport,"Angora Airport",-14.432299613952637,-65.768798828125,731,SA,BO,BO-B,Ballivian,0,SLAN,,,,,,50,2008-07-14T12:56:12+00:00
39424,SLCV,small_airport,"Cavinas Airport",-12.549799919128418,-66.9124984741211,656,SA,BO,BO-B,Ballivian,0,SLCV,,,,,,50,2008-07-14T12:56:12+00:00
39437,SLEV,small_airport,"El Salvador Airport",-14.498299598693848,-66.76290130615234,574,SA,BO,BO-B,Ballivian,0,SLEV,,,,,,50,2008-07-14T12:56:12+00:00
39443,SLIG,small_airport,"Inglaterra Airport",-13.44379997253418,-66.50599670410156,780,SA,BO,BO-B,Ballivian,0,SLIG,,,,,,50,2008-07-14T12:56:12+00:00
39448,SLLI,small_airport,"La India Airport",-13.573833465576172,-66.8356704711914,540,SA,BO,BO-B,Ballivian,0,SLLI,,,,,,50,2008-07-14T12:56:12+00:00
39483,SLBT,small_airport,"Buen Retiro Ballivian Airport",-13.899999618530273,-66.55000305175781,886,SA,BO,BO-B,Ballivian,0,SLBT,,,,,,50,2008-07-15T07:59:39+00:00
39484,SLBH,small_airport,"Buena Hora Airport",-12.133333206176758,-66.53333282470703,656,SA,BO,BO-B,Ballivian,0,SLBH,,,,,,50,2008-07-15T07:59:40+00:00
39494,SLQN,small_airport,"Coquinal Airport",-13.183333396911621,-67,535,SA,BO,BO-B,Ballivian,0,SLQN,,,,,,50,2008-07-15T07:59:50+00:00
39506,SLFA,small_airport,"Fatima Airport",-15.333333015441895,-66.80000305175781,1000,SA,BO,BO-B,Ballivian,0,SLFA,,,,,,50,2008-07-15T08:00:02+00:00
39514,SLLL,small_airport,"Laguna Loa Airport",-14.300000190734863,-66.78333282470703,720,SA,BO,BO-B,Ballivian,0,SLLL,,,,,,50,2008-07-15T08:00:10+00:00
39555,SLUS,small_airport,"Urusi Airport",-14.316666603088379,-66.16666412353516,805,SA,BO,BO-B,Ballivian,0,SLUS,,,,,,50,2008-07-15T08:00:52+00:00
41590,BO-BVL,small_airport,"Baures Airport",-13.583333015400001,-63.5833320618,470,SA,BO,BO-B,Baures,0,SLBA,BVL,,,,,50,2012-01-28T13:20:33+00:00
39487,SLCM,small_airport,"Camacho Airport",-11.505,-67.6847,690,SA,BO,BO-N,Camacho,0,SLCM,,,,,,50,2015-04-21T01:10:26+00:00
29751,SLCA,small_airport,"Camiri Airport",-20.006399154663086,-63.527801513671875,2614,SA,BO,BO-S,Camiri,0,SLCA,CAM,,,,,50,2008-07-14T12:56:12+00:00
39416,SLAQ,small_airport,"Aiquile Airport",-18.21540069580078,-65.18779754638672,7208,SA,BO,BO-C,Campero,0,SLAQ,,,,,,50,2008-07-14T12:56:12+00:00
39457,SLRS,small_airport,"Rio Seco Airport",-18.200834274291992,-63.25600051879883,1836,SA,BO,BO-S,"Campo Ingelmeco",0,SLRS,,,,,,50,2008-07-14T12:56:12+00:00
39534,SLRP,small_airport,"Rosapata Airport",-18.641666412353516,-67.55833435058594,12240,SA,BO,BO-O,Carangas,0,SLRP,,,,,,50,2008-07-15T08:00:29+00:00
39449,SLLS,small_airport,"Lagunillas Airport",-19.600000381469727,-63.650001525878906,2950,SA,BO,BO-S,Caraparicito,0,SLLS,,,,,,50,2008-07-14T12:56:12+00:00
39420,SLBB,small_airport,"Bulo Bulo Airport",-17.257333755493164,-64.36666870117188,886,SA,BO,BO-C,Carrasco,0,SLBB,,,,,,50,2008-07-14T12:56:12+00:00
39538,SLJN,small_airport,"San Juan Estancias Airport",-14.166666984558105,-64.76667022705078,820,SA,BO,BO-B,Cercado,0,SLJN,,,,,,50,2008-07-15T08:00:33+00:00
29776,SLCN,small_airport,"Charaña Airport",-17.59469985961914,-69.43309783935547,13339,SA,BO,BO-L,Charaña,0,SLCN,,,,,,50,2008-07-14T12:56:12+00:00
6181,SLCH,small_airport,"Chimore Airport",-16.976834,-65.145568,875,SA,BO,BO-C,Chimore,1,SLCH,CCA,,,https://en.wikipedia.org/wiki/Chimore_Airport,,50,2018-09-23T11:06:59+00:00
39488,SLNL,small_airport,"Cañada Larga Airport",-17.601,-62.3957,1197,SA,BO,BO-S,Chiquitos,0,SLNL,,,,,,50,2015-04-25T20:34:29+00:00
39552,SLTC,small_airport,"Tres Cruces Airport",-17.3604,-62.2796,880,SA,BO,BO-S,Chiquitos,0,SLTC,,,,,,50,2015-04-25T19:52:01+00:00
29797,SLCP,small_airport,"Concepción Airport",-16.1382999420166,-62.02859878540039,1620,SA,BO,BO-S,Concepción,0,SLCP,CEP,,,,,50,2008-07-14T12:56:12+00:00
29802,SLCC,small_airport,"Copacabana Airport",-16.191099166870117,-69.09559631347656,12591,SA,BO,BO-L,Copacabana,0,SLCC,,,,,,50,2008-07-14T12:56:12+00:00
39415,SLAB,small_airport,"Abopo Airport",-18.631999969482422,-62.93920135498047,2752,SA,BO,BO-S,Cordillera,0,SLAB,,,,,,50,2008-07-14T12:56:12+00:00
39421,SLCE,small_airport,"Cabezas Airport",-18.795400619506836,-63.30030059814453,1328,SA,BO,BO-S,Cordillera,0,SLCE,,,,,,50,2008-07-14T12:56:12+00:00
39428,SLCG,small_airport,"Charagua Airport",-19.785600662231445,-63.18840026855469,2040,SA,BO,BO-S,Cordillera,0,SLCG,,,,,,50,2008-07-14T12:56:12+00:00
39432,SLUC,small_airport,"Cuevo Airport",-20.480499267578125,-63.528167724609375,3440,SA,BO,BO-S,Cordillera,0,SLUC,,,,,,50,2008-07-14T12:56:12+00:00
39438,SLEI,small_airport,"Espino Airport",-19.29990005493164,-63.20899963378906,2313,SA,BO,BO-S,Cordillera,0,SLEI,,,,,,50,2008-07-14T12:56:12+00:00
39444,SLIT,small_airport,"Itaguazurenda Airport",-19.77750015258789,-63.087799072265625,1598,SA,BO,BO-S,Cordillera,0,SLIT,,,,,,50,2008-07-14T12:56:12+00:00
39446,SLIZ,small_airport,"Izozog Airport",-18.663833618164062,-63.00233459472656,1082,SA,BO,BO-S,Cordillera,0,SLIZ,,,,,,50,2008-07-14T12:56:12+00:00
39450,SLME,small_airport,"Mandeyepecua Airport",-20.398000717163086,-63.140499114990234,1338,SA,BO,BO-S,Cordillera,0,SLME,,,,,,50,2008-07-14T12:56:12+00:00
39508,SLGP,small_airport,"Guirapembi Airport",-18.055999755859375,-63.16316604614258,1493,SA,BO,BO-S,Cordillera,0,SLGP,,,,,,50,2008-07-15T08:00:04+00:00
39547,SLTA,small_airport,"Taquipirenda Airport",-20.343299865722656,-63.139400482177734,2340,SA,BO,BO-S,Cordillera,0,SLTA,,,,,,50,2008-07-15T08:00:44+00:00
39557,SLBV,small_airport,"Villa Vista Montano Airport",-13.850000381469727,-66.36666870117188,519,SA,BO,BO-B,"De Montaño",0,SLBV,,,,,,50,2008-07-15T08:00:54+00:00
32321,SLAG,small_airport,"Monteagudo Airport",-19.82699966430664,-63.96099853515625,3674,SA,BO,BO-H,"El Bañado",0,SLAG,MHW,,,,,50,2008-07-14T12:56:12+00:00
39536,SLIP,small_airport,"Samaipata Airport",-18.183332443237305,-63.88333511352539,5600,SA,BO,BO-S,Florida,0,SLIP,,,,,,50,2008-07-15T08:00:31+00:00
39553,SLTX,small_airport,"Tuichi Airport",-14.316666603088379,-68.58333587646484,2360,SA,BO,BO-L,"Franz Tamayo",0,SLTX,,,,,,50,2008-07-15T08:00:50+00:00
39554,SLUU,small_airport,"Ulla Ulla Airport",-15.033333778381348,-69.25,14360,SA,BO,BO-L,"Franz Tamayo",0,SLUU,,,,,,50,2008-07-15T08:00:51+00:00
39456,SLRX,small_airport,"Rincon Del Tigre Airport",-18.200834274291992,-58.16999816894531,664,SA,BO,BO-S,"German Busch",0,SLRX,,,,,,50,2008-07-14T12:56:12+00:00
39418,SLAM,small_airport,"Arampampa Airport",-17.883333206176758,-66.0999984741211,10250,SA,BO,BO-P,"Gral. Ballivian",0,SLAM,,,,,,50,2008-07-14T12:56:12+00:00
39468,SLSP,small_airport,"Sipuati Airport",-21.07349967956543,-63.109500885009766,1400,SA,BO,BO-T,"Gran Chaco",0,SLSP,,,,,,50,2008-07-14T12:56:12+00:00
39486,SLCI,small_airport,"Caigua Airport",-21.16666603088379,-63.63333511352539,1440,SA,BO,BO-T,"Gran Chaco",0,SLCI,,,,,,50,2008-07-15T07:59:42+00:00
39542,SLSN,small_airport,"Sanandita Airport",-21.649999618530273,-63.599998474121094,3200,SA,BO,BO-T,"Gran Chaco",0,SLSN,,,,,,50,2008-07-15T08:00:39+00:00
39524,SLPA,small_airport,"Palmar Airport",-18.97166633605957,-62.97533416748047,1342,SA,BO,BO-S,Guanacos,0,SLPA,,,,,,50,2008-07-15T08:00:20+00:00
39422,SLCD,small_airport,"Cañada Airport",-20.025400161743164,-63.0890998840332,1954,SA,BO,BO-S,Gutierrez,0,SLCD,,,,,,50,2008-07-14T12:56:12+00:00
39442,SLHC,small_airport,"Huacareta Airport",-20.39080047607422,-64.0154037475586,4668,SA,BO,BO-H,"H. Silez",0,SLHC,,,,,,50,2008-07-14T12:56:12+00:00
39490,SLER,small_airport,"Cerrillos Airport",-20.016666412353516,-64.03333282470703,3300,SA,BO,BO-H,"Hernando Siles",0,SLER,,,,,,50,2008-07-15T07:59:46+00:00
39423,SLDA,small_airport,"Caranda Airport",-17.516666412353516,-63.516666412353516,1082,SA,BO,BO-S,Ichilo,0,SLDA,,,,,,50,2008-07-14T12:56:12+00:00
39537,SLZC,small_airport,"San Carlos Airport",-17.433332443237305,-63.68333435058594,1150,SA,BO,BO-S,Ichilo,0,SLZC,,,,,,50,2008-07-15T08:00:32+00:00
39559,SLYI,small_airport,"Yapacani Airport",-17.015666961669922,-64.05633544921875,816,SA,BO,BO-S,Ichilo,0,SLYI,,,,,,50,2008-07-15T08:00:56+00:00
39419,SLBR,small_airport,"Buen Retiro Itenez Airport",-13.416666984558105,-63.483333587646484,774,SA,BO,BO-B,Itenes,0,SLBR,,,,,,50,2008-07-14T12:56:12+00:00
39441,SLHJ,small_airport,"Huacaraje Airport",-13.5500001907,-63.747898101800004,846,SA,BO,BO-B,Itenes,0,SLHJ,BVK,,,,,50,2012-01-28T13:48:51+00:00
39480,SLBS,small_airport,"Bella Vista Itenez Airport",-14.2677001953125,-64.29900360107422,774,SA,BO,BO-B,Itenes,0,SLBS,,,,,,50,2008-07-15T07:59:36+00:00
39485,SLHA,small_airport,"Cachascani Airport",-13.5,-64.19999694824219,722,SA,BO,BO-B,Itenes,0,SLHA,,,,,,50,2008-07-15T07:59:41+00:00
39509,SLIR,small_airport,"Ibori Airport",-13.050000190734863,-63.66666793823242,775,SA,BO,BO-B,Itenes,0,SLIR,,,,,,50,2008-07-15T08:00:05+00:00
39513,SLLH,small_airport,"Lago Huachi Airport",-14.016666412353516,-63.53333282470703,700,SA,BO,BO-B,Itenes,0,SLLH,,,,,,50,2008-07-15T08:00:09+00:00
39541,SLZJ,small_airport,"San Pedro Richard Airport",-14.216666221618652,-63.650001525878906,700,SA,BO,BO-B,Itenes,0,SLZJ,,,,,,50,2008-07-15T08:00:38+00:00
39445,SLIX,small_airport,"Ixiamas Airport",-13.760000228881836,-68.13683319091797,725,SA,BO,BO-L,Iturralde,0,SLIX,,,,,,50,2008-07-14T12:56:12+00:00
39491,SLCX,small_airport,"Chive Airport",-12.377833366394043,-68.56766510009766,618,SA,BO,BO-L,Iturralde,0,SLCX,,,,,,50,2008-07-15T07:59:47+00:00
39516,SLMD,small_airport,"Madidi Airport",-13.383333206176758,-68.6500015258789,500,SA,BO,BO-L,Iturralde,0,SLMD,,,,,,50,2008-07-15T08:00:12+00:00
39453,SLPL,small_airport,"Padilla Airport",-19.299400329589844,-64.29409790039062,6770,SA,BO,BO-H,"J. Mendoza",0,SLPL,,,,,,50,2008-07-14T12:56:12+00:00
39493,SLLQ,small_airport,"Copaquilla Airport",-19.33333396911621,-67.08333587646484,12150,SA,BO,BO-O,"L. Cabrera",0,SLLQ,,,,,,50,2008-07-15T07:59:49+00:00
39510,SLIY,small_airport,"Intiraymi Airport",-17.808332443237305,-67.4433364868164,12467,SA,BO,BO-O,"La Joya",0,SLIY,,,,,,50,2008-07-15T08:00:06+00:00
39535,SLSJ,small_airport,"Salinas Airport",-19.5,-67.33333587646484,12027,SA,BO,BO-O,"Ladislao Cabrera",0,SLSJ,,,,,,50,2008-07-15T08:00:30+00:00
39548,SLTE,small_airport,"Teoponte Airport",-15.498332977294922,-67.81666564941406,1400,SA,BO,BO-L,Larecaja,0,SLTE,,,,,,50,2008-07-15T08:00:45+00:00
39478,SLYG,small_airport,"Yabog Airport",-18.654499053955078,-63.1328010559082,1412,SA,BO,BO-S,"Las Juntas",0,SLYG,,,,,,50,2008-07-14T12:56:12+00:00
30059,SLLJ,small_airport,"Laja Airport",-16.533899307250977,-68.30059814453125,12103,SA,BO,BO-L,"Los Andes",0,SLLJ,,,,,,50,2008-07-14T12:56:12+00:00
32322,SLPW,small_airport,"El Porvenir Sur Airport",-20.75469970703125,-63.20940017700195,2238,SA,BO,BO-H,"Luis Calvo",0,SLPW,,,,,,50,2008-07-15T11:57:36+00:00
39477,SLVU,small_airport,"Vuelta Grande Airport",-20.90483283996582,-63.19216537475586,1900,SA,BO,BO-H,"Luis Calvo",0,SLVU,,,,,,50,2008-07-14T12:56:12+00:00
39431,SLCR,small_airport,"Comarapa Airport",-17.91360092163086,-64.5177993774414,6186,SA,BO,BO-S,"M. Caballero",0,SLCR,,,,,,50,2008-07-14T12:56:12+00:00
39558,SLVZ,small_airport,"Villazon Airport",-22.077699661254883,-65.58889770507812,1100,SA,BO,BO-P,M.Omiste,0,SLVZ,,,,,,50,2008-07-15T08:00:55+00:00
39447,SLJA,small_airport,"Jatata Airport",-11.772832870483398,-67.25599670410156,575,SA,BO,BO-N,"Madre De Dios",0,SLJA,,,,,,50,2008-07-14T12:56:12+00:00
39481,SLBF,small_airport,"Blanca Flor Airport",-11.7272,-66.9263,598,SA,BO,BO-N,"Madre De Dios",0,SLBF,,,,http://en.wikipedia.org/wiki/Blanca_Flor_Airport,,50,2015-04-17T21:41:43+00:00
30099,SLMG,small_airport,"Magdalena Airport",-13.2607483767,-64.0607643127,462,SA,BO,BO-B,Magdalena,0,SLMG,MGD,,,,,50,2010-06-07T00:57:39+00:00
39429,SLCT,small_airport,"Choreti, Bolivia, South America Airport",-13.51449966430664,-64.96520233154297,656,SA,BO,BO-B,Mamore,0,SLCT,,,,,,50,2008-07-14T12:56:12+00:00
39475,SLVV,small_airport,"Villa Elvira Airport",-13.64430046081543,-64.44080352783203,722,SA,BO,BO-B,Mamore,0,SLVV,,,,,,50,2008-07-14T12:56:12+00:00
39479,SLBN,small_airport,"Bella Unión Airport",-13.633333206176758,-65.28333282470703,722,SA,BO,BO-B,Mamoré,0,SLBN,,,,,,50,2008-07-15T07:59:35+00:00
39502,SLEH,small_airport,"El Rancho Airport",-13.050000190734863,-65.03333282470703,722,SA,BO,BO-B,Mamore,0,SLEH,,,,,,50,2008-07-15T07:59:58+00:00
39518,SLMN,small_airport,"Manuripi Airport",-11.738499641418457,-68.35466766357422,705,SA,BO,BO-N,Manuripi,0,SLMN,,,,,,50,2008-07-15T08:00:14+00:00
39451,SLMZ,small_airport,"Mizque Airport",-17.930999755859375,-65.38020324707031,7030,SA,BO,BO-C,Mizque,0,SLMZ,,,,,,50,2008-07-14T12:56:12+00:00
39440,SLFL,small_airport,"Florida Airport",-14.614166259765625,-61.1974983215332,600,SA,BO,BO-S,Moira,0,SLFL,,,,,,50,2008-07-14T12:56:12+00:00
39454,SLPG,small_airport,"Progreso Airport",-14.178400039672852,-65.37560272216797,754,SA,BO,BO-B,Moxos,0,SLPG,,,,,,50,2008-07-14T12:56:12+00:00
39466,SLTG,small_airport,"Santiago Airport",-15.227800369262695,-65.45010375976562,1000,SA,BO,BO-B,Moxos,0,SLTG,,,,,,50,2008-07-14T12:56:12+00:00
39507,SLFR,small_airport,"Florencia Airport",-15.683333396911621,-65.56666564941406,574,SA,BO,BO-B,Moxos,0,SLFR,,,,,,50,2008-07-15T08:00:03+00:00
39512,SLEZ,small_airport,"La Esperanza Airport",-14.766666412353516,-65.53333282470703,1100,SA,BO,BO-B,Moxos,0,SLEZ,,,,,,50,2008-07-15T08:00:08+00:00
39528,SLPI,small_airport,"Pitai Airport",-15.800000190734863,-65.61666870117188,605,SA,BO,BO-B,Moxos,0,SLPI,,,,,,50,2008-07-15T08:00:23+00:00
39539,SLLZ,small_airport,"San Lorenzo Airport",-15.383333206176758,-65.75,825,SA,BO,BO-B,Moxos,0,SLLZ,,,,,,50,2008-07-15T08:00:34+00:00
39540,SLZB,small_airport,"San Pedro Rb Airport",-14.866666793823242,-65.6500015258789,720,SA,BO,BO-B,Moxos,0,SLZB,,,,,,50,2008-07-15T08:00:35+00:00
39544,SLIN,small_airport,"Santa Catalina Airport",-15.5,-65.91666412353516,722,SA,BO,BO-B,Moxos,0,SLIN,,,,,,50,2008-07-15T08:00:41+00:00
39439,SLFO,small_airport,"Flor De Oro Airport",-13.554800033569336,-61.00410079956055,560,SA,BO,BO-S,Moxos,0,SLFO,,,,,,50,2008-07-14T12:56:12+00:00
39461,SLZF,small_airport,"San Francisco Naciff Airport",-13.748600006103516,-64.45369720458984,482,SA,BO,BO-B,Nacif,0,SLZF,,,,,,50,2008-07-14T12:56:12+00:00
39425,SLCS,small_airport,"Cerdas Airport",-20.8083333333,-66.4011111111,12640,SA,BO,BO-P,"Nor Lipez",0,SLCS,,,,,,50,2012-01-28T06:22:07+00:00
39470,SLTL,small_airport,"Toldos Airport",-21.16860008239746,-67.17890167236328,11800,SA,BO,BO-P,"Nor Lipez",0,SLTL,,,,,,50,2008-07-14T12:56:12+00:00
39489,SLVI,small_airport,"Caranavi Airport",-15.75,-67.56666564941406,2100,SA,BO,BO-L,"Nor Yungas",0,SLVI,,,,,,50,2008-07-15T07:59:45+00:00
39497,SLUK,small_airport,"Curahuara de Carangas Airport",-17.98579978942871,-68.39430236816406,12920,SA,BO,BO-O,Oruro,0,SLUK,,,,,,50,2009-02-19T16:49:18+00:00
39551,SLTO,small_airport,"Totora Airport",-17.798166275024414,-68.09349822998047,12530,SA,BO,BO-O,Oruro,0,SLTO,,,,,,50,2008-07-15T08:00:48+00:00
39427,SLHS,small_airport,"Chacobos Airport",-19.59480094909668,-62.56570053100586,1437,SA,BO,BO-S,Parapeti,0,SLHS,,,,,,50,2008-07-14T12:56:12+00:00
39505,SLES,small_airport,"Estalsa Airport",-18.450000762939453,-66.91666412353516,12460,SA,BO,BO-O,Poopo,0,SLES,,,,,,50,2008-07-15T08:00:01+00:00
39473,SLUY,small_airport,"Uyuni Airport",-20.446300506599997,-66.8483963013,11136,SA,BO,BO-P,Quijarro,0,SLUY,UYU,,,,,50,2012-01-28T07:03:48+00:00
41592,BO-0002,small_airport,"Riberalta Airport",-11.01039981842041,-66.07340240478516,444,SA,BO,BO-B,Riberalta,0,,,,,,,50,2008-08-27T07:58:11+00:00
30345,SLRB,small_airport,"Roboré Airport",-18.329200744628906,-59.76499938964844,905,SA,BO,BO-S,Roboré,0,SLRB,RBO,,,,,50,2008-07-14T12:56:12+00:00
39472,SLTU,small_airport,"Turco Airport",-18.195833206176758,-68.14199829101562,12500,SA,BO,BO-O,Sajama,0,SLTU,,,,,,50,2008-07-14T12:56:12+00:00
30371,SLSM,small_airport,"San Ignacio de Moxos Airport",-14.9658,-65.6338,545,SA,BO,BO-B,"San Ignacio de Moxos",0,SLSM,SNM,,,http://en.wikipedia.org/wiki/San_Ignacio_de_Moxos_Airport,,50,2015-04-24T23:05:02+00:00
30372,SLSI,small_airport,"Capitán Av. Juan Cochamanidis S. Airport",-16.38360023498535,-60.962799072265625,1354,SA,BO,BO-S,"San Ignacio de Velasco",0,SLSI,SNG,,,,,50,2008-07-14T12:56:12+00:00
30375,SLJV,small_airport,"San Javier Airport",-16.27079963684082,-62.470298767089844,1702,SA,BO,BO-S,"San Javier",0,SLJV,SJV,,,,,50,2008-07-14T12:56:12+00:00
30386,SLJO,small_airport,"San Joaquín Airport",-13.0528,-64.661697,456,SA,BO,BO-B,"San Joaquín",0,SLJO,SJB,,,https://en.wikipedia.org/wiki/San_Joaqu%C3%ADn_Airport,,50,2016-06-13T08:19:53+00:00
30376,SLJE,small_airport,"San José De Chiquitos Airport",-17.830799102783203,-60.743099212646484,974,SA,BO,BO-S,"San José de Chiquitos",0,SLJE,SJS,,,,,50,2008-07-14T12:56:12+00:00
30387,SLTI,small_airport,"San Matías Airport",-16.33919906616211,-58.40190124511719,403,SA,BO,BO-S,"San Matías",0,SLTI,MQK,,,,,50,2008-08-27T07:58:46+00:00
39469,SLTW,small_airport,"Tita Airport",-18.466400146484375,-62.11199951171875,1312,SA,BO,BO-S,"San Rafael",0,SLTW,,,,,,50,2008-07-14T12:56:12+00:00
30388,SLRA,small_airport,"San Ramón Airport",-13.2639,-64.603897,698,SA,BO,BO-B,"San Ramón / Mamoré",0,SLRA,SRD,,,https://en.wikipedia.org/wiki/San_Ram%C3%B3n_Airport,,50,2016-06-13T08:18:33+00:00
39526,SLPY,small_airport,"Piray Airport",-18.333499908447266,-63.192501068115234,1730,SA,BO,BO-S,"Sanja Honda",0,SLPY,,,,,,50,2008-07-15T08:00:21+00:00
39464,SLSR,small_airport,"Santa Rosa De Yacuma Airport",-14.066200256347656,-66.78679656982422,738,SA,BO,BO-B,"Santa Rosa",0,SLSR,SRB,,,,,50,2008-08-27T07:58:46+00:00
39467,SLSQ,small_airport,"Santiago De Chiquitos Airport",-18.345800399780273,-59.604801177978516,1990,SA,BO,BO-S,"Santiago de Chiquitos",0,SLSQ,,,,,,50,2008-07-14T12:56:12+00:00
39471,SLTZ,small_airport,"Tupiza Airport",-21.34469985961914,-65.6156005859375,11300,SA,BO,BO-P,"Sud Chichas",0,SLTZ,,,,,,50,2008-07-14T12:56:12+00:00
39496,SLCU,small_airport,"Culpina Airport",-20.83333396911621,-64.96666717529297,9676,SA,BO,BO-H,"Sud Cinti",0,SLCU,,,,,,50,2008-07-15T07:59:52+00:00
39495,SLVD,small_airport,"Covendo Airport",-15.833333015441895,-67.08333587646484,4887,SA,BO,BO-L,"Sud Yungas",0,SLVD,,,,,,50,2008-07-15T07:59:51+00:00
39543,SLSH,small_airport,"Santa Ana De Huachi Airport",-15.483333587646484,-67.48332977294922,1640,SA,BO,BO-L,"Sud Yungas",0,SLSH,,,,,,50,2008-07-15T08:00:40+00:00
39458,SLSS,small_airport,"Sunsas Airport",-18.4754,-58.2767,855,SA,BO,BO-S,Sunsas,0,SLSS,,,,,,50,2015-04-25T01:40:56+00:00
39434,SLEK,small_airport,"El Condor Airport",-21.700834274291992,-63.45683288574219,1734,SA,BO,BO-T,Tesoro,0,SLEK,,,,,,50,2008-07-14T12:56:12+00:00
39436,SLEE,small_airport,"El Escondido Airport",-21.466999053955078,-63.35279846191406,1246,SA,BO,BO-T,Tesoro,0,SLEE,,,,,,50,2008-07-14T12:56:12+00:00
39549,SLVT,small_airport,"Tesoro/La Vertiente Airport",-21.266666412353516,-63.358333587646484,1300,SA,BO,BO-T,Tesoro,0,SLVT,,,,,,50,2008-07-15T08:00:46+00:00
39520,SLMX,small_airport,"Monos Araña Airport",-17.33333396911621,-64.16666412353516,1220,SA,BO,BO-S,"Valle Grande",0,SLMX,,,,,,50,2008-07-15T08:00:16+00:00
30518,SLVG,small_airport,"Capitán Av. Vidal Villagomez Toledo Airport",-18.482500076293945,-64.09940338134766,6551,SA,BO,BO-S,Vallegrande,0,SLVG,VAH,,,,,50,2008-07-14T12:56:12+00:00
39517,SLMB,small_airport,"Mangabalito Airport",-13.787833213806152,-68.35466766357422,1190,SA,BO,BO-O,Velasco,0,SLMB,,,,,,50,2008-07-15T08:00:13+00:00
39452,SLMM,small_airport,"Mora Airport",-14.608499526977539,-61.19183349609375,600,SA,BO,BO-S,Velasco,0,SLMM,,,,,,50,2008-07-14T12:56:12+00:00
39455,SLRF,small_airport,"Refugio Airport",-14.762700080871582,-61.03200149536133,610,SA,BO,BO-S,Velasco,0,SLRF,,,,,,50,2008-07-14T12:56:12+00:00
39463,SLZV,small_airport,"San Vicente Airport",-16.273700714111328,-60.0906982421875,1000,SA,BO,BO-S,Velasco,0,SLZV,,,,,,50,2008-07-14T12:56:12+00:00
39527,SLPF,small_airport,"Piso Firme Airport",-13.628833770751953,-61.73866653442383,575,SA,BO,BO-S,Velasco,0,SLPF,,,,,,50,2008-07-15T08:00:22+00:00
39529,SLPN,small_airport,"Porvenir Norte Airport",-13.987333297729492,-61.5456657409668,595,SA,BO,BO-S,Velasco,0,SLPN,,,,,,50,2008-07-15T08:00:24+00:00
39433,SLEA,small_airport,"El Cocal Airport",-13.559399604797363,-66.0790023803711,722,SA,BO,BO-B,Yacuma,0,SLEA,,,,,,50,2008-07-14T12:56:12+00:00
39435,SLDN,small_airport,"El Desengano Airport",-14.273599624633789,-65.44000244140625,730,SA,BO,BO-B,Yacuma,0,SLDN,,,,,,50,2008-07-14T12:56:12+00:00
39459,SLSD,small_airport,"San Carlos Gutierrez Airport",-14.561100006103516,-65.5271987915039,1820,SA,BO,BO-B,Yacuma,0,SLSD,,,,,,50,2008-07-14T12:56:12+00:00
39462,SLSG,small_airport,"San Miguel De Gaser Airport",-13.902099609375,-66.15670013427734,700,SA,BO,BO-B,Yacuma,0,SLSG,,,,,,50,2008-07-14T12:56:12+00:00
39474,SLVE,small_airport,"Venecia Airport",-14.63599967956543,-66.75029754638672,722,SA,BO,BO-B,Yacuma,0,SLVE,,,,,,50,2008-07-14T12:56:12+00:00
39476,SLVN,small_airport,"Villa Negrita Airport",-13.265800476074219,-65.87580108642578,872,SA,BO,BO-B,Yacuma,0,SLVN,,,,,,50,2008-07-14T12:56:12+00:00
39498,SLEC,small_airport,"El Cairo Airport",-13.783333778381348,-66.4000015258789,722,SA,BO,BO-B,Yacuma,0,SLEC,,,,,,50,2008-07-15T07:59:54+00:00
39500,SLEO,small_airport,"El Paraiso Airport",-14.383333206176758,-65.8499984741211,722,SA,BO,BO-B,Yacuma,0,SLEO,,,,,,50,2008-07-15T07:59:56+00:00
39501,SLEP,small_airport,"El Peru Airport",-14.604666709899902,-65.61833190917969,528,SA,BO,BO-B,Yacuma,0,SLEP,,,,,,50,2008-07-15T07:59:57+00:00
39503,SLEF,small_airport,"El Triunfo Airport",-13.883333206176758,-65.76667022705078,486,SA,BO,BO-B,Yacuma,0,SLEF,,,,,,50,2008-07-15T07:59:59+00:00
39511,SLJS,small_airport,"Josuani Airport",-13.083333015441895,-66.16666412353516,498,SA,BO,BO-B,Yacuma,0,SLJS,,,,,,50,2008-07-15T08:00:07+00:00
39515,SLLB,small_airport,"Las Brizas Airport",-14.516666412353516,-65.76667022705078,722,SA,BO,BO-B,Yacuma,0,SLLB,,,,,,50,2008-07-15T08:00:11+00:00
39522,SLNV,small_airport,"Nieve Airport",-14.016666412353516,-65.80000305175781,780,SA,BO,BO-B,Yacuma,0,SLNV,,,,,,50,2008-07-15T08:00:17+00:00
39523,SLNO,small_airport,"Nuevo Mundo Airport",-14.433333396911621,-66.06666564941406,548,SA,BO,BO-B,Yacuma,0,SLNO,,,,,,50,2008-07-15T08:00:18+00:00
39525,SLPM,small_airport,"Palmira Airport",-13.737951,-66.409333,530,SA,BO,BO-B,Yacuma,0,SLPM,,,,https://en.wikipedia.org/wiki/Palmira_Airport,,50,2016-06-09T09:15:45+00:00
39531,SLRH,small_airport,"Rancho Alegre Airport",-12.166666984558105,-65.78333282470703,754,SA,BO,BO-B,Yacuma,0,SLRH,,,,,,50,2008-07-15T08:00:26+00:00
39532,SLRR,small_airport,"Retiro Airport",-14.483333587646484,-66.3499984741211,556,SA,BO,BO-B,Yacuma,0,SLRR,,,,,,50,2008-07-15T08:00:27+00:00
39533,SLRL,small_airport,"Rosal Airport",-13.975000381469727,-65.625,482,SA,BO,BO-B,Yacuma,0,SLRL,,,,,,50,2008-07-15T08:00:28+00:00
39545,SLRT,small_airport,"Santa Rita Airport",-13.933333396911621,-66.33333587646484,750,SA,BO,BO-B,Yacuma,0,SLRT,,,,,,50,2008-07-15T08:00:42+00:00
39550,SLTY,small_airport,"Tiguipa Airport",-13.800000190734863,-66.23332977294922,722,SA,BO,BO-B,Yacuma,0,SLTY,,,,,,50,2008-07-15T08:00:47+00:00
314416,SLGQ,small_airport,"Chiquitos Airport",-18.5222,-60.6804,1058,SA,BO,BO-S,,0,SLGQ,,,,,,0,2015-04-25T18:49:42+00:00
314417,SLDL,small_airport,"Dalmacia Airport",-17.4426,-62.2442,888,SA,BO,BO-S,,0,SLDL,,,,,,0,2015-04-25T19:15:53+00:00
318452,BO-0010,small_airport,"Buen Jesus Airport",-13.657813,-62.801874,,SA,BO,BO-B,"Buen Jesus",0,,,,,,,0,2016-06-10T02:23:40+00:00
314385,BO-0008,small_airport,"Camiare Airport",-13.9698,-65.6699,493,SA,BO,BO-B,Camiare,0,,,,,,,0,2015-04-21T01:38:03+00:00
314402,BO-0009,small_airport,"Saipiru Airport",-19.3911991119,-63.072101593,2039,SA,BO,BO-S,Cordillera,0,,,,,,SLSS,0,2015-04-25T01:35:47+00:00
314378,BO-0006,small_airport,"El Mojar Airport",-12.4274,-65.5061,486,SA,BO,BO-B,"El Mojar",0,,,,,,,0,2015-04-19T22:50:30+00:00
314384,BO-0007,small_airport,"El Tacuaral",-14.0807,-65.658,500,SA,BO,BO-B,"El Tacuaral",0,,,,,,,0,2015-04-21T00:45:24+00:00
324118,BO-0014,small_airport,"Espiritu Airstrip",-16.226916,-60.546454,,SA,BO,BO-S,Espiritu,0,,,,,,,0,2017-06-28T06:39:24+00:00
321671,BO-0012,small_airport,"Ibibobo Airport",-21.532782,-62.971537,,SA,BO,BO-T,Ibibobo,0,,,,,,,0,2016-12-31T15:53:43+00:00
322454,BO-0013,small_airport,"Loreto Airport",-15.190029,-64.757926,534,SA,BO,BO-B,Loreto,0,,,,,,,0,2017-03-20T20:27:03+00:00
314358,SLUP,small_airport,"Puerto America Airport",-11.7616,-67.95864,571,SA,BO,BO-N,"Puerto America",0,SLUP,,,,,,0,2015-04-17T21:58:29+00:00
314372,BO-0003,small_airport,"San Juan de Beni Airport",-14.2626,-64.8721,487,SA,BO,BO-B,"Puerto Leigue",0,,,,,,,0,2015-04-19T14:33:47+00:00
314376,BO-0004,small_airport,"Puerto Ustarez Airport",-12.3431,-64.5205,478,SA,BO,BO-B,"Puerto Ustarez",0,,,,,,,0,2015-04-19T21:37:57+00:00
314377,BO-0005,small_airport,"Mayo Mayo Airport",-12.2974,-65.0986,499,SA,BO,BO-B,"Santa Rosa de Vigo",0,,,,,,"Puerto Vigo",0,2015-04-19T22:09:39+00:00
308773,SLHT,heliport,"Transierra Helipuerto",-21.3385,-63.479,1486,SA,BO,BO-T,"Transierra Natural Gas Co.",0,SLHT,,,,,,0,2013-05-26T14:40:36+00:00
318453,BO-0011,small_airport,"Tres Personas Airport",-14.130654,-61.820904,,SA,BO,BO-S,"Tres Personas",0,,,,,,,0,2016-06-10T02:25:50+00:00
