id,ident,type,name,latitude_deg,longitude_deg,elevation_ft,continent,iso_country,iso_region,municipality,scheduled_service,gps_code,iata_code,local_code,home_link,wikipedia_link,keywords,score,last_updated
"#meta +id","#meta +code","#loc +airport +type","#loc +airport +name","#geo +lat","#geo +lon","#geo +elevation +ft","#region +continent +code","#country +code +iso2","#adm1 +code +iso","#loc +municipality +name","#status +scheduled","#loc +airport +code +gps","#loc +airport +code +iata","#loc +airport +code +local","#meta +url +airport","#meta +url +wikipedia","#meta +keywords","#meta +score","#date +updated"
6421,UAAA,large_airport,"Almaty Airport",43.35210037231445,77.04049682617188,2234,AS,KZ,KZ-ALM,Almaty,1,UAAA,ALA,,,http://en.wikipedia.org/wiki/Almaty_International_Airport,"Alma Ata",1275,2008-09-15T08:54:42+00:00
6423,UACC,large_airport,"Astana International Airport",51.02220153808594,71.46690368652344,1165,AS,KZ,KZ-AKM,Astana,1,UACC,TSE,,,http://en.wikipedia.org/wiki/Astana_International_Airport,,1275,2008-09-15T08:54:44+00:00
6438,UATT,medium_airport,"Aktobe Airport",50.2458,57.206699,738,AS,KZ,KZ-AKT,Aktyubinsk,1,UATT,AKX,,,http://en.wikipedia.org/wiki/Aktobe_Airport,"Aktyubinsk Airport, Aktubinsk Airport, Аэропорт Актюбинск",1050,2018-06-23T20:17:31+00:00
6431,UAKK,large_airport,"Sary-Arka Airport",49.670799255371094,73.33439636230469,1765,AS,KZ,KZ-KAR,Karaganda,1,UAKK,KGF,,,http://en.wikipedia.org/wiki/Sary-Arka_Airport,,1275,2008-08-05T15:13:43+00:00
6429,UAII,medium_airport,"Shymkent Airport",42.364200592041016,69.47889709472656,1385,AS,KZ,KZ-YUZ,Shymkent,1,UAII,CIT,,,http://en.wikipedia.org/wiki/Shymkent_Airport,"Chimkent Airport, Аэропорт Шымкент, Аэропорт Чимкент",1050,2009-04-25T07:16:45+00:00
6433,UASK,medium_airport,"Ust-Kamennogorsk Airport",50.036598205566406,82.49420166015625,939,AS,KZ,KZ-VOS,"Ust Kamenogorsk",1,UASK,UKK,,,http://en.wikipedia.org/wiki/Ust-Kamenogorsk_Airport,"Ust-Kamennogorsk Airport, Аэропорт Усть-Каменногорск",1050,2009-04-22T17:23:09+00:00
6436,UATE,medium_airport,"Aktau Airport",43.8601,51.091999,73,AS,KZ,KZ-MAN,Aktau,1,UATE,SCO,,http://aktau-airport.kz/,https://en.wikipedia.org/wiki/Aktau_Airport,Akshukyr,1050,2018-09-15T03:50:36+00:00
6432,UARR,medium_airport,"Uralsk Airport",51.15079879760742,51.54309844970703,125,AS,KZ,KZ-ZAP,Uralsk,1,UARR,URA,,,http://en.wikipedia.org/wiki/Oral_Ak_Zhol_Airport,Podstepnyy,1050,2008-09-15T08:54:44+00:00
6435,UASS,medium_airport,"Semipalatinsk Airport",50.351295,80.234398,761,AS,KZ,KZ-VOS,Semey,1,UASS,PLX,,,http://en.wikipedia.org/wiki/Semipalitinsk_Airport,"Semey Airport",925,2017-09-30T16:03:24+00:00
6434,UASP,medium_airport,"Pavlodar Airport",52.19499969482422,77.07389831542969,410,AS,KZ,KZ-PAV,Pavlodar,1,UASP,PWQ,,,http://en.wikipedia.org/wiki/Pavlodar_Airport,"Pavlodar South",800,2008-09-15T08:54:44+00:00
6424,UADD,medium_airport,"Taraz Airport",42.853599548339844,71.30359649658203,2184,AS,KZ,KZ-ZHA,Taraz,1,UADD,DMB,,,http://en.wikipedia.org/wiki/Taraz_Airport,"Aulie Ata",800,2008-09-15T08:54:44+00:00
32495,UACP,medium_airport,"Petropavlosk South Airport",54.77470016479492,69.18389892578125,453,AS,KZ,KZ-SEV,Petropavlosk,1,UACP,PPK,,,,,550,2008-09-15T08:54:44+00:00
31794,UAOO,small_airport,"Kzyl-Orda Southwest Airport",44.706902,65.592499,433,AS,KZ,KZ-KZY,Kzyl-Orda,1,UAOO,KZO,,,https://en.wikipedia.org/wiki/Kyzylorda_Airport,,450,2018-09-13T13:02:44+00:00
41892,KZ-0040,small_airport,"Kokchetav Airport",53.324100494384766,69.36900329589844,731,AS,KZ,KZ-AKM,Kokchetav,0,,,,,,,50,2008-09-15T08:55:23+00:00
6437,UATG,medium_airport,"Atyrau Airport",47.12189865112305,51.8213996887207,-72,AS,KZ,KZ-ATY,Atyrau,1,UATG,GUW,,,http://en.wikipedia.org/wiki/Atyrau_Airport,,1050,2008-09-15T08:54:44+00:00
6439,UAUU,medium_airport,"Kostanay West Airport",53.20690155029297,63.55030059814453,595,AS,KZ,KZ-KUS,Kostanay,1,UAUU,KSN,,,http://en.wikipedia.org/wiki/Kostanai_Airport,,1050,2008-09-15T08:54:44+00:00
6430,UAKD,medium_airport,"Zhezkazgan Airport",47.708302,67.733299,1250,AS,KZ,KZ-KAR,Zhezkazgan,1,UAKD,DZN,,,http://en.wikipedia.org/wiki/Dzhezkazgan_Airport,"УАКД, Жезказган, Dzhezkazgan South",925,2016-08-13T19:55:25+00:00
31768,UACK,medium_airport,"Kokshetau Airport",53.329102,69.594597,900,AS,KZ,KZ-AKM,Kokshetau,1,UACK,KOV,,,https://en.wikipedia.org/wiki/Kokshetau_Airport,"KOKCHETAV TROFIMOVKA",650,2018-09-16T03:34:50+00:00
32501,UASA,medium_airport,"Ayaguz Airport",47.91859817504883,80.45279693603516,2119,AS,KZ,KZ-VOS,Ayaguz,0,UASA,,,,,Ayagoz,250,2008-08-05T15:47:07+00:00
6422,UAAH,medium_airport,"Balkhash Airport",46.8932991027832,75.00499725341797,1446,AS,KZ,KZ-KAR,Balkhash,0,UAAH,BXH,,,,Balqash,250,2008-08-05T15:55:37+00:00
34976,KZ-7470,medium_airport,"Dolon Air Base",50.540000915527344,79.19000244140625,705,AS,KZ,KZ-VOS,Semey,0,,,,,http://en.wikipedia.org/wiki/Dolon_(air_base),"Chagan-16, Semipalitinsk Dolon",250,2009-04-22T17:35:21+00:00
41873,KZ-0021,small_airport,"Abay Bazar Airport",41.36220169067383,68.98760223388672,1179,AS,KZ,KZ-YUZ,Abay,0,,,,,,,50,2008-09-15T08:55:04+00:00
41853,UAAR,small_airport,"Boralday Airport",43.35260009765625,76.88369750976562,2313,AS,KZ,KZ-ALM,"Aima Ata",0,UAAR,BXJ,,http://www.burundaiavia.kz/?lan=en,,"Burunday Airport, Almaty Northwest, Alma-Ata Northwest, Аэропорт Боралдай, Аэропорт Бурундай, Аэропорт Алма-Ата Северозападная",50,2009-04-22T05:02:11+00:00
41875,KZ-0023,small_airport,"Aitbuzum East Airport",41.09629821777344,68.68250274658203,965,AS,KZ,KZ-YUZ,Aitbuzum,0,,,,,,,50,2008-09-15T08:55:06+00:00
41907,KZ-0055,small_airport,"Stepnoye East Airport",41.62519836425781,69.39739990234375,1718,AS,KZ,KZ-YUZ,"Ak Dzhar",0,,,,,,,50,2008-09-15T08:55:38+00:00
41908,KZ-0056,small_airport,"Stepnoye West Airport",41.62139892578125,69.30329895019531,1700,AS,KZ,KZ-YUZ,"Ak Dzhar",0,,,,,,,50,2008-09-15T08:55:39+00:00
41871,KZ-0019,small_airport,"Zakirovskiy Airport",43.448002,77.049599,2038,AS,KZ,KZ-ALM,Almaty,0,UAAC,,,,,"Baiserke Airport",50,2016-08-18T20:30:15+00:00
41874,KZ-0022,small_airport,"Almaty North Airport",43.37300109863281,76.9800033569336,2159,AS,KZ,KZ-ALM,Almaty,0,,,,,,"Alma-Ata North Airport, Аэропорт Алма-Ата Северная",50,2009-04-22T05:10:42+00:00
32502,UATA,small_airport,"Aralsk Airport",46.83300018310547,61.617000579833984,223,AS,KZ,KZ-KZY,Aralsk,0,UATA,,,,,"Aral'sk Airport, Аэропорт Аральск",50,2009-04-22T07:54:07+00:00
30668,UAUR,small_airport,"Arkalyk North Airport",50.318599700927734,66.95279693603516,1266,AS,KZ,KZ-KUS,Arkalyk,0,UAUR,AYK,,,http://en.wikipedia.org/wiki/Arkalyk_Airport,,50,2008-09-15T08:54:44+00:00
41854,KZ-0002,small_airport,"Arkalyk Airport",50.239498138427734,66.94100189208984,1152,AS,KZ,KZ-KUS,Arkalyk,0,,,,,,,50,2008-09-15T08:54:46+00:00
41877,KZ-0025,small_airport,"Arkaylyk South Airport",50.25979995727539,66.910400390625,1118,AS,KZ,KZ-KUS,Arkalyk,0,,,,,,,50,2008-09-15T08:55:08+00:00
41855,KZ-0003,small_airport,"Arys Northeast Airport",42.470298767089844,68.83820343017578,750,AS,KZ,KZ-YUZ,Arys,0,,,,,,,50,2008-09-15T08:54:47+00:00
30659,KZ-ATX,small_airport,"Atbasar Airport",51.85169982910156,68.36329650878906,1010,AS,KZ,KZ-AKM,Atbasar,0,,ATX,,,http://en.wikipedia.org/wiki/Atbasar_Airport,"Аэропорт Атбасар",50,2009-04-22T07:35:10+00:00
41856,KZ-0004,small_airport,"Badam Airport",42.391300201416016,69.28050231933594,1102,AS,KZ,KZ-YUZ,Badam,0,,,,,,,50,2008-09-15T08:54:48+00:00
41876,KZ-0024,closed,"Aksu Airport",42.443501,69.821999,1900,AS,KZ,KZ-YUZ,"Belyye Vody",0,,,,,,"Aksukent, Аксукент, Belyye Vody",50,2016-02-24T00:00:02+00:00
41879,KZ-0027,small_airport,"Blinkovo Airport",42.25559997558594,70.12580108642578,3571,AS,KZ,KZ-YUZ,Blinkovo,0,,,,,,,50,2008-09-15T08:55:10+00:00
41880,KZ-0028,small_airport,"Bugun Airport",42.75749969482422,68.97959899902344,803,AS,KZ,KZ-YUZ,Bugun,0,,,,,,,50,2008-09-15T08:55:11+00:00
41881,KZ-0029,small_airport,"Burynshik Airport",45.38560104370117,51.76649856567383,1,AS,KZ,KZ-MAN,Burynshik,0,,,,,,,50,2008-09-15T08:55:12+00:00
41882,KZ-0030,small_airport,"Burynshik Southeast Airport",45.34389877319336,51.82680130004883,1,AS,KZ,KZ-MAN,Burynshik,0,,,,,,,50,2008-09-15T08:55:13+00:00
41883,KZ-0031,small_airport,"Chikment / Khatynkopir Airport",42.4640998840332,69.60099792480469,1530,AS,KZ,KZ-YUZ,"Chikment / Khatynkopir",0,,,,,,,50,2008-09-15T08:55:14+00:00
41858,KZ-0006,small_airport,"Chilik Southeast Airfield",43.22359848022461,78.7323989868164,4497,AS,KZ,KZ-ALM,Chilik,0,,,,,,,50,2008-09-15T08:54:49+00:00
41884,KZ-0032,small_airport,"Chubarovka Airport",42.57350158691406,69.3644027709961,1100,AS,KZ,KZ-YUZ,Chubarovka,0,,,,,,,50,2008-09-15T08:55:15+00:00
41885,KZ-0033,small_airport,"Dzhetygara Airport",52.20479965209961,61.175498962402344,905,AS,KZ,KZ-KUS,Dzhetygara,0,,,,,,,50,2008-09-15T08:55:16+00:00
41860,KZ-0008,closed,"Dzhezkazgan Airport",47.770802,67.673401,1134,AS,KZ,KZ-KAR,Dzhezkazgan,0,,,,,,"Zhezkazgan Airport, Аэропорт Джезказган, Аэропорт Жезказган",50,2016-08-13T19:56:19+00:00
41886,UASB,medium_airport,"Ekibastuz Airport",51.590999603271484,75.21499633789062,621,AS,KZ,KZ-PAV,Ekibastuz,0,UASB,EKB,,,http://en.wikipedia.org/wiki/Ekibastuz_Airport,"Аэропорт Экибастуз",50,2009-04-22T19:45:54+00:00
41861,KZ-0009,small_airport,"Gurvey Northeast Airport",47.22420120239258,52.0078010559082,100,AS,KZ,KZ-ATY,Gurvey,0,,,,,,,50,2008-09-15T08:54:52+00:00
41862,KZ-0010,small_airport,"Iliysk North Airport",43.99829864501953,77.13909912109375,2343,AS,KZ,KZ-ALM,Iliysk,0,,,,,,,50,2008-09-15T08:54:53+00:00
41863,KZ-0011,small_airport,"Zhetygen Airport",43.733101,77.119404,1638,AS,KZ,KZ-ALM,Iliysk,0,,,XAAA,,,"Zhetygen Airport,Iliysk South Airport, Nikolayevka Air Base, Nikolaevka Air Base",50,2016-08-20T22:54:36+00:00
41864,KZ-0012,small_airport,"Karabulak Airport",42.502899169921875,69.8031005859375,1670,AS,KZ,KZ-YUZ,Karabulak,0,,,,,,,50,2008-09-15T08:54:55+00:00
41887,KZ-0035,small_airport,"Karaganda Southeast Airport",49.807701110839844,73.14140319824219,1800,AS,KZ,KZ-KAR,Karaganda,0,,,,,,,50,2008-09-15T08:55:18+00:00
41888,KZ-0036,small_airport,"Karaganda Southwest Airport",49.66510009765625,72.981201171875,1634,AS,KZ,KZ-KAR,Karaganda,0,,,,,,,50,2008-09-15T08:55:19+00:00
41889,KZ-0037,small_airport,"Karazhal Airport",47.992801666259766,70.7748031616211,2155,AS,KZ,KZ-KAR,Karahzal,0,,,,,,,50,2008-09-15T08:55:20+00:00
41890,KZ-0038,small_airport,"Kegan Airport",43.007598876953125,79.22270202636719,6051,AS,KZ,KZ-ALM,Kegen,0,,,,,,,50,2008-09-15T08:55:21+00:00
41891,KZ-0039,small_airport,"Kentau Airport",43.48830032348633,68.49549865722656,1275,AS,KZ,KZ-YUZ,Kentau,0,,,,,,,50,2008-09-15T08:55:22+00:00
41865,KZ-0013,small_airport,"Kok-Tyube Airport",42.88560104370117,68.9791030883789,781,AS,KZ,KZ-YUZ,Kok_Tyube,0,,,,,,,50,2008-09-15T08:54:56+00:00
41866,KZ-0014,small_airport,"Kostanay Airport",53.22959899902344,63.60319900512695,549,AS,KZ,KZ-KUS,Kostanay,0,,,,,,,50,2008-09-15T08:54:57+00:00
41893,KZ-0041,small_airport,"Krasnyy Most East Airport",42.769100189208984,69.27999877929688,991,AS,KZ,KZ-YUZ,"Krasnyy Most",0,,,,,,,50,2008-09-15T08:55:24+00:00
41857,KZ-0005,small_airport,"Buzachi Airport",45.19729995727539,51.347900390625,1,AS,KZ,KZ-MAN,Kuttay,0,,,,,,"Аэропорт Бузачи",50,2009-04-24T12:15:03+00:00
41894,KZ-0042,small_airport,"Kyzylasker Airport",42.60860061645508,69.58999633789062,1231,AS,KZ,KZ-YUZ,Kyzylasker,0,,,,,,,50,2008-09-15T08:55:25+00:00
41895,KZ-0043,small_airport,"Kyzylkishlak Airport",42.55070114135742,69.6583023071289,1457,AS,KZ,KZ-YUZ,Kyzylkishlak,0,,,,,,,50,2008-09-15T08:55:26+00:00
41896,KZ-0044,small_airport,"Kzyl-Orda Airport",44.81570053100586,65.55699920654297,410,AS,KZ,KZ-KZY,Kzyl-Orda,0,,,,,,,50,2008-09-15T08:55:27+00:00
3966,UA36,small_airport,"Lugovoy Airport",42.973598,72.726402,2130,AS,KZ,KZ-ZHA,Lugovoy,0,UA36,,XAAL,,,,50,2016-08-20T23:02:39+00:00
41897,KZ-0045,small_airport,"Narynkol Airport",42.720001220703125,80.18609619140625,6012,AS,KZ,KZ-ALM,Narynkol,0,,,,,,,50,2008-09-15T08:55:28+00:00
41898,KZ-0046,small_airport,"Novotroitskoye Airport",43.70280075073242,73.74500274658203,1487,AS,KZ,KZ-ZHA,Novotroitskoye,0,,,,,,,50,2008-09-15T08:55:29+00:00
41899,KZ-0047,small_airport,"Obruchevka Airport",42.51070022583008,69.11589813232422,912,AS,KZ,KZ-YUZ,Obruchevka,0,,,,,,,50,2008-09-15T08:55:30+00:00
41900,KZ-0048,small_airport,"Pervomoyevka Airport",42.09469985961914,69.90149688720703,2949,AS,KZ,KZ-YUZ,Pervomoyevka,0,,,,,,,50,2008-09-15T08:55:31+00:00
41901,KZ-0049,small_airport,"Petropavlosk North Airport",54.967498779296875,69.06719970703125,295,AS,KZ,KZ-SEV,Petropavlosk,0,,,,,,,50,2008-09-15T08:55:32+00:00
41902,KZ-0050,small_airport,"Podgorny Airport",43.11069869995117,72.44779968261719,2150,AS,KZ,KZ-ZHA,Podgorny,0,,,,,,,50,2008-09-15T08:55:33+00:00
41903,KZ-0051,small_airport,"Rodnikovskiy Airport",50.641300201416016,57.1693000793457,1191,AS,KZ,KZ-AKT,Rodnikovskiy,0,,,,,,,50,2008-09-15T08:55:34+00:00
41867,KZ-0015,small_airport,"Sarkand Airport",45.41859817504883,79.93170166015625,2500,AS,KZ,KZ-ALM,Sarkand,0,,,,,,,50,2008-09-15T08:54:58+00:00
41904,KZ-0052,small_airport,"Sary Agach Airport",41.456199645996094,69.14189910888672,1418,AS,KZ,KZ-YUZ,"Sary Agach",0,,,,,,,50,2008-09-15T08:55:35+00:00
41859,KZ-0007,small_airport,"Chimkent/Sayram Airport",42.29349899291992,69.84559631347656,2470,AS,KZ,KZ-YUZ,Sayram,0,,,,,,,50,2008-09-15T08:54:50+00:00
34977,KZ-6022,closed,"Dolon Southwest Air Base",50.25,79.08329772949219,830,AS,KZ,KZ-VOS,Semey,0,,,,,http://en.wikipedia.org/wiki/Dolon_Southwest,Semipalatinsk,50,2008-08-05T15:45:36+00:00
41905,KZ-0053,small_airport,"Shagyr Airport",42.17369842529297,68.84100341796875,1006,AS,KZ,KZ-YUZ,"Shagyr ",0,,,,,,,50,2008-09-15T08:55:36+00:00
3964,UA34,small_airport,"Chardara Airport",41.2765007019043,67.97100067138672,709,AS,KZ,KZ-YUZ,Shardara,0,UA34,,UA34,,,,50,2008-08-05T15:31:46+00:00
41906,KZ-0054,small_airport,"Shelpe Southeast Airport",44.068599700927734,52.2765007019043,935,AS,KZ,KZ-MAN,Shelpe,0,,,,,,,50,2008-09-15T08:55:37+00:00
41909,KZ-0057,small_airport,"Syugaty Airport",43.172298431396484,74.62200164794922,2030,AS,KZ,KZ-ZHA,Syugati,0,,,,,,,50,2008-09-15T08:55:40+00:00
41910,KZ-0058,small_airport,"Taganassay Airport",42.218101501464844,69.00440216064453,1035,AS,KZ,KZ-YUZ,Taganassay,0,,,,,,,50,2008-09-15T08:55:41+00:00
41868,KZ-0016,medium_airport,"Taldykorgan Airport",45.12620162963867,78.4469985961914,1925,AS,KZ,KZ-ALM,"Taldy Kurgan",0,UAAT,TDK,,,,"Taldy Kurgan Airport, Taldy Kurgan Northeast Airport, Аэропорт Талды-Курган",50,2009-08-25T17:23:32+00:00
41911,KZ-0059,small_airport,"Tamerlanovka Airport",42.614498138427734,69.2490005493164,1033,AS,KZ,KZ-YUZ,Tamerlannovka,0,,,,,,,50,2008-09-15T08:55:42+00:00
41912,KZ-0060,small_airport,"Togyzbay Airport",41.361698150634766,68.74109649658203,1005,AS,KZ,KZ-YUZ,Togyzbay,0,,,,,,,50,2008-09-15T08:55:43+00:00
41913,KZ-0061,small_airport,"Turkestan Airport",43.27690124511719,68.19039916992188,669,AS,KZ,KZ-YUZ,Turkestan,0,UAJT,,,,,,50,2009-08-25T15:41:19+00:00
41914,KZ-0062,small_airport,"Uralsk West Airport",51.19609832763672,51.299400329589844,125,AS,KZ,KZ-ZAP,Uralsk,0,,,,,,,50,2008-09-15T08:55:45+00:00
41869,KZ-0017,small_airport,"Uzen Airport",43.34640121459961,52.93040084838867,695,AS,KZ,KZ-MAN,Uzen,0,,,,,,,50,2008-09-15T08:55:00+00:00
41916,KZ-0064,small_airport,"Volskoye Airport",50.38880157470703,73.09420013427734,1808,AS,KZ,KZ-KAR,Volskoye,0,,,,,,,50,2008-09-15T08:55:47+00:00
41915,KZ-0063,small_airport,"Ush Tobe Airport",50.57619857788086,66.74220275878906,985,AS,KZ,KZ-KUS,Vostochnyy,0,,,,,,,50,2008-09-15T08:55:46+00:00
41870,KZ-0018,small_airport,"Yeskiikan Southeast Airport",43.26559829711914,68.6427001953125,896,AS,KZ,KZ-YUZ,Yeskiikan,0,,,,,,,50,2008-09-15T08:55:01+00:00
41872,KZ-0020,small_airport,"Zhilga South Airport",41.69940185546875,69.00460052490234,1318,AS,KZ,KZ-YUZ,Zhilga,0,,,,,,,50,2008-09-15T08:55:03+00:00
44405,KZ-0074,closed,"Dzhaman Kuduk Airfield",46.34700012207031,72.81999969482422,,AS,KZ,KZ-KAR,,0,,,,,,"Аэродром Джаман Кудук",0,2009-04-29T14:18:05+00:00
319910,KZ-0083,small_airport,"Akchatau Airport",47.891086,74.054011,2135,AS,KZ,KZ-KAR,Akchatau,0,,,,,,"TPC F-6A",0,2016-08-20T20:36:46+00:00
317106,KZ-0076,small_airport,"Blagoveshchenskoye-Chu Airport",43.259973,74.038989,1795,AS,KZ,KZ-ZHA,Aksu,0,,,,,,,0,2016-02-25T18:44:14+00:00
318186,KZ-0080,small_airport,"Akkala Airport",47.784326,82.65697,1890,AS,KZ,KZ-VOS,Aksuat,0,,,ZCZ0,,,"Ekpin, Аккала, Аксуат",0,2016-08-21T13:06:36+00:00
44326,KZ-0065,closed,"Aksuyek Airport",44.61199951171875,74.56199645996094,,AS,KZ,KZ-ALM,Aksuyek,0,,,,,,"Aksuek Airport, Аэропорт Аксуек",0,2009-04-22T04:15:47+00:00
44327,KZ-0066,closed,"Aktogay Air Base",46.891998291015625,79.84500122070312,,AS,KZ,KZ-VOS,Aktogay,0,,,,,,"Аэродром Актогай",0,2009-04-22T04:41:26+00:00
46156,KZ-0001,closed,"Zhuz Agach Air Base",47.065327927599995,79.702205658,1224,AS,KZ,KZ-VOS,Aktogay,0,,,,,,"Аэродром Жуз-Агач",0,2010-01-16T16:14:47+00:00
318185,KZ-0079,closed,"Akzhar Airport",47.582142,83.726539,,AS,KZ,KZ-VOS,Akzhar,0,,,,,,,0,2016-05-31T02:56:51+00:00
328533,KZ-0092,closed,"Amangeldy Airfield",50.205601,65.178643,453,AS,KZ,KZ-KUS,Amangeldi,0,,,,,,Амангелді,0,2018-06-23T21:13:02+00:00
44335,UAON,medium_airport,"Yubileyniy Airfield",46.05500030517578,63.25,328,AS,KZ,KZ-BAY,Baikonur,0,UAON,,,,,"Yubileyniy Airfield, Yubileiniy Airfield, Yubileyny Airfield, Yubileiny Airfield, Аэродром Юбилейный",0,2009-04-22T08:02:30+00:00
44336,KZ-0067,medium_airport,"Krainiy Airport",45.621994,63.210773,317,AS,KZ,KZ-BAY,Baikonur,0,UAOL,BXY,,,https://en.wikipedia.org/wiki/Baikonur_Krayniy_Airport,"Krayniy Airport, Аэропорт Крайний",0,2018-09-21T10:35:41+00:00
319915,KZ-0088,small_airport,"Jeppesen Avia Club Airport",44.564,76.6392,1345,AS,KZ,KZ-ALM,Bakbakty,0,,,ZBC5,,,,0,2016-08-21T00:21:23+00:00
319921,KZ-0090,small_airport,"Beyneu Airport",45.33196,55.12443,10,AS,KZ,KZ-MAN,Beyneu,0,,,ZCV6,,,,0,2016-08-21T12:26:30+00:00
44428,KZ-0075,small_airport,"Charyn Airfield",43.720001220703125,79.4749984741211,,AS,KZ,KZ-ALM,Charyn,0,,,,,,"Sharyn Airfield, Аэродром Чарын, Аэродром Шарын",0,2009-05-07T06:01:29+00:00
44391,UATR,medium_airport,"Chelkar Airport",47.904998779296875,59.619998931884766,,AS,KZ,KZ-AKT,Chelkar,0,UATR,,,,,"Shalkar Airport, Аэропорт Челкар, Аэропорт Шалкар",0,2009-04-24T16:41:55+00:00
44401,KZ-0073,closed,"Chundzha Airfield",43.599998474121094,79.43000030517578,,AS,KZ,KZ-ALM,Chundzha,0,,,,,,"Аэродром Чунджа",0,2009-04-27T18:08:48+00:00
319911,KZ-0084,small_airport,"Gora Sasyrly Airport",47.17,71.39,1800,AS,KZ,KZ-KAR,Dzhambul,0,,,,,,Gzhambul,0,2016-08-20T21:37:30+00:00
319912,KZ-0085,small_airport,"Koktas Southwest Airport",47.351,70.616,1474,AS,KZ,KZ-KAR,Koktas,0,,,,,,,0,2016-08-20T22:03:40+00:00
319913,KZ-0086,small_airport,"Koktas Airport",47.341,70.684,1504,AS,KZ,KZ-KAR,Koktas,0,,,,,,,0,2016-08-20T22:48:57+00:00
44355,KZ-0068,medium_airport,"Kurchatov Airfield",50.73500061035156,78.54000091552734,,AS,KZ,KZ-VOS,Kurchatov,0,,,,,,"Аэродром Курчатов",0,2009-04-22T17:42:39+00:00
317105,KZ-0034,small_airport,"Moinkum Airport",43.610131,74.279132,3120,AS,KZ,KZ-ZHA,Moinkum,0,,,,,,"Moyynkum, Мойынкум",0,2016-02-25T18:09:11+00:00
319922,KZ-0091,small_airport,"Novotroitskoye Airport",53.9114,61.5384,745,AS,KZ,KZ-KUS,Novotroitskoye,0,,,ZD00,,,,0,2016-08-21T13:56:35+00:00
317104,KZ-0026,closed,"Novotroitskoye West Airfield",43.7193,73.538,1475,AS,KZ,KZ-ZHA,Novotroitskoye,0,,,,,,,0,2016-02-25T17:23:50+00:00
319914,KZ-0087,small_airport,"Cambala Airport",46.02491,73.494567,1330,AS,KZ,KZ-KAR,Priozersk,0,,,XAAM,,,"Камбала, Sary Shagan",0,2016-08-20T23:54:15+00:00
320002,UACS,small_airport,"Stepnogorsk Airport",52.326,71.8523,1060,AS,KZ,KZ-AKM,Stepnogorsk,0,UACS,,,,,"Aksu, Степногорска, Аксу",0,2016-08-28T20:10:16+00:00
318182,KZ-0077,closed,"Tughyl Airport",47.675444,84.300148,,AS,KZ,KZ-VOS,Tughyl,0,,,,,,,0,2016-05-31T02:42:10+00:00
319622,UAUT,small_airport,"Turgay Airport",49.632395,63.4703,445,AS,KZ,KZ-KUS,Turgay,0,UAUT,,,,,"УАУТ, Торгай",0,2016-07-24T19:34:36+00:00
313684,UZR,small_airport,"Urzhar Airport",47.09115,81.66521,,AS,KZ,KZ-VOS,Urzhar,1,UASU,UZR,,,,"Urdzhar, Үржар, Урджар",0,2017-09-30T15:47:30+00:00
318380,KZ-0082,small_airport,"Usharal Airport",46.190767,80.830922,1288,AS,KZ,KZ-ALM,Usharal,0,UAAL,,,,,"Enbekshi Airport",0,2016-08-18T20:45:08+00:00
319920,KZ-0089,small_airport,"Yrgyz Airport",48.626201,61.2373,375,AS,KZ,KZ-AKT,Yrgyz,0,,,ZBZ1,,,"Irgiz, Ырғыз, Иргиз",0,2016-08-21T09:46:37+00:00
318183,UASE,small_airport,"Zaysan Airport",47.487491,84.887675,1877,AS,KZ,KZ-VOS,Zaysan,1,UASZ,SZI,,,https://en.wikipedia.org/wiki/Zaysan_Airport,Zaisan,0,2017-09-30T15:19:12+00:00
318184,KZ-0078,closed,"Zaysan West Airport",47.609809,84.57742,,AS,KZ,KZ-VOS,Zaysan,0,,,,,,,0,2016-05-31T02:53:23+00:00
44357,KZ-0069,medium_airport,"Zhangiztobe Air Base",49.220001220703125,81.30999755859375,,AS,KZ,KZ-VOS,Zhangiztobe,0,,,,,,"Zhangiz-Tobe Air Base, Аэродром Жангизтобе, Аэродром Жангиз-Тобе",0,2009-04-22T17:51:48+00:00
313249,HRC,small_airport,"Sary Su Airport",48.3974,70.1915,1307,AS,KZ,KZ-KAR,Zhayrem,0,,HRC,,,,"Zhairem, Жайрем",0,2014-11-20T00:19:22+00:00
44389,KZ-0071,closed,"Karas Air Base",48.73699951171875,58.04199981689453,,AS,KZ,KZ-AKT,Zhem,0,,,,,,"Emba Air Base, Аэродром Карась,Аэродром Эмба",0,2009-04-24T13:54:46+00:00
44390,KZ-0072,closed,"Karas Air Base",48.73699951171875,58.04199981689453,,AS,KZ,KZ-AKT,Zhem,0,,,,,,"Emba Air Base, Аэродром Карась, Аэродром Эмба",0,2009-04-24T13:54:54+00:00
44386,KZ-0070,small_airport,"Zhosaly Airport",45.51499938964844,64.08499908447266,335,AS,KZ,KZ-KZY,Zhosaly,0,,,,,,"Dzhusaly Airport, Аэропорт Жосалы, Аэропорт Джусалы",0,2009-04-24T13:34:01+00:00
318187,KZ-0081,small_airport,"Zubovsk Airport",49.800103,84.214661,,AS,KZ,KZ-VOS,Zyryanovsk,0,,,,,,,0,2016-05-31T03:11:45+00:00
