id,ident,type,name,latitude_deg,longitude_deg,elevation_ft,continent,iso_country,iso_region,municipality,scheduled_service,gps_code,iata_code,local_code,home_link,wikipedia_link,keywords,score,last_updated
"#meta +id","#meta +code","#loc +airport +type","#loc +airport +name","#geo +lat","#geo +lon","#geo +elevation +ft","#region +continent +code","#country +code +iso2","#adm1 +code +iso","#loc +municipality +name","#status +scheduled","#loc +airport +code +gps","#loc +airport +code +iata","#loc +airport +code +local","#meta +url +airport","#meta +url +wikipedia","#meta +keywords","#meta +score","#date +updated"
6104,SKBO,large_airport,"El Dorado International Airport",4.70159,-74.1469,8361,SA,CO,CO-CUN,Bogota,1,SKBO,BOG,BOG,,http://en.wikipedia.org/wiki/El_Dorado_International_Airport,,51275,2009-10-20T10:46:07+00:00
6109,SKCG,medium_airport,"Rafael Nuñez International Airport",10.4424,-75.513,4,SA,CO,CO-BOL,Cartagena,1,SKCG,CTG,CTG,,http://en.wikipedia.org/wiki/Rafael_N%C3%BA%C3%B1ez_International_Airport,,875,2009-10-20T10:46:09+00:00
6158,SKRG,medium_airport,"Jose Maria Córdova International Airport",6.16454,-75.4231,6955,SA,CO,CO-ANT,Medellín,1,SKRG,MDE,MDE,,http://en.wikipedia.org/wiki/Jos%C3%A9_Mar%C3%ADa_C%C3%B3rdova_International_Airport,,1050,2017-08-14T21:49:57+00:00
6110,SKCL,medium_airport,"Alfonso Bonilla Aragon International Airport",3.54322,-76.3816,3162,SA,CO,CO-VAC,Cali,1,SKCL,CLO,CLO,,http://en.wikipedia.org/wiki/Alfonso_Bonilla_Arag%C3%B3n_International_Airport,,1050,2009-10-20T10:46:09+00:00
6163,SKSP,medium_airport,"Gustavo Rojas Pinilla International Airport",12.5836,-81.7112,19,SA,CO,CO-SAP,"San Andrés",1,SKSP,ADZ,ADZ,,http://en.wikipedia.org/wiki/Gustavo_Rojas_Pinilla_International_Airport,,875,2009-10-20T10:46:25+00:00
6105,SKBQ,medium_airport,"Ernesto Cortissoz International Airport",10.8896,-74.7808,98,SA,CO,CO-ATL,Barranquilla,1,SKBQ,BAQ,BAQ,,http://en.wikipedia.org/wiki/Ernesto_Cortissoz_International_Airport,,1050,2009-10-20T10:46:07+00:00
6161,SKSM,medium_airport,"Simón Bolívar International Airport",11.1196,-74.2306,22,SA,CO,CO-MAG,"Santa Marta",1,SKSM,SMR,SMR,,http://en.wikipedia.org/wiki/Sim%C3%B3n_Bol%C3%ADvar_International_Airport_(Colombia),,800,2015-05-08T23:40:04+00:00
6140,SKMZ,medium_airport,"La Nubia Airport",5.0296,-75.4647,6871,SA,CO,CO-CAL,Manizales,1,SKMZ,MZL,MZL,,http://en.wikipedia.org/wiki/La_Nubia_Airport,,800,2009-10-20T10:46:19+00:00
6132,SKMD,medium_airport,"Enrique Olaya Herrera Airport",6.220549,-75.590582,4949,SA,CO,CO-ANT,Medellín,1,SKMD,EOH,EOH,,http://en.wikipedia.org/wiki/Enrique_Olaya_Herrera_International_Airport,,800,2011-06-13T16:50:03+00:00
6148,SKPE,medium_airport,"Matecaña International Airport",4.81267,-75.7395,4416,SA,CO,CO-RIS,Pereira,1,SKPE,PEI,PEI,,http://en.wikipedia.org/wiki/Mateca%C3%B1a_International_Airport,,875,2009-10-20T10:46:19+00:00
6099,SKAR,medium_airport,"El Eden Airport",4.45278,-75.7664,3990,SA,CO,CO-QUI,Armenia,1,SKAR,AXM,AXM,,http://en.wikipedia.org/wiki/El_Ed%C3%A9n_Airport,,800,2009-10-20T10:46:07+00:00
6155,SKPV,medium_airport,"El Embrujo Airport",13.3569,-81.3583,10,SA,CO,CO-SAP,Providencia,1,SKPV,PVA,PVA,,http://en.wikipedia.org/wiki/El_Embrujo_Airport,,800,2015-05-09T00:28:37+00:00
6108,SKCC,medium_airport,"Camilo Daza International Airport",7.92757,-72.5115,1096,SA,CO,CO-NSA,Cúcuta,1,SKCC,CUC,CUC,,http://en.wikipedia.org/wiki/Camilo_Daza_International_Airport,,1050,2009-10-20T10:46:08+00:00
6130,SKLT,medium_airport,"Alfredo Vásquez Cobo International Airport",-4.19355,-69.9432,277,SA,CO,CO-AMA,Leticia,1,SKLT,LET,LET,,http://en.wikipedia.org/wiki/V%C3%A1squez_Cobo_International_Airport,,875,2009-10-20T10:46:17+00:00
6102,SKBG,medium_airport,"Palonegro Airport",7.1265,-73.1848,3897,SA,CO,CO-SAN,Bucaramanga,1,SKBG,BGA,BGA,,http://en.wikipedia.org/wiki/Palo_Negro_International_Airport,,800,2009-10-20T10:46:07+00:00
6154,SKPS,medium_airport,"Antonio Narino Airport",1.39625,-77.2915,5951,SA,CO,CO-NAR,Pasto,1,SKPS,PSO,PSO,,http://en.wikipedia.org/wiki/Antonio_Nari%C3%B1o_Airport,,800,2018-09-14T06:31:10+00:00
6177,SKVV,medium_airport,"Vanguardia Airport",4.16787,-73.6138,1394,SA,CO,CO-MET,Villavicencio,1,SKVV,VVC,VVC,,http://en.wikipedia.org/wiki/La_Vanguardia_Airport,,800,2009-10-20T10:46:27+00:00
40906,SK-429,small_airport,"Leticia Airport",4.463611,-75.033611,2197,SA,CO,CO-TOL,Alvarado,0,,,LCT,,,,50,2009-10-20T10:45:58+00:00
41044,SK-144,small_airport,"Ayacucho Airport",8.6,-73.616667,415,SA,CO,CO-CES,Ayacucho,0,,AYC,AYC,,,,50,2012-06-24T18:00:43+00:00
6119,SKGB,small_airport,"Marco Fidel Suarez Air Base",3.45899,-76.4966,3165,SA,CO,CO-VAC,Cali,0,SKGB,,,,,,50,2009-10-20T10:46:14+00:00
40960,SK-464,small_airport,"Praga Airport",4.589167,-75.981667,3025,SA,CO,CO-VAC,Obando,0,,,OBA,,,,50,2009-10-20T10:46:01+00:00
6171,SKUC,medium_airport,"Santiago Perez Airport",7.06888,-70.7369,420,SA,CO,CO-ARA,Arauca,1,SKUC,AUC,AUC,,http://en.wikipedia.org/wiki/Santiago_P%C3%A9rez_Airport,,800,2009-10-20T10:46:26+00:00
6106,SKBS,medium_airport,"José Celestino Mutis Airport",6.20292,-77.3947,80,SA,CO,CO-CHO,"Bahía Solano",1,SKBS,BSC,BSC,,http://en.wikipedia.org/wiki/Jos%C3%A9_Celestino_Mutis_Airport,,800,2015-05-08T23:42:57+00:00
6117,SKEJ,medium_airport,"Yariguíes Airport",7.02433,-73.8068,412,SA,CO,CO-SAN,Barrancabermeja,1,SKEJ,EJA,EJA,,http://en.wikipedia.org/wiki/Yarigu%C3%ADes_Airport,,800,2015-05-08T23:46:39+00:00
6107,SKBU,medium_airport,"Gerardo Tobar López Airport",3.81963,-76.9898,48,SA,CO,CO-VAC,Buenaventura,1,SKBU,BUN,BUN,,http://en.wikipedia.org/wiki/Gerardo_Tobar_L%C3%B3pez_Airport,,800,2015-05-08T23:50:48+00:00
6121,SKGO,medium_airport,"Santa Ana Airport",4.75818,-75.9557,2979,SA,CO,CO-VAC,Cartago,1,SKGO,CRC,CRC,,http://en.wikipedia.org/wiki/Santa_Ana_Airport_(Colombia),,800,2015-05-08T23:52:43+00:00
6115,SKCZ,medium_airport,"Las Brujas Airport",9.33274,-75.2856,528,SA,CO,CO-SUC,Corozal,1,SKCZ,CZU,CZU,,http://en.wikipedia.org/wiki/Las_Brujas_Airport_(Colombia),,800,2015-05-08T23:54:19+00:00
6178,SKYP,medium_airport,"El Yopal Airport",5.31911,-72.384,1028,SA,CO,CO-CAS,"El Yopal",1,SKYP,EYP,EYP,,http://en.wikipedia.org/wiki/El_Alcarav%C3%A1n_Airport,,800,2009-10-20T10:46:27+00:00
6122,SKGP,medium_airport,"Juan Casiano Airport",2.57013,-77.8986,164,SA,CO,CO-CAU,Guapi,1,SKGP,GPI,GPI,,http://en.wikipedia.org/wiki/Glacier_Park_International_Airport,,800,2009-10-20T10:46:16+00:00
6124,SKIB,medium_airport,"Perales Airport",4.42161,-75.1333,2999,SA,CO,CO-TOL,Ibagué,1,SKIB,IBE,IBE,,http://en.wikipedia.org/wiki/Perales_Airport,,800,2015-05-09T00:02:45+00:00
6126,SKIP,medium_airport,"San Luis Airport",0.861925,-77.6718,9765,SA,CO,CO-NAR,Ipiales,1,SKIP,IPI,IPI,,http://en.wikipedia.org/wiki/San_Luis_Airport_(Colombia),,800,2009-10-20T10:46:17+00:00
6139,SKMU,medium_airport,"Fabio Alberto Leon Bentley Airport",1.25366,-70.2339,680,SA,CO,CO-VAU,Mitú,1,SKMU,MVP,MVP,,http://en.wikipedia.org/wiki/Fabio_Alberto_Le%C3%B3n_Bentley_Airport,,800,2015-05-09T00:18:09+00:00
6138,SKMR,medium_airport,"Los Garzones Airport",8.82374,-75.8258,36,SA,CO,CO-COR,Montería,1,SKMR,MTR,MTR,,http://en.wikipedia.org/wiki/Los_Garzones_Airport,,800,2009-10-20T10:46:17+00:00
6141,SKNV,medium_airport,"Benito Salas Airport",2.95015,-75.294,1464,SA,CO,CO-HUI,Neiva,1,SKNV,NVA,NVA,,http://en.wikipedia.org/wiki/Benito_Salas_Airport,"La Manguita",800,2015-05-09T00:21:46+00:00
6151,SKPP,medium_airport,"Guillermo León Valencia Airport",2.4544,-76.6093,5687,SA,CO,CO-CAU,Popayán,1,SKPP,PPN,PPN,,http://en.wikipedia.org/wiki/Guillermo_Leon_Valencia_Airport,,800,2009-10-20T10:46:19+00:00
6100,SKAS,medium_airport,"Tres De Mayo Airport",0.505228,-76.5008,815,SA,CO,CO-PUT,"Puerto Asís",1,SKAS,PUU,PUU,,http://en.wikipedia.org/wiki/Tres_de_Mayo_Airport,,800,2015-05-09T00:30:22+00:00
6146,SKPC,medium_airport,"German Olano Airport",6.18472,-67.4932,177,SA,CO,CO-VID,"Puerto Carreño",1,SKPC,PCR,PCR,,http://en.wikipedia.org/wiki/Germ%C3%A1n_Olano_Airport,"Puerto Carreño Airport",800,2015-05-09T00:36:05+00:00
6147,SKPD,medium_airport,"Obando Airport",3.85353,-67.9062,460,SA,CO,CO-GUA,"Puerto Inírida",1,SKPD,PDA,PDA,,http://en.wikipedia.org/wiki/Obando_Airport,,800,2015-05-09T01:49:04+00:00
6172,SKUI,medium_airport,"El Caraño Airport",5.69076,-76.6412,204,SA,CO,CO-CHO,Quibdó,1,SKUI,UIB,UIB,,http://en.wikipedia.org/wiki/El_Cara%C3%B1o_Airport,,800,2009-10-20T10:46:26+00:00
6159,SKRH,medium_airport,"Almirante Padilla Airport",11.5262,-72.926,43,SA,CO,CO-LAG,Riohacha,1,SKRH,RCH,RCH,,http://en.wikipedia.org/wiki/Riohacha_Airport,,800,2009-10-20T10:46:19+00:00
6160,SKSJ,medium_airport,"Jorge E. Gonzalez Torres Airport",2.57969,-72.6394,605,SA,CO,CO-GUV,"San José Del Guaviare",1,SKSJ,SJE,SJE,,http://en.wikipedia.org/wiki/Jorge_Enrique_Gonz%C3%A1lez_Torres_Airport,,800,2015-05-09T00:38:44+00:00
6164,SKSV,medium_airport,"Eduardo Falla Solano Airport",2.15217,-74.7663,920,SA,CO,CO-CAQ,"San Vicente Del Caguán",1,SKSV,SVI,SVI,,http://en.wikipedia.org/wiki/Eduardo_Falla_Solano_Airport,,800,2015-05-09T00:41:52+00:00
6168,SKTM,medium_airport,"Gustavo Vargas Airport",6.45108,-71.7603,1050,SA,CO,CO-ARA,Tame,1,SKTM,TME,TME,,http://en.wikipedia.org/wiki/Gabriel_Vargas_Santos_Airport,,800,2015-05-09T00:48:55+00:00
6112,SKCO,medium_airport,"La Florida Airport",1.81442,-78.7492,8,SA,CO,CO-NAR,Tumaco,1,SKCO,TCO,TCO,,http://en.wikipedia.org/wiki/La_Florida_Airport_(Colombia),,800,2015-05-09T00:50:39+00:00
6176,SKVP,medium_airport,"Alfonso López Pumarejo Airport",10.435,-73.2495,483,SA,CO,CO-CES,Valledupar,1,SKVP,VUP,VUP,,http://en.wikipedia.org/wiki/Valledupar_Airport,,800,2009-10-20T10:46:27+00:00
32572,SKGZ,small_airport,"La Jagua Airport",2.1464,-75.6944,2620,SA,CO,CO-HUI,Garzón,1,SKGZ,,GLJ,,,Garzón,450,2016-01-22T14:07:13+00:00
31844,SKLP,small_airport,"La Pedrera Airport",-1.32861,-69.5797,590,SA,CO,CO-AMA,"La Pedrera",1,SKLP,LPD,LPD,,http://en.wikipedia.org/wiki/La_Pedrera_Airport,,450,2015-05-09T01:05:48+00:00
32314,SKNQ,small_airport,"Reyes Murillo Airport",5.6964,-77.2806,12,SA,CO,CO-CHO,Nuquí,1,SKNQ,NQU,NQU,,http://en.wikipedia.org/wiki/Reyes_Murillo_Airport,,450,2011-10-08T07:30:57+00:00
6128,SKLG,small_airport,"Caucaya Airport",-0.182278,-74.7708,573,SA,CO,CO-PUT,"Puerto Leguízamo",1,SKLG,LQM,LQM,,http://en.wikipedia.org/wiki/Caucay%C3%A1_Airport,,450,2015-05-09T02:02:20+00:00
35319,CO-TCD,small_airport,"Tarapacá Airport",-2.894722,-69.747222,253,SA,CO,CO-AMA,Tarapacá,1,SKRA,TCD,,,,,450,2018-04-26T06:02:47+00:00
6098,SKAP,medium_airport,"Gomez Nino Apiay Air Base",4.07607,-73.5627,1207,SA,CO,CO-MET,Apiay,0,SKAP,API,APY,,http://en.wikipedia.org/wiki/Captain_Luis_F._G%C3%B3mez_Ni%C3%B1o_Air_Base,,325,2012-11-22T08:24:25+00:00
6129,SKLM,medium_airport,"Jorge Isaac Airport",11.2325,-72.4901,281,SA,CO,CO-LAG,"La Mina-Maicao",0,SKLM,MCJ,LMA,,http://en.wikipedia.org/wiki/Jorge_Isaacs_Airport,,325,2011-08-13T01:34:55+00:00
6127,SKLC,medium_airport,"Antonio Roldan Betancourt Airport",7.81196,-76.7164,46,SA,CO,CO-ANT,Carepa,1,SKLC,APO,APO,,http://en.wikipedia.org/wiki/Antonio_Rold%C3%A1n_Betancourt_Airport,,250,2015-04-18T14:48:17+00:00
6113,SKCU,medium_airport,"Juan H White Airport",7.96847,-75.1985,174,SA,CO,CO-ANT,Caucasia,0,SKCU,CAQ,CAQ,,http://en.wikipedia.org/wiki/Juan_H._White_Airport,"Caucasia Airport",250,2015-05-09T00:59:27+00:00
6114,SKCV,medium_airport,"Coveñas Airport",9.40092,-75.6913,31,SA,CO,CO-SUC,Coveñas,0,SKCV,CVE,CVE,,,,250,2009-10-20T10:46:12+00:00
6116,SKEB,medium_airport,"El Bagre Airport",7.59647,-74.8089,180,SA,CO,CO-ANT,"El Bagre",0,SKEB,EBG,EBG,,http://en.wikipedia.org/wiki/El_Bagre_Airport,"El Tomin Airport",250,2015-05-09T01:03:28+00:00
6101,SKBC,medium_airport,"Las Flores Airport",9.04554,-73.9749,111,SA,CO,CO-MAG,"El Banco",0,SKBC,ELB,ELB,,,,250,2009-10-20T10:46:07+00:00
6118,SKFL,medium_airport,"Gustavo Artunduaga Paredes Airport",1.58919,-75.5644,803,SA,CO,CO-CAQ,Florencia,1,SKFL,FLA,FLA,,http://en.wikipedia.org/wiki/Gustavo_Artunduaga_Paredes_Airport,,250,2015-05-08T23:57:24+00:00
6120,SKGI,medium_airport,"Santiago Vila Airport",4.27624,-74.7967,900,SA,CO,CO-CUN,Girardot,0,SKGI,GIR,GIR,,http://en.wikipedia.org/wiki/Santiago_Vila_Airport,,250,2015-05-08T23:59:42+00:00
6152,SKPQ,medium_airport,"German Olano Air Base",5.48361,-74.6574,566,SA,CO,CO-CUN,"La Dorada",0,SKPQ,PAL,PQE,,http://en.wikipedia.org/wiki/Captain_Germ%C3%A1n_Olano_Moreno_Air_Base,"Palanquero Airport",250,2014-08-22T01:17:29+00:00
6134,SKMG,medium_airport,"Baracoa Airport",9.28474,-74.8461,178,SA,CO,CO-BOL,Magangué,0,SKMG,MGN,MGN,,http://en.wikipedia.org/wiki/Baracoa_Regional_Airport,,250,2015-05-09T01:08:04+00:00
6170,SKUA,medium_airport,"Marandúa Air Base",5.52448,-68.6856,285,SA,CO,CO-VID,Marandúa,0,SKUA,,MQZ,,http://en.wikipedia.org/wiki/Marand%C3%BAa_Air_Base,,250,2012-11-22T08:26:17+00:00
6157,SKQU,medium_airport,"Mariquita Airport",5.21256,-74.8836,1531,SA,CO,CO-TOL,Mariquita,0,SKQU,MQU,MQU,,http://en.wikipedia.org/wiki/Mariquita_Airport,,250,2015-05-09T00:14:49+00:00
6142,SKOC,medium_airport,"Aguas Claras Airport",8.31506,-73.3583,3850,SA,CO,CO-NSA,Ocaña,0,SKOC,OCV,OCV,,http://en.wikipedia.org/wiki/Aguas_Claras_Airport,,250,2015-05-09T00:24:06+00:00
6156,SKPZ,medium_airport,"Paz De Ariporo Airport",5.87615,-71.8866,900,SA,CO,CO-CAS,"Paz De Ariporo",0,SKPZ,PZA,PZA,,,,250,2009-10-20T10:46:19+00:00
6149,SKPI,medium_airport,"Pitalito Airport",1.85777,-76.0857,4212,SA,CO,CO-HUI,Pitalito,0,SKPI,PTX,,,,,250,2009-10-20T10:46:19+00:00
6143,SKOT,closed,"Otu Airport",7.01037,-74.7155,2060,SA,CO,CO-ANT,Remedios,0,SKOT,OTU,,,http://en.wikipedia.org/wiki/Ot%C3%BA_Airport,"El Rhin",250,2015-08-21T10:40:17+00:00
6169,SKTQ,medium_airport,"Tres Esquinas Air Base",0.7459,-75.234,585,SA,CO,CO-CAQ,"Tres Esquinas",0,SKTQ,TQS,TQS,,,,250,2009-10-20T10:46:26+00:00
6173,SKUL,medium_airport,"Heriberto Gíl Martínez Airport",4.08836,-76.2351,3132,SA,CO,CO-VAC,Tuluá,0,SKUL,ULQ,ULQ,,http://en.wikipedia.org/wiki/Heriberto_G%C3%ADl_Mart%C3%ADnez_Airport,"Farfan Airport",250,2015-05-09T02:21:47+00:00
6167,SKTJ,medium_airport,"Tunja Airport",5.54138,-73.3445,8940,SA,CO,CO-BOY,Tunja,0,SKTJ,,,,,,250,2009-10-20T10:46:25+00:00
40741,SK-370,small_airport,"Santa Lucía Airport",8.043373,-73.211586,4720,SA,CO,CO-NSA,Abrego,0,,,SLU,,,,50,2016-03-12T10:30:07+00:00
40758,SK-156,small_airport,"El Monasterio Airport",8.944722,-73.258333,745,SA,CO,CO-CES,Acacias,0,,,ACI,,,,50,2009-10-20T10:45:36+00:00
40802,SK-336,small_airport,"Quebraditas Airport",3.945278,-73.536667,1119,SA,CO,CO-MET,Acacias,0,,,ACS,,,,50,2009-10-20T10:45:52+00:00
30613,SKAD,small_airport,"Alcides Fernández Airport",8.51667,-77.3,50,SA,CO,CO-CHO,Acandí,0,SKAD,ACD,ACD,,http://en.wikipedia.org/wiki/Alcides_Fern%C3%A1ndez_Airport,,50,2009-10-20T10:46:06+00:00
40998,SK-192,small_airport,"El Gilgal Airport",8.2,-77.083333,89,SA,CO,CO-CHO,Acandi,0,,,EGI,,,,50,2009-10-20T10:45:39+00:00
41015,SK-471,small_airport,"Acaricuara Airport",0.533333,-70.133333,587,SA,CO,CO-VAU,Acaricuara,0,,ARF,ARF,,,,50,2012-06-17T19:14:27+00:00
32306,SKAG,small_airport,"Hacaritama Airport",8.247,-73.5814,545,SA,CO,CO-CES,Aguachica,0,SKAG,,AGH,,https://es.wikipedia.org/wiki/Aeropuerto_Hacaritama,,50,2016-03-12T17:28:41+00:00
40810,AGI,small_airport,"El Paraíso Airport",8.128611,-73.584722,303,SA,CO,CO-CES,Aguachica,0,,,AGI,,,,50,2009-10-20T10:56:05+00:00
40818,SK-145,small_airport,"Base Principal Celta Airport",8.2025,-73.631667,317,SA,CO,CO-CES,Aguachica,0,,,AGY,,,,50,2009-10-20T10:45:36+00:00
40819,SK-150,small_airport,"Calima Airport",8.283333,-73.645833,400,SA,CO,CO-CES,Aguachica,0,,,CAL,,,,50,2009-10-20T10:45:36+00:00
40726,SK-048,small_airport,"Aguaclara Airport",4.753611,-73.002778,1090,SA,CO,CO-CAS,Aguaclara,0,,ACL,ACL,,https://en.wikipedia.org/wiki/Aguaclara_Airport,,50,2016-06-01T05:35:49+00:00
40684,SK-069,small_airport,"El Porvenir Airport",5.199722,-72.406667,787,SA,CO,CO-CAS,Aguazul,0,,,AZG,,,,50,2009-10-20T10:45:32+00:00
40685,SK-068,small_airport,"El Moriche Airport",5.015556,-72.406944,670,SA,CO,CO-CAS,Aguazul,0,,,AGM,,,,50,2009-10-20T10:45:32+00:00
40687,SK-107,small_airport,"Maríaangélica Airport",5.054167,-72.445278,715,SA,CO,CO-CAS,Aguazul,0,,,AGU,,,,50,2009-10-20T10:45:34+00:00
40688,SK-082,small_airport,"Jamaica Airport",5.092778,-72.450278,751,SA,CO,CO-CAS,Aguazul,0,,,AGJ,,,,50,2009-10-20T10:45:32+00:00
40692,SK-077,small_airport,"Fasca Main Base Airport",5.155278,-72.520833,853,SA,CO,CO-CAS,Aguazul,0,,,FCA,,,,50,2009-10-20T10:45:32+00:00
40926,SK-239,small_airport,"La Manga Airport",3.246944,-75.246111,1319,SA,CO,CO-HUI,Aipe,0,,,AIH,,,,50,2009-10-20T10:45:44+00:00
40887,SK-409,small_airport,"El Diamante Airport",4.571667,-74.939167,1268,SA,CO,CO-TOL,Alvarado,0,,,ALV,,,,50,2009-10-20T10:45:57+00:00
40894,SK-446,small_airport,"Ventaquemada Airport",4.516667,-74.983333,1700,SA,CO,CO-TOL,Alvarado,0,,,VTQ,,,,50,2009-10-20T10:46:01+00:00
40898,SK-404,small_airport,"Calicanto Airport",4.488611,-75.01,2024,SA,CO,CO-TOL,Alvarado,0,,,CAT,,,,50,2009-10-20T10:45:57+00:00
30620,SKAM,small_airport,"Amalfi Airport",6.91667,-75.0667,5507,SA,CO,CO-ANT,Amalfi,0,SKAM,AFI,AFI,,,,50,2009-10-20T10:46:06+00:00
40868,SK-405,small_airport,"Cerritos Airport",4.844722,-74.78,756,SA,CO,CO-TOL,Ambalema,0,,,CRR,,,,50,2009-10-20T10:45:57+00:00
40869,SK-414,small_airport,"El Santuario Airport",4.905278,-74.785,750,SA,CO,CO-TOL,Ambalema,0,,,AMB,,,,50,2009-10-20T10:45:58+00:00
40870,SK-415,small_airport,"El Triunfo Airport",4.868889,-74.8025,761,SA,CO,CO-TOL,Ambalema,0,,,ETR,,,,50,2009-10-20T10:45:58+00:00
40873,SK-433,small_airport,"Pajonales Airport",4.759444,-74.833056,767,SA,CO,CO-TOL,Ambalema,0,,,PJS,,,,50,2009-10-20T10:45:59+00:00
41068,SKAN,small_airport,"Andes Airport",5.66667,-75.8833,3900,SA,CO,CO-ANT,Andes,0,SKAN,ADN,,,,,50,2011-09-03T04:56:02+00:00
40990,SK-011,small_airport,"Los Planes Airport",7.836111,-76.647778,158,SA,CO,CO-ANT,Apartado,0,,,LPL,,,,50,2009-10-20T10:45:28+00:00
30615,SKAC,small_airport,"Araracuara Airport",-0.5833,-72.4083,1250,SA,CO,CO-CAQ,Araracuara,0,SKAC,ACR,ACR,,http://en.wikipedia.org/wiki/Araracuara_Airport,,50,2015-05-09T00:54:53+00:00
40576,SK-028,small_airport,"La Rubiera Airport",6.773056,-70.018889,319,SA,CO,CO-ARA,Arauca,0,,,ARA,,,,50,2009-10-20T10:45:28+00:00
30652,CO-ARQ,small_airport,"El Troncal Airport",7.02106,-71.388901,512,SA,CO,CO-ARA,Arauquita,0,SKAT,ARQ,,,,,50,2016-01-22T11:54:42+00:00
41073,SK-005,small_airport,"Arboletes Airport",8.85705,-76.4244,13,SA,CO,CO-ANT,Arboletes,0,,ARO,ARO,,,,50,2012-07-04T01:51:40+00:00
41025,SK-001,small_airport,"Arica Airport",-2.14543733597,-71.7580604553,316,SA,CO,CO-AMA,Arica,0,,ACM,,,,,50,2011-09-10T16:26:08+00:00
40845,SK-259,small_airport,"El Coraje Airport",10.038056,-74.02,260,SA,CO,CO-MAG,Ariguani,0,,,AUR,,,,50,2009-10-20T10:45:46+00:00
6150,SKPN,small_airport,"Puerto Nare Airport",6.21002,-74.5906,476,SA,CO,CO-ANT,Armenia,0,SKPN,NAR,NAR,,,,50,2009-10-20T10:46:19+00:00
40946,SK-372,small_airport,"El Cedrito Airport",4.556944,-75.723889,4366,SA,CO,CO-QUI,Armenia,0,,,ARE,,,,50,2009-10-20T10:45:55+00:00
40949,SK-374,small_airport,"Portugalito Airport",4.385833,-75.767778,3797,SA,CO,CO-QUI,Armenia,0,,,AMN,,,,50,2009-10-20T10:45:55+00:00
41079,SK-197,small_airport,"Unguia Airport",8.033333,-77.083333,120,SA,CO,CO-CHO,Arquia,0,,UNC,UNC,,,,50,2016-02-04T17:37:30+00:00
40934,SK-402,small_airport,"Ataco Airport",3.570833,-75.411111,1506,SA,CO,CO-TOL,Ataco,0,,,ATC,,,,50,2009-10-20T10:45:57+00:00
40897,SK-201,small_airport,"La Concepción Airport",8.119444,-75.008611,205,SA,CO,CO-COR,Ayapel,0,,,LAN,,,,50,2009-10-20T10:45:40+00:00
40916,SK-200,small_airport,"El Cebruno Airport",8.329167,-75.132222,81,SA,CO,CO-COR,Ayapel,0,,,CEB,,,,50,2009-10-20T10:45:40+00:00
41059,SK-198,small_airport,"Ayapel Airport",8.3,-75.15,120,SA,CO,CO-COR,Ayapel,0,,AYA,AYA,,http://en.wikipedia.org/wiki/Ayapel_Airport,,50,2012-06-24T17:50:52+00:00
41080,SK-189,small_airport,"Bahia Cupica Airport",6.55,-77.3263,200,SA,CO,CO-CHO,"Bahía Cupica",0,,BHF,BHF,,,,50,2012-07-01T15:06:46+00:00
40999,SK-195,small_airport,"Pizarro Airport",4.975,-77.375,7,SA,CO,CO-CHO,"Bajo Baud0",0,,,BBA,,,,50,2009-10-20T10:45:40+00:00
40957,SK-376,small_airport,"Ingenio Risaralda Airport",4.895556,-75.915833,2940,SA,CO,CO-RIS,Balboa,0,,,BAL,,,,50,2009-10-20T10:45:55+00:00
40814,SK-377,small_airport,"Barbosa Airport",5.943333,-73.611389,5176,SA,CO,CO-SAN,Barbosa,0,,,BSA,,,,50,2009-10-20T10:45:55+00:00
40808,SK-385,small_airport,"La Cascajera Airport",7.171111,-73.579722,360,SA,CO,CO-SAN,"Barranca Bermeja",0,,,BJE,,,,50,2009-10-20T10:45:56+00:00
41033,SK-272,small_airport,"Barranca De Upia Airport",4.583333,-72.966667,670,SA,CO,CO-MET,"Barranca De Upia",0,,BAC,BAC,,,,50,2012-06-26T00:18:13+00:00
40700,SK-248,small_airport,"Cerrejón Central Airport",11.038056,-72.695,395,SA,CO,CO-LAG,Barrancas,0,,,BCA,,,,50,2009-10-20T10:45:45+00:00
40703,SK-251,small_airport,"Oreganal Airport",10.979444,-72.739444,480,SA,CO,CO-LAG,Barrancas,0,,,BCU,,,,50,2009-10-20T10:45:45+00:00
40716,SK-290,small_airport,"Guaicarano Airport",4.460556,-72.95,650,SA,CO,CO-MET,"Barranco De Upía",0,,,BAR,,,,50,2009-10-20T10:45:48+00:00
40570,SK-209,small_airport,"Barranco Minas Airport",3.483333,-69.8,430,SA,CO,CO-CUN,"Barranco Minas",0,SKBM,NBB,,,,,50,2016-01-22T11:58:04+00:00
41017,SK-222,small_airport,"Barrancominas Airport",3.333333,-70.333333,1500,SA,CO,CO-GUA,Barrancominas,0,,,BMG,,,,50,2009-10-20T10:45:43+00:00
40935,SK-032,small_airport,"El Tambo Airport",10.481667,-75.413611,82,SA,CO,CO-BOL,Bayunca,0,,,BYA,,,,50,2009-10-20T10:45:29+00:00
32308,SKBE,small_airport,"Becerril Airport",9.66278,-73.2744,433,SA,CO,CO-CES,Becerril,0,SKBE,,BEC,,,,50,2009-10-20T10:46:07+00:00
40871,SK-210,small_airport,"Colombaima Airport",4.739167,-74.805,745,SA,CO,CO-CUN,Beltran,0,,,COL,,,,50,2009-10-20T10:45:41+00:00
41064,SKBR,small_airport,"Berástegui Airport",8.88331,-75.6832,38,SA,CO,CO-COR,Berástegui,0,SKBR,,BIC,,,,50,2009-10-20T10:46:07+00:00
41066,SK-434,small_airport,"Planadas Airport",3.3,-75.7,3600,SA,CO,CO-TOL,Betania,0,,,PLA,,,,50,2009-10-20T10:45:59+00:00
41007,SK-359,small_airport,"Bocas De Satinga Airport",2.35,-78.316667,18,SA,CO,CO-NAR,"Bocas De Satinga",0,,,BDS,,,,50,2009-10-20T10:45:54+00:00
41047,SK-216,small_airport,"La Uribe Airport",4.74614,-74.0355,8377,SA,CO,CO-CUN,Bogotá,0,,,,,,,50,2009-10-20T10:45:41+00:00
40839,SK-173,small_airport,"La Palma Airport",9.839444,-73.867222,175,SA,CO,CO-CES,Bosconia,0,,,LPA,,,,50,2009-10-20T10:45:38+00:00
40840,SK-164,small_airport,"Julia Carolina Airport",9.942222,-73.868056,256,SA,CO,CO-CES,Bosconia,0,,,BCO,,,,50,2009-10-20T10:45:37+00:00
40841,SK-184,small_airport,"San Martin Airport",9.955556,-73.875556,259,SA,CO,CO-CES,Bosconia,0,,,BOC,,,,50,2009-10-20T10:45:39+00:00
40890,SK-397,small_airport,"San Pedro Airport",9.34,-74.9575,311,SA,CO,CO-SUC,Buenavista,0,,,BVS,,,,50,2009-10-20T10:45:56+00:00
40979,SK-452,small_airport,"El Milagro Airport",3.853889,-76.337222,3082,SA,CO,CO-VAC,Buga,0,,,BGN,,,,50,2009-10-20T10:46:01+00:00
40961,SK-468,small_airport,"San Pablo Airport",4.201667,-76.016944,3434,SA,CO,CO-VAC,"Buga La Grande",0,,,BDE,,,,50,2009-10-20T10:46:01+00:00
40709,SK-332,small_airport,"Petriba(Guayabal) Airport",4.361667,-72.827778,572,SA,CO,CO-MET,Cabuyaro,0,,,CEU,,,,50,2009-10-20T10:45:52+00:00
40718,SK-320,small_airport,"Los Gavanes Airport",4.207778,-72.982222,584,SA,CO,CO-MET,Cabuyaro,0,,,CBA,,,,50,2009-10-20T10:45:51+00:00
40719,SK-296,small_airport,"La Arabia Airport",4.393333,-72.989167,615,SA,CO,CO-MET,Cabuyaro,0,,,CBY,,,,50,2009-10-20T10:45:48+00:00
40721,SK-288,small_airport,"El Vergel Airport",4.206389,-73.0025,589,SA,CO,CO-MET,Cabuyaro,0,,,CRY,,,,50,2009-10-20T10:45:48+00:00
40725,SK-357,small_airport,"Yalconia Airport",4.335,-73.045833,629,SA,CO,CO-MET,Cabuyaro,0,,,CYE,,,,50,2009-10-20T10:45:53+00:00
40728,SK-281,small_airport,"El Edén Airport",4.304167,-73.074167,632,SA,CO,CO-MET,Cabuyaro,0,,,CYO,,,,50,2009-10-20T10:45:47+00:00
40849,SK-213,small_airport,"La Libélula Airport",4.919444,-74.055833,8410,SA,CO,CO-CUN,Cajiga,0,,,CJI,,,,50,2009-10-20T10:45:41+00:00
40984,SK-139,small_airport,"La Cabaña Airport",3.04428,-76.4106,3554,SA,CO,CO-CAU,Caloto,0,,,CTO,,,,50,2009-10-20T10:45:36+00:00
40985,SK-138,small_airport,"La Arrobleda Airport",3.125,-76.431667,3244,SA,CO,CO-CAU,Caloto,0,,,LAR,,,,50,2009-10-20T10:45:36+00:00
41067,SK-422,small_airport,"Herrera Airport",3.216667,-75.85,5740,SA,CO,CO-TOL,Campiña,0,,HRR,HRR,,,,50,2014-11-22T20:47:01+00:00
40929,SK-235,small_airport,"El Viso Airport",2.734167,-75.331944,1579,SA,CO,CO-HUI,"Campo Alegre",0,,,CUM,,,,50,2009-10-20T10:45:43+00:00
40930,SK-232,small_airport,"Campo Alegre Airport",2.663056,-75.34,1760,SA,CO,CO-HUI,"Campo Alegre",0,,,CMP,,,,50,2009-10-20T10:45:43+00:00
40931,SK-234,small_airport,"El Limonar Airport",2.626944,-75.356944,1888,SA,CO,CO-HUI,"Campo Alegre",0,,,ELH,,,,50,2009-10-20T10:45:43+00:00
40976,SK-455,small_airport,"Ingenio Mayaguez Airport",3.395,-76.326944,3234,SA,CO,CO-VAC,Candelaria,0,,,CAD,,,,50,2009-10-20T10:46:01+00:00
40980,SK-463,small_airport,"Las Cañas Airport",3.309167,-76.338889,3246,SA,CO,CO-VAC,Candelaria,0,,,CNL,,,,50,2009-10-20T10:46:01+00:00
40982,SK-459,small_airport,"La Esmeralda Airport",3.379722,-76.398889,3159,SA,CO,CO-VAC,Candelaria,0,,,CDA,,,,50,2009-10-20T10:46:01+00:00
40983,SK-449,small_airport,"Cavasa Airport",3.409444,-76.406944,3151,SA,CO,CO-VAC,Candelaria,0,,,CVS,,,,50,2009-10-20T10:46:01+00:00
41053,SK-275,small_airport,"Candilejas Airport",2.066667,-74.583333,1000,SA,CO,CO-MET,Candilejas,0,,,CJD,,,,50,2009-10-20T10:45:47+00:00
30845,SKCA,small_airport,"Capurganá Airport",8.63333,-77.35,49,SA,CO,CO-CHO,Capurganá,0,SKCA,CPB,CPB,,,,50,2009-10-20T10:46:08+00:00
41049,SK-277,small_airport,"Caquetania Airport",2.033333,-74.216667,900,SA,CO,CO-MET,Caquetania,0,,CQT,CQT,,,,50,2014-08-02T20:29:59+00:00
40991,SK-010,small_airport,"Los Almendros Airport",7.813333,-76.659167,88,SA,CO,CO-ANT,Carepa,0,,,LAO,,,,50,2009-10-20T10:45:28+00:00
32309,SKCB,small_airport,"Carmen De Bolivar Airport",9.68417,-75.1261,590,SA,CO,CO-BOL,"Carmen De Bolivar",0,SKCB,,CBR,,,,50,2009-10-20T10:46:08+00:00
41057,SKCH,small_airport,"El Pacífico Airport",1.35,-74.84,754,SA,CO,CO-CAQ,"Cartagena Del Chiara",0,SKCH,,CCH,,,,50,2009-10-20T10:46:09+00:00
30862,SKCR,small_airport,"Carurú Airport",1.0136,-71.2961,820,SA,CO,CO-VAU,Carurú,0,SKCR,CUO,CRU,,,,50,2016-01-22T17:17:29+00:00
40799,SK-302,small_airport,"La Diana Airport",3.804722,-73.520278,993,SA,CO,CO-MET,Castilla,0,,,CAX,,,,50,2009-10-20T10:45:49+00:00
40765,SK-313,small_airport,"La Union Airport",3.331667,-73.295,,SA,CO,CO-MET,"Castilla La Nueva",0,,,CLA,,,,50,2009-10-20T10:45:50+00:00
40781,SK-278,small_airport,"El Cairo Airport",3.773056,-73.385833,849,SA,CO,CO-MET,"Castilla La Nueva",0,,,ELC,,,,50,2009-10-20T10:45:47+00:00
40790,SK-345,small_airport,"San Vicente Airport",3.840833,-73.456389,937,SA,CO,CO-MET,"Castilla La Nueva",0,,,GNU,,,,50,2009-10-20T10:45:53+00:00
40794,SK-291,small_airport,"Guamitos Airport",3.827778,-73.476389,950,SA,CO,CO-MET,"Castilla La Nueva",0,,,CVA,,,,50,2009-10-20T10:45:48+00:00
40795,SK-287,small_airport,"El Ruby Airport",3.781111,-73.481667,953,SA,CO,CO-MET,"Castilla La Nueva",0,,,ELU,,,,50,2009-10-20T10:45:48+00:00
40800,SK-317,small_airport,"Las Juanas Airport",3.823333,-73.532222,1017,SA,CO,CO-MET,"Castilla La Nueva",0,,,LAU,,,,50,2009-10-20T10:45:51+00:00
41011,SK-511,small_airport,"Casuarito Airport",5.833333,-68.133333,245,SA,CO,CO-VID,Casuarito,0,,CSR,CSR,,,,50,2014-08-05T02:15:51+00:00
40953,SK-203,small_airport,"Los Mochuelos Airport",8.91,-75.799167,34,SA,CO,CO-COR,Cerete,0,,,LME,,,,50,2009-10-20T10:45:41+00:00
30847,SKHA,small_airport,"Chaparral Airport",3.717,-75.467,2730,SA,CO,CO-TOL,Chaparral,0,SKHA,CPL,CPL,,,,50,2009-10-20T10:46:17+00:00
6123,SKGY,small_airport,"Guaymaral Airport",4.81233,-74.0649,8390,SA,CO,CO-BOL,Chía,0,SKGY,,GMY,,http://en.wikipedia.org/wiki/Guaymaral_Airport,,50,2009-10-20T10:46:16+00:00
40892,SK-406,small_airport,"Chicoral - Estra Airport",4.202222,-74.969722,1248,SA,CO,CO-TOL,Chicoral,0,,,CHA,,,,50,2009-10-20T10:45:57+00:00
31666,SKIG,small_airport,"Chigorodó Airport",7.68038,-76.6865,110,SA,CO,CO-ANT,Chigorodó,0,SKIG,IGO,IGO,,,,50,2009-10-20T10:46:17+00:00
41055,SK-256,small_airport,"Chivolo Airport",10.016667,-74.683333,560,SA,CO,CO-MAG,Chivolo,0,,,IVO,,,,50,2009-10-20T10:45:45+00:00
40851,SK-263,small_airport,"La Ceiba Airport",10.788056,-74.104444,130,SA,CO,CO-MAG,Ciénaga,0,,,CGA,,,,50,2009-10-20T10:45:46+00:00
40853,SK-262,small_airport,"La Amalia Airport",10.860833,-74.145833,113,SA,CO,CO-MAG,Ciénaga,0,,,AMA,,,,50,2009-10-20T10:45:46+00:00
40854,SK-266,small_airport,"La Fe Airport",10.854722,-74.171111,58,SA,CO,CO-MAG,Ciénaga,0,,,LFE,,,,50,2009-10-20T10:45:46+00:00
40855,SK-264,small_airport,"La Cheka Airport",10.667778,-74.201667,85,SA,CO,CO-MAG,Ciénaga,0,,,CIE,,,,50,2009-10-20T10:45:46+00:00
40856,SK-269,small_airport,"La Ye Airport",11.0025,-74.211667,51,SA,CO,CO-MAG,Ciénaga,0,,,LAY,,,,50,2009-10-20T10:45:46+00:00
30831,SKCM,small_airport,"Cimitarra Airport",6.367,-73.967,740,SA,CO,CO-SAN,Cimitarra,0,SKCM,CIM,CIM,,,,50,2009-10-20T10:46:09+00:00
40746,SK-185,small_airport,"Tamaca Airport",9.916667,-73.231389,348,SA,CO,CO-CES,Codazzi,0,,,COZ,,,,50,2009-10-20T10:45:39+00:00
40750,SK-178,small_airport,"Monteliban Airport",9.886389,-73.2425,356,SA,CO,CO-CES,Codazzi,0,,,MOC,,,,50,2009-10-20T10:45:38+00:00
40751,SK-174,small_airport,"Las Flores Airport",10.096608,-73.2337,399,SA,CO,CO-CES,Codazzi,0,,DZI,LFL,,,,50,2016-05-28T23:54:49+00:00
40753,SK-152,small_airport,"Casacara Cayta Airport",9.928056,-73.253056,321,SA,CO,CO-CES,Codazzi,0,,,CAG,,,,50,2009-10-20T10:45:36+00:00
40762,SK-180,small_airport,"Pororó Airport",9.9375,-73.273889,291,SA,CO,CO-CES,Codazzi,0,,,PRO,,,,50,2009-10-20T10:45:39+00:00
40763,SK-143,small_airport,"Ana María Airport",10.0375,-73.283611,331,SA,CO,CO-CES,Codazzi,0,,,ANN,,,,50,2009-10-20T10:45:36+00:00
40769,SK-167,small_airport,"La Esperanza Airport",9.907778,-73.3225,255,SA,CO,CO-CES,Codazzi,0,,,EPZ,,,,50,2009-10-20T10:45:37+00:00
40784,SK-166,small_airport,"La Dilia Airport",9.895,-73.408889,208,SA,CO,CO-CES,Codazzi,0,,,LAD,,,,50,2009-10-20T10:45:37+00:00
30842,SKCD,small_airport,"Mandinga Airport",5.08333,-76.7,213,SA,CO,CO-CHO,Condoto,0,SKCD,COG,COG,,,,50,2009-10-20T10:46:09+00:00
41071,SK-462,small_airport,"La Primavera Airport",3.733333,-76.216667,3600,SA,CO,CO-VAC,"Costa Rica",0,,LPE,LPE,,,,50,2015-02-26T02:47:25+00:00
40911,SK-443,small_airport,"Tamarindo Airport",3.790278,-75.081111,1076,SA,CO,CO-TOL,Coyaima,0,,,CYA,,,,50,2009-10-20T10:46:00+00:00
6111,SKCN,small_airport,"Cravo Norte Airport",6.31684,-70.2107,341,SA,CO,CO-ARA,"Cravo Norte",0,SKCN,RAV,RAV,,,,50,2009-10-20T10:46:09+00:00
40690,SK-368,small_airport,"Cinera Airport",8.2,-72.5,233,SA,CO,CO-NSA,Cúcuta,0,,,CRA,,,,50,2009-10-20T10:45:54+00:00
40697,SK-369,small_airport,"Petrolea Airport",8.497222,-72.596667,180,SA,CO,CO-NSA,Cúcuta,0,,,PET,,,,50,2009-10-20T10:45:54+00:00
40727,SK-316,small_airport,"Las Delicias Airport",4.196389,-73.073056,599,SA,CO,CO-MET,Cumaral,0,,,CUA,,,,50,2009-10-20T10:45:51+00:00
40744,SK-309,small_airport,"La María Airport",4.241389,-73.217222,720,SA,CO,CO-MET,Cumaral,0,,,CMR,,,,50,2009-10-20T10:45:49+00:00
40755,SK-346,small_airport,"Santa Bárbara Airport",4.233889,-73.256111,771,SA,CO,CO-MET,Cumaral,0,,,CRL,,,,50,2009-10-20T10:45:53+00:00
40759,SK-353,small_airport,"Umbría Airport",4.190556,-73.261111,743,SA,CO,CO-MET,Cumaral,0,,,UMB,,,,50,2009-10-20T10:45:53+00:00
40775,SK-297,small_airport,"La Cabana Airport",4.301944,-73.369722,1025,SA,CO,CO-MET,Cumaral,0,,,LAC,,,,50,2009-10-20T10:45:48+00:00
40569,SK-514,small_airport,"Cumaribo Airport",4.4483,-69.7807,550,SA,CO,CO-VID,Cumaribo,0,SKUM,,PCE,,,,50,2016-01-22T13:01:12+00:00
41027,SK-059,small_airport,"Currillo Airport",4.666667,-72,495,SA,CO,CO-CAS,Currillo,0,,CUI,CUI,,,,50,2014-08-07T02:22:11+00:00
40988,SK-451,small_airport,"Darien Calima Airport",3.95,-76.516667,7417,SA,CO,CO-VAC,Darien,0,,,DAR,,,,50,2009-10-20T10:46:01+00:00
40803,SK-381,small_airport,"El Carmen Airport",6.740556,-73.554444,956,SA,CO,CO-SAN,"El Carmen",0,,,ECC,,,,50,2009-10-20T10:45:55+00:00
40972,SK-456,small_airport,"Ingenio Providencia Airport",3.638333,-76.305,3307,SA,CO,CO-VAC,"El Cerrito",0,,,ELT,,,,50,2009-10-20T10:46:01+00:00
41006,SK-363,small_airport,"Los Mulatos Airport",2.65,-78.3,3,SA,CO,CO-NAR,"El Charco",0,,,LMN,,,,50,2009-10-20T10:45:54+00:00
41084,SK-360,small_airport,"El Charco Airport",2.44944444444,-78.0941666667,25,SA,CO,CO-NAR,"El Charco",0,SKEH,ECR,ECR,,,,50,2016-01-22T13:57:24+00:00
40847,SK-168,small_airport,"La Fe Airport",10.130278,-74.039444,339,SA,CO,CO-CES,"El Copey",0,,,ECU,,,,50,2009-10-20T10:45:38+00:00
40860,SK-147,small_airport,"Bethania Airport",10.116667,-74.425,426,SA,CO,CO-CES,"El Copey",0,,,CES,,,,50,2009-10-20T10:45:36+00:00
40850,SK-270,small_airport,"Mayorca Airport",9.922778,-74.095,300,SA,CO,CO-MAG,"El Difícil",0,,,ELF,,,,50,2009-10-20T10:45:46+00:00
41037,SK-002,small_airport,"El Encanto Airport",-1.7533333333299999,-73.20472222219999,420,SA,CO,CO-AMA,"El Encanto",0,,ECO,ECO,,,,50,2012-08-18T10:26:06+00:00
40876,SK-411,small_airport,"El Espinal Airport",4.150556,-74.871111,1031,SA,CO,CO-TOL,"El Espinal",0,,,ESP,,,,50,2009-10-20T10:45:57+00:00
40885,SK-401,small_airport,"Aniversario Estra Airport",4.123056,-74.910833,1058,SA,CO,CO-TOL,"El Espinal",0,,,ESS,,,,50,2009-10-20T10:45:57+00:00
40862,SK-039,small_airport,"El Espino Airport",6.503333,-74.507222,888,SA,CO,CO-BOY,"El Espino",0,,,EEB,,,,50,2009-10-20T10:45:30+00:00
40884,SK-424,small_airport,"La Bastilla Airport",4.093333,-74.910278,1031,SA,CO,CO-TOL,"El Guamo",0,,,LAA,,,,50,2009-10-20T10:45:58+00:00
40889,SK-419,small_airport,"Guamo - Asta Airport",4,-74.95,1003,SA,CO,CO-TOL,"El Guamo",0,,,GMO,,,,50,2009-10-20T10:45:58+00:00
40817,SK-169,small_airport,"La Irlanda Airport",9.619722,-73.630833,141,SA,CO,CO-CES,"El Paso",0,,,LAI,,,,50,2009-10-20T10:45:38+00:00
40756,SK-380,small_airport,"Comuneros Airport",6.386667,-73.256389,5138,SA,CO,CO-SAN,"El Socorro",0,,,ELS,,,,50,2009-10-20T10:45:55+00:00
40560,SK-517,small_airport,"El Tapón Airport",5.15,-69.183333,419,SA,CO,CO-VID,"El Tapón",0,,,ETA,,,,50,2009-10-20T10:46:05+00:00
40681,SK-074,small_airport,"El Zamuro Airport",5.124444,-72.336944,688,SA,CO,CO-CAS,"El Yopal",0,,,ELZ,,,,50,2009-10-20T10:45:32+00:00
40880,SK-400,small_airport,"Agua Blanca Airport",4.185556,-74.895833,1068,SA,CO,CO-TOL,Espinal,0,,,AGB,,,,50,2009-10-20T10:45:57+00:00
40881,SK-432,small_airport,"Nueva York Airport",4.133333,-74.9,1050,SA,CO,CO-TOL,Espinal,0,,,NYY,,,,50,2009-10-20T10:45:59+00:00
40874,SK-398,small_airport,"Aerosport Airport",4.183889,-74.834722,958,SA,CO,CO-TOL,Flandes,0,,,FLD,,,,50,2009-10-20T10:45:56+00:00
40875,SK-413,small_airport,"El Recuerdo Airport",4.242778,-74.8375,968,SA,CO,CO-TOL,Flandes,0,,,ELR,,,,50,2009-10-20T10:45:57+00:00
40882,SK-440,small_airport,"San Jerónimo Airport",4.376389,-74.9,1633,SA,CO,CO-TOL,Flandes,0,,,SCY,,,,50,2009-10-20T10:45:59+00:00
6103,SKBN,small_airport,"Buenavista Airport",10.8879,-72.9004,850,SA,CO,CO-LAG,Fonseca,0,SKBN,,BVA,,,,50,2009-10-20T10:46:07+00:00
40966,SK-006,small_airport,"El Plateado Airport",6.730556,-76.146389,5555,SA,CO,CO-ANT,Frontino,0,,,FRO,,,,50,2009-10-20T10:45:28+00:00
40792,SK-276,small_airport,"Caño Blanco Airport",3.29,-73.463333,803,SA,CO,CO-MET,"Fuente De Oro",0,,,FTE,,,,50,2009-10-20T10:45:47+00:00
40806,SK-292,small_airport,"Guanayas Airport",3.353889,-73.577778,832,SA,CO,CO-MET,"Fuente De Oro",0,,,FEO,,,,50,2009-10-20T10:45:48+00:00
40809,SK-306,small_airport,"La Luna Airport",3.449167,-73.584444,954,SA,CO,CO-MET,"Fuente De Oro",0,,,FOO,,,,50,2009-10-20T10:45:49+00:00
40813,SK-321,small_airport,"Los Sabanales Airport",3.465556,-73.604167,960,SA,CO,CO-MET,"Fuente De Oro",0,,,FUT,,,,50,2009-10-20T10:45:51+00:00
40815,SK-294,small_airport,"Halcones Airport",3.373056,-73.613333,852,SA,CO,CO-MET,"Fuente De Oro",0,,,FUR,,,,50,2009-10-20T10:45:48+00:00
40821,SK-341,small_airport,"San Luis Airport",3.501944,-73.669722,1039,SA,CO,CO-MET,"Fuente De Oro",0,,,FUL,,,,50,2009-10-20T10:45:52+00:00
40826,SK-323,small_airport,"Majagual Airport",3.390278,-73.696389,951,SA,CO,CO-MET,"Fuente De Oro",0,,,FUO,,,,50,2009-10-20T10:45:51+00:00
40830,SK-299,small_airport,"La Candela Airport",3.421389,-73.725833,1004,SA,CO,CO-MET,"Fuente De Oro",0,,,FNO,,,,50,2009-10-20T10:45:48+00:00
31104,SKFU,small_airport,"Fundación Airport",10.5333,-74.2,150,SA,CO,CO-MAG,Fundación,0,SKFU,FDA,FDA,,,,50,2009-10-20T10:46:12+00:00
40848,SK-255,small_airport,"Algarrobo Airport",10.235833,-74.053611,379,SA,CO,CO-MAG,Fundación,0,,,FUN,,,,50,2009-10-20T10:45:45+00:00
40824,SK-159,small_airport,"Fabal-Coal Airport",8.247222,-73.693611,191,SA,CO,CO-CES,Gamarra,0,,,AFC,,,,50,2009-10-20T10:45:37+00:00
40825,SK-161,small_airport,"Germania Airport",8.333333,-73.695,225,SA,CO,CO-CES,Gamarra,0,,,GER,,,,50,2009-10-20T10:45:37+00:00
40828,SK-172,small_airport,"La Nena Cayta Airport",8.206111,-73.700833,167,SA,CO,CO-CES,Gamarra,0,,,GAM,,,,50,2009-10-20T10:45:38+00:00
40942,SK-242,small_airport,"San Francisco Airport",2.305,-75.644444,2249,SA,CO,CO-HUI,Garzón,0,,,SFC,,,,50,2009-10-20T10:45:44+00:00
40832,SK-283,small_airport,"El Progreso Airport",3.480556,-73.734444,944,SA,CO,CO-MET,Granada,0,,,GAN,,,,50,2009-10-20T10:45:47+00:00
40834,SK-324,small_airport,"Malvinas Airport",3.423889,-73.769167,1087,SA,CO,CO-MET,Granada,0,,,GRN,,,,50,2009-10-20T10:45:51+00:00
41058,SK-236,small_airport,"Guacamayas Airport",2.283333,-74.95,1500,SA,CO,CO-HUI,Guacamayas,0,,GCA,GCA,,,,50,2013-07-19T17:55:57+00:00
40973,SK-466,small_airport,"San Gerardo Airport",3.633333,-76.316667,3286,SA,CO,CO-VAC,Guacari,0,,,SXG,,,,50,2009-10-20T10:46:01+00:00
40974,SK-458,small_airport,"La Base-Fumivalle Airport",3.779444,-76.324722,3205,SA,CO,CO-VAC,Guacari,0,,,GUR,,,,50,2009-10-20T10:46:01+00:00
40981,SK-457,small_airport,"La .Estrella Airport",3.763056,-76.349722,3150,SA,CO,CO-VAC,Guacari,0,,,GUE,,,,50,2009-10-20T10:46:01+00:00
40857,SK-258,small_airport,"El Carmen Airport",9.170278,-74.211944,88,SA,CO,CO-MAG,Guamal,0,,,ECM,,,,50,2009-10-20T10:45:45+00:00
41050,SK-261,small_airport,"Guamal Airport",9.15,-74.233333,65,SA,CO,CO-MAG,Guamal,0,,,GAA,,,,50,2009-10-20T10:45:46+00:00
41021,SK-293,small_airport,"Guerima Airport",3.633333,-71.166667,606,SA,CO,CO-MET,Guerima,0,,,GMC,,,,50,2009-10-20T10:45:48+00:00
41042,SK-154,small_airport,"Codazzi Airport",9.6,-73.45,439,SA,CO,CO-CES,"Hacienda Borrero",0,,DZI,DZI,,,,50,2013-05-18T21:42:15+00:00
40556,SK-031,small_airport,"Hacienda Veracruz Airport",10.573707,-75.064791,44,SA,CO,CO-ATL,"Hacienda Veracruz",0,,,,,,,50,2009-10-20T10:45:28+00:00
40626,SK-088,small_airport,"La Chapa Airport",5.933333,-71.45,534,SA,CO,CO-CAS,"Hato Coro",0,,,CHP,,,,50,2009-10-20T10:45:32+00:00
31651,SKHC,small_airport,"Hato Corozal Airport",6.15,-71.75,820,SA,CO,CO-CAS,"Hato Corozal",0,SKHC,HTZ,HTZ,,,,50,2009-10-20T10:46:17+00:00
40614,SK-064,small_airport,"El Cairo Airport",6.064722,-71.204444,460,SA,CO,CO-CAS,"Hato Corozal",0,,,HCO,,,,50,2009-10-20T10:45:32+00:00
40618,SK-065,small_airport,"El Danubio Airport",6.261111,-71.224722,480,SA,CO,CO-CAS,"Hato Corozal",0,,,HTC,,,,50,2009-10-20T10:45:32+00:00
40624,SK-081,small_airport,"Hato La Aurora Airport",6.033056,-71.381944,512,SA,CO,CO-CAS,"Hato Corozal",0,,,HOZ,,,,50,2009-10-20T10:45:32+00:00
40867,SK-417,small_airport,"Ganadería Airport",5.170278,-74.764167,762,SA,CO,CO-TOL,Honda,0,,,GTT,,,,50,2009-10-20T10:45:58+00:00
40902,SK-412,small_airport,"El Paraíso Airport",4.386667,-75.023333,2187,SA,CO,CO-TOL,Ibague,0,,,EPR,,,,50,2009-10-20T10:45:57+00:00
40904,SK-408,small_airport,"El Aceituno Airport",4.347222,-75.024167,2131,SA,CO,CO-TOL,Ibague,0,,,ECB,,,,50,2009-10-20T10:45:57+00:00
40910,SK-410,small_airport,"El Escobal Airport",4.395556,-75.070833,2479,SA,CO,CO-TOL,Ibague,0,,,EET,,,,50,2009-10-20T10:45:57+00:00
40912,SK-435,small_airport,"Potrerito Airport",4.329444,-75.081944,2376,SA,CO,CO-TOL,Ibague,0,,,PPT,,,,50,2009-10-20T10:45:59+00:00
40913,SK-421,small_airport,"Hato De Opia Airport",4.421667,-75.083056,2601,SA,CO,CO-TOL,Ibague,0,,,HOP,,,,50,2009-10-20T10:45:58+00:00
40915,SK-436,small_airport,"Rancho Grande Airport",4.442222,-75.114722,2866,SA,CO,CO-TOL,Ibague,0,,,RGR,,,,50,2009-10-20T10:45:59+00:00
40917,SK-407,small_airport,"Cruz Verde Airport",4.41,-75.14,3039,SA,CO,CO-TOL,Ibague,0,SKCE,,CVT,,,,50,2016-01-22T14:13:01+00:00
40920,SK-418,small_airport,"Guadalaja Airport",4.366944,-75.159444,2913,SA,CO,CO-TOL,Ibague,0,,,GUT,,,,50,2009-10-20T10:45:58+00:00
41004,SK-367,small_airport,"Santa Bárbara Airport",2.445825,-77.981753,10,SA,CO,CO-NAR,Iscuandé,0,,ISD,SBN,,,,50,2016-07-10T08:51:20+00:00
40947,SK-009,small_airport,"La Providencia Airport",7.165278,-75.725278,5611,SA,CO,CO-ANT,"Ituango 2",0,,,ITG,,,,50,2009-10-20T10:45:28+00:00
40905,SK-423,small_airport,"Jabalcón Airport",3.842222,-75.033611,1034,SA,CO,CO-TOL,Jabalcón,0,,,JAB,,,,50,2009-10-20T10:45:58+00:00
40987,SK-470,small_airport,"Udelva Airport",3.233889,-76.503889,3143,SA,CO,CO-VAC,Jamundi,0,,,JDI,,,,50,2009-10-20T10:46:01+00:00
41075,SK-008,small_airport,"Jurado Airport",6.516667,-76.6,2184,SA,CO,CO-ANT,Jurado,0,SKJU,JUO,JUO,,,,50,2016-01-22T14:17:21+00:00
41001,SK-188,small_airport,"Alfemar Airport",7.010278,-77.676944,23,SA,CO,CO-CHO,Jurado,0,,,ALR,,,,50,2009-10-20T10:45:39+00:00
41002,SK-190,small_airport,"Cabo Marzo Airport",6.881389,-77.680556,87,SA,CO,CO-CHO,Jurado,0,,,CAM,,,,50,2009-10-20T10:45:39+00:00
41003,SK-194,small_airport,"Jurado Airport",7.091667,-77.740278,33,SA,CO,CO-CHO,Jurado,0,,,JUR,,,,50,2009-10-20T10:45:40+00:00
41597,CO-LCR,small_airport,"La Chorrera Airport",-0.733333,-73.01667,709,SA,CO,CO-AMA,"La Chorrera",1,,LCR,,,http://en.wikipedia.org/wiki/La_Chorrera_Airport,,50,2015-05-09T02:39:14+00:00
40831,SK-146,small_airport,"Bella Cruz - San Juan Airport",8.623333,-73.731944,141,SA,CO,CO-CES,"La Gloria",0,,,LGL,,,,50,2009-10-20T10:45:36+00:00
40833,SK-175,small_airport,"Las Tapias Airport",8.686667,-73.765278,116,SA,CO,CO-CES,"La Gloria",0,,,LTA,,,,50,2009-10-20T10:45:38+00:00
40801,SK-170,small_airport,"La Jagua De Ibir Airport",9.620556,-73.536389,157,SA,CO,CO-CES,"La Jagua De Ibir",0,,,LJC,,,,50,2009-10-20T10:45:38+00:00
40764,SK-153,small_airport,"Cerro De Piedra Airport",9.562222,-73.293889,572,SA,CO,CO-CES,"La Jagua De Ibirico",0,,,LJD,,,,50,2009-10-20T10:45:36+00:00
40777,SK-179,small_airport,"Nueva Granada Airport",9.578889,-73.373056,301,SA,CO,CO-CES,"La Jagua De Ibirico",0,,,LJI,,,,50,2009-10-20T10:45:38+00:00
40789,SK-158,small_airport,"Elborrego Airport",9.587778,-73.455278,229,SA,CO,CO-CES,"La Loma",0,,,LJB,,,,50,2009-10-20T10:45:37+00:00
40796,SK-149,small_airport,"Calenturitas Airport",9.654444,-73.494167,195,SA,CO,CO-CES,"La Loma",0,SKAL,,LLO,,,,50,2016-01-22T14:41:39+00:00
41046,SK-307,small_airport,"El Refugio/La Macarena Airport",2.1736,-73.7862,793,SA,CO,CO-MET,"La Macarena",1,SKNA,LMC,LMC,,http://en.wikipedia.org/wiki/La_Macarena_Airport,"San Juan de Arama",50,2016-01-22T15:12:59+00:00
40940,SK-041,small_airport,"La Palestina Airport",5.030278,-75.616667,5042,SA,CO,CO-CAL,"La Palestina",0,,,LAE,,,,50,2009-10-20T10:45:30+00:00
40562,SK-515,small_airport,"El Cimarrón Airport",5.939722,-69.264444,359,SA,CO,CO-VID,"La Primavera",0,,,LPR,,,,50,2009-10-20T10:46:05+00:00
40568,SK-516,small_airport,"El Gavilán Airport",5.226667,-69.737222,381,SA,CO,CO-VID,"La Primavera",0,,,LPG,,,,50,2009-10-20T10:46:05+00:00
40571,SK-520,small_airport,"La Jaula Airport",5.307778,-69.831944,380,SA,CO,CO-VID,"La Primavera",0,,,LJV,,,,50,2009-10-20T10:46:06+00:00
40573,SK-525,small_airport,"Rancho Alegre Airport",5.322778,-69.950556,387,SA,CO,CO-VID,"La Primavera",0,,,LPV,,,,50,2009-10-20T10:46:06+00:00
40596,SK-521,small_airport,"La Primavera Airport",5.4776,-70.4212,390,SA,CO,CO-VID,"La Primavera",0,SKIM,LPE,PIM,,,,50,2016-01-22T16:30:44+00:00
40952,SK-373,small_airport,"Las Gaviotas Airport",4.428056,-75.796944,3831,SA,CO,CO-QUI,"La Tebaida",0,,,LTB,,,,50,2009-10-20T10:45:55+00:00
40962,SK-461,small_airport,"La Mesa Airport",4.563889,-76.023889,2977,SA,CO,CO-VAC,"La Victoria",0,,,LVC,,,,50,2009-10-20T10:46:01+00:00
41019,SK-523,small_airport,"Las Gaviotas Airport",4.583333,-70.833333,600,SA,CO,CO-VID,"Las Gaviotas",0,,,,,,,50,2015-02-21T02:12:37+00:00
41056,SK-371,small_airport,"Leguizamo Airport",-0.166505,-74.7667,628,SA,CO,CO-PUT,Leguizamo,0,,,LGZ,,,,50,2009-10-20T10:45:55+00:00
40877,SK-420,small_airport,"Hacienda García Airport",4.853889,-74.889167,1087,SA,CO,CO-TOL,Lérida,0,,,LRI,,,,50,2009-10-20T10:45:58+00:00
40883,SK-441,small_airport,"San José Airport",4.942222,-74.906389,1000,SA,CO,CO-TOL,Lérida,0,,,LRA,,,,50,2009-10-20T10:45:59+00:00
40886,SK-425,small_airport,"La Carmelita Airport",4.816111,-74.931944,1437,SA,CO,CO-TOL,Lérida,0,,,LER,,,,50,2009-10-20T10:45:58+00:00
6125,SKIO,small_airport,"Cicuco Airport",9.26878,-74.6523,65,SA,CO,CO-BOL,Limón,0,SKIO,,CIO,,,,50,2016-01-22T12:22:34+00:00
41065,SK-205,small_airport,"San Pablo Airport",9.033333,-75.7,250,SA,CO,CO-COR,Lorica,0,,,SNP,,,,50,2009-10-20T10:45:41+00:00
40950,SK-206,small_airport,"San Pablo Airport",9.062778,-75.7825,18,SA,CO,CO-COR,Loriga,0,,,SNP,,,,50,2009-10-20T10:45:41+00:00
41010,SK-223,small_airport,"Macanal Airport",2.566667,-67.583333,327,SA,CO,CO-GUA,Macanal,0,,NAD,NAD,,,,50,2014-08-21T12:20:33+00:00
6131,SKMA,small_airport,"Madrid Air Base",4.7278,-74.2754,8325,SA,CO,CO-CUN,Madrid,0,SKMA,,,,,,50,2009-10-20T10:46:17+00:00
41005,SK-364,small_airport,"Maguí Payán Airport",1.746389,-78.165,316,SA,CO,CO-NAR,"Maguí Payán",0,,,MGP,,,,50,2009-10-20T10:45:54+00:00
6135,SKMJ,small_airport,"Maicao Airport",11.3899,-72.239197,160,SA,CO,CO-LAG,Maicao,0,SKMJ,,MCJ,,,,50,2016-01-22T16:41:51+00:00
32312,SKLA,small_airport,"Málaga Airport",6.70472,-72.7303,6710,SA,CO,CO-SAN,Málaga,0,SKLA,,MLG,,,,50,2009-10-20T10:46:17+00:00
40555,SK-030,small_airport,"El Esfuerzo Airport",10.4552,-74.9623,44,SA,CO,CO-ATL,Manatí,0,,,EEA,,,,50,2016-03-11T23:02:13+00:00
40686,SK-250,small_airport,"Manaure Airport",11.783333,-72.416667,13,SA,CO,CO-LAG,Manaure,0,,,MAG,,,,50,2009-10-20T10:45:45+00:00
1644,SKSI,small_airport,"Santiago I Airport",4.73214,-72.323196,573,SA,CO,CO-CAS,Maní,0,SKSI,,,,,SK52,50,2009-10-20T10:52:50+00:00
32313,SKMN,small_airport,"Casanare Airport",4.83333,-72.2667,600,SA,CO,CO-CAS,Maní,0,SKMN,,MNI,,,,50,2009-10-20T10:46:17+00:00
40662,SK-061,small_airport,"Dumacita Airport",4.481667,-72.04,492,SA,CO,CO-CAS,Maní,0,,,MIN,,,,50,2009-10-20T10:45:30+00:00
40667,SK-076,small_airport,"Estero Airport",4.676389,-72.123611,524,SA,CO,CO-CAS,Maní,0,,,MAI,,,,50,2009-10-20T10:45:32+00:00
40673,SK-102,small_airport,"Los Milagros Airport",4.798056,-72.234167,564,SA,CO,CO-CAS,Maní,0,,,LOM,,,,50,2009-10-20T10:45:34+00:00
40675,SK-135,small_airport,"Villa Andrea Airport",4.792778,-72.234444,567,SA,CO,CO-CAS,Maní,0,,,MNY,,,,50,2009-10-20T10:45:35+00:00
40682,SK-094,small_airport,"La Gloria Airport",5.006389,-72.356111,650,SA,CO,CO-CAS,Maní,0,,,MNO,,,,50,2009-10-20T10:45:32+00:00
40683,SK-132,small_airport,"Tío Bayo Airport",4.884722,-72.366944,608,SA,CO,CO-CAS,Maní,0,,,MYN,,,,50,2009-10-20T10:45:35+00:00
40927,SK-037,small_airport,"San Pablo - Incora Airport",10.047222,-75.265278,52,SA,CO,CO-BOL,"María La Baja",0,,,SPO,,,,50,2009-10-20T10:45:30+00:00
40932,SK-033,small_airport,"Honduras Br Airport",9.972222,-75.374167,20,SA,CO,CO-BOL,"María La Baja",0,,,HOB,,,,50,2009-10-20T10:45:30+00:00
41038,SK-217,small_airport,"Medina Airport",4.516667,-73.283333,1315,SA,CO,CO-CUN,Medina,0,,MND,MND,,,,50,2015-03-13T19:16:21+00:00
6133,SKME,small_airport,"Melgar Air Base",4.21644,-74.635,1028,SA,CO,CO-CUN,Melgar,0,SKME,,,,,,50,2009-10-20T10:46:17+00:00
41081,SK-140,small_airport,"Lopez De Micay Airport",3.04318,-77.5522,60,SA,CO,CO-CAU,Micay,0,,,LMX,,,,50,2009-10-20T10:45:36+00:00
31896,SKMF,small_airport,"Miraflores Airport",1.35,-71.9444,730,SA,CO,CO-GUV,Miraflores,0,SKMF,MFS,MFS,,,,50,2009-10-20T10:46:17+00:00
40659,SK-227,small_airport,"Lagos Del Dorado Airport",1.21,-71.955,654,SA,CO,CO-GUV,Miraflores,0,,,MRF,,,,50,2009-10-20T10:45:43+00:00
40679,SK-225,small_airport,"Barranquillita Airport",1.546667,-72.325833,742,SA,CO,CO-GUV,Miraflores,0,,,BOL,,,,50,2009-10-20T10:45:43+00:00
40702,SK-230,small_airport,"Tres Ríos Airport",1.206389,-72.7325,730,SA,CO,CO-GUV,Miraflores,0,,,TRR,,,,50,2009-10-20T10:45:43+00:00
40978,SK-137,small_airport,"Ingenio Incauca Airport",3.268889,-76.333889,3252,SA,CO,CO-CAU,Miranda,0,,,MDA,,,,50,2009-10-20T10:45:35+00:00
41016,SK-003,small_airport,"Miriti Airport",1.133333,-70.25,926,SA,CO,CO-VAU,Miriti,0,,,MIX,,,,50,2009-10-20T10:45:28+00:00
40561,SK-478,small_airport,"Ibacaba Airport",0.970556,-69.230556,413,SA,CO,CO-VAU,Mitu,0,,,MIC,,,,50,2009-10-20T10:46:03+00:00
40563,SK-500,small_airport,"Teresita Airport",0.738056,-69.471389,414,SA,CO,CO-VAU,Mitu,0,,,MTS,,,,50,2009-10-20T10:46:04+00:00
40564,SK-508,small_airport,"Yapima Airport",1.0825,-69.491389,489,SA,CO,CO-VAU,Mitu,0,,,YAP,,,,50,2009-10-20T10:46:05+00:00
40565,SK-506,small_airport,"Wainambi Airport",0.866667,-69.617222,461,SA,CO,CO-VAU,Mitu,0,,,MWA,,,,50,2009-10-20T10:46:05+00:00
40567,SK-488,small_airport,"Piracuara Airport",0.670278,-69.651389,457,SA,CO,CO-VAU,Mitu,0,,,MPI,,,,50,2009-10-20T10:46:03+00:00
40572,SK-479,small_airport,"Kamanaos Airport",1.726111,-69.845278,578,SA,CO,CO-VAU,Mitu,0,,,MKA,,,,50,2009-10-20T10:46:03+00:00
40574,SK-502,small_airport,"Villa Fátima Airport",0.974444,-69.956944,583,SA,CO,CO-VAU,Mitu,0,,,MVI,,,,50,2009-10-20T10:46:04+00:00
40575,SK-495,small_airport,"Santa Lucía Airport",1.3825,-70.006667,758,SA,CO,CO-VAU,Mitu,0,,,MSI,,,,50,2009-10-20T10:46:04+00:00
40577,SK-507,small_airport,"Wasay Airport",1.660833,-70.019444,567,SA,CO,CO-VAU,Mitu,0,,,MWY,,,,50,2009-10-20T10:46:05+00:00
40578,SK-480,small_airport,"Los Angele Airport",0.576389,-70.129722,601,SA,CO,CO-VAU,Mitu,0,,,MVU,,,,50,2009-10-20T10:46:03+00:00
40579,SK-498,small_airport,"Tapurucuara Airport",1.473056,-70.162778,621,SA,CO,CO-VAU,Mitu,0,,,MUR,,,,50,2009-10-20T10:46:04+00:00
40580,SK-501,small_airport,"Tiquie Airport",0.234167,-70.168889,518,SA,CO,CO-VAU,Mitu,0,,,MTI,,,,50,2009-10-20T10:46:04+00:00
40581,SK-472,small_airport,"Belén De Inambú Airport",0.470833,-70.184722,567,SA,CO,CO-VAU,Mitu,0,,,MIB,,,,50,2009-10-20T10:46:03+00:00
40582,SK-494,small_airport,"Santa Isabel Airport",0.117778,-70.193056,596,SA,CO,CO-VAU,Mitu,0,,,MIS,,,,50,2009-10-20T10:46:04+00:00
40583,SK-505,small_airport,"Wacaricuara Airport",0.2,-70.225,577,SA,CO,CO-VAU,Mitu,0,,,MIT,,,,50,2009-10-20T10:46:05+00:00
40585,SK-490,small_airport,"San Gerardo Airport",0.769722,-70.284722,580,SA,CO,CO-VAU,Mitu,0,,,MGO,,,,50,2009-10-20T10:46:03+00:00
40587,SK-493,small_airport,"San Pablo Airport",0.783056,-70.322778,589,SA,CO,CO-VAU,Mitu,0,,,MSN,,,,50,2009-10-20T10:46:04+00:00
40588,SK-487,small_airport,"Piedra Ñi Airport",0.108611,-70.326944,583,SA,CO,CO-VAU,Mitu,0,,,MDR,,,,50,2009-10-20T10:46:03+00:00
40589,SK-491,small_airport,"San Luis De Paca Airport",0.874444,-70.346389,635,SA,CO,CO-VAU,Mitu,0,,,MSP,,,,50,2009-10-20T10:46:03+00:00
40590,SK-509,small_airport,"Yapu Airport",0.621667,-70.351667,610,SA,CO,CO-VAU,Mitu,0,SKYG,,MYA,,,,50,2016-01-22T17:31:16+00:00
40591,SK-485,small_airport,"Pacu Airport",1.630833,-70.363889,605,SA,CO,CO-VAU,Mitu,0,,,MPU,,,,50,2009-10-20T10:46:03+00:00
40592,SK-496,small_airport,"Santa Rita Airport",1.652778,-70.409722,608,SA,CO,CO-VAU,Mitu,0,,,MSR,,,,50,2009-10-20T10:46:04+00:00
40593,SK-489,small_airport,"San Antonio Airport",0.679722,-70.4375,649,SA,CO,CO-VAU,Mitu,0,,,MSA,,,,50,2009-10-20T10:46:03+00:00
40594,SK-477,small_airport,"Cano Coló Airport",0.365,-70.443333,696,SA,CO,CO-VAU,Mitu,0,,,MOL,,,,50,2009-10-20T10:46:03+00:00
40595,SK-504,small_airport,"Villa Nueva Airport",0.280556,-70.456667,622,SA,CO,CO-VAU,Mitu,0,,,MVN,,,,50,2009-10-20T10:46:05+00:00
40597,SK-492,small_airport,"San Miguel Airport",0.003889,-70.497222,424,SA,CO,CO-VAU,Mitu,0,,,MGU,,,,50,2009-10-20T10:46:04+00:00
40598,SK-497,small_airport,"Sonaña Airport",0.130833,-70.579167,560,SA,CO,CO-VAU,Mitu,0,,,MSO,,,,50,2009-10-20T10:46:04+00:00
40602,SK-486,small_airport,"Papunagu Airport",1.907222,-70.761944,513,SA,CO,CO-VAU,Mitu,0,,,MTC,,,,50,2009-10-20T10:46:03+00:00
40603,SK-473,small_airport,"Bocoa Querari Airport",1.5975,-70.799444,626,SA,CO,CO-VAU,Mitu,0,,,MBQ,,,,50,2009-10-20T10:46:03+00:00
40609,SK-476,small_airport,"Cananari Airport",0.545,-70.928611,645,SA,CO,CO-VAU,Mitu,0,,,MCI,,,,50,2009-10-20T10:46:03+00:00
40611,SK-474,small_airport,"Buenos Aires Airport",0.020278,-71.0075,518,SA,CO,CO-VAU,Mitu,0,,,MTN,,,,50,2009-10-20T10:46:03+00:00
40621,SK-503,small_airport,"Villa Gladys Airport",0.260556,-71.356389,549,SA,CO,CO-VAU,Mitu,0,,,MVA,,,,50,2009-10-20T10:46:04+00:00
40657,SK-475,small_airport,"Cachiporro Airport",0.554167,-71.926389,557,SA,CO,CO-VAU,Mitu,0,,,MCP,,,,50,2009-10-20T10:46:03+00:00
6137,SKMP,small_airport,"San Bernardo Airport",9.25872,-74.438,60,SA,CO,CO-BOL,Mompós,0,SKMP,,MMP,,,,50,2009-10-20T10:46:17+00:00
41013,SK-481,small_airport,"Monfort Airport",0.633333,-69.75,630,SA,CO,CO-VAU,Monfort,0,,MFB,MFB,,,,50,2015-03-03T23:26:56+00:00
6136,SKML,small_airport,"Montelibano Airport",7.97174,-75.4325,160,SA,CO,CO-COR,Montelíbano,0,SKML,MTB,MTB,,,,50,2009-10-20T10:46:17+00:00
41032,SK-109,small_airport,"Monterrey Airport",4.916667,-72.85,1500,SA,CO,CO-CAS,Monterrey,0,,,MOY,,,,50,2009-10-20T10:45:34+00:00
40605,SK-228,small_airport,"Morichal Papanagu Airport",2,-70.883333,612,SA,CO,CO-GUV,Morichal,0,,,MCG,,,,50,2009-10-20T10:45:43+00:00
41014,SK-482,small_airport,"Morichal Airport",1.75,-69.916667,552,SA,CO,CO-VAU,Morichal,0,,MHF,MHF,,,,50,2015-03-05T22:27:19+00:00
41086,SK-365,small_airport,"Mosquera Airport",2.64955,-78.3361,50,SA,CO,CO-NAR,Mosquera,0,,,MQR,,,,50,2009-10-20T10:45:54+00:00
41076,SK-012,small_airport,"Mulatos Airport",8.65,-76.75,20,SA,CO,CO-ANT,Mulatos,0,,,ULS,,,,50,2009-10-20T10:45:28+00:00
40995,SK-013,small_airport,"Murindo Airport",6.981667,-76.813889,27,SA,CO,CO-ANT,Murindo,0,,,MRI,,,,50,2009-10-20T10:45:28+00:00
40996,SK-025,small_airport,"Vigía Del Fuerte Airport",6.583333,-76.883333,72,SA,CO,CO-ANT,Murindo,0,,,VDF,,,,50,2009-10-20T10:45:28+00:00
40986,SK-014,small_airport,"Mutata Airport",7.253611,-76.448611,328,SA,CO,CO-ANT,Mutata,0,,,MTA,,,,50,2009-10-20T10:45:28+00:00
40852,SK-040,small_airport,"Muzo Airport",5.547222,-74.112778,3000,SA,CO,CO-BOY,Muzo,0,,,MUZ,,,,50,2009-10-20T10:45:30+00:00
40914,SK-438,small_airport,"San Germán Airport",3.650833,-75.100278,1081,SA,CO,CO-TOL,Natagaima,0,,,SGT,,,,50,2009-10-20T10:45:59+00:00
32010,SKNC,small_airport,"Necocli Airport",8.45,-76.7833,19,SA,CO,CO-ANT,Necocli,0,SKNC,NCI,NCI,,,,50,2009-10-20T10:46:19+00:00
40992,SK-015,small_airport,"Nueva Fortuna Airport",8.616667,-76.666667,230,SA,CO,CO-ANT,"Nueva Fortuna",0,,,NFA,,,,50,2009-10-20T10:45:28+00:00
40656,SK-083,small_airport,"La Barquereña Airport",5.396111,-71.911667,594,SA,CO,CO-CAS,Nunchia,0,,,LAB,,,,50,2009-10-20T10:45:32+00:00
40660,SK-052,small_airport,"Bizerta Airport",5.4225,-71.993611,637,SA,CO,CO-CAS,Nunchia,0,,,BIZ,,,,50,2009-10-20T10:45:30+00:00
40661,SK-087,small_airport,"La Ceiba Airport",5.445833,-72.003889,948,SA,CO,CO-CAS,Nunchia,0,,,NUA,,,,50,2009-10-20T10:45:32+00:00
40664,SK-111,small_airport,"Palma Rosa Airport",5.566667,-72.06,733,SA,CO,CO-CAS,Nunchia,0,,,NUT,,,,50,2009-10-20T10:45:34+00:00
40665,SK-051,small_airport,"Banco Airport",5.463056,-72.063056,689,SA,CO,CO-CAS,Nunchia,0,,,BAN,,,,50,2009-10-20T10:45:30+00:00
40666,SK-066,small_airport,"El Deshecho Airport",5.621944,-72.067778,840,SA,CO,CO-CAS,Nunchia,0,,,NUN,,,,50,2009-10-20T10:45:32+00:00
40668,SK-095,small_airport,"La Nevera Airport",5.512222,-72.129167,766,SA,CO,CO-CAS,Nunchia,0,,,NIA,,,,50,2009-10-20T10:45:32+00:00
40670,SK-097,small_airport,"La Reforma Airport",5.429444,-72.163611,707,SA,CO,CO-CAS,Nunchia,0,,,NCC,,,,50,2009-10-20T10:45:33+00:00
41028,SK-110,small_airport,"Nunchia Airport",5.65,-72.2,1849,SA,CO,CO-CAS,Nunchia,0,,,NUH,,,,50,2009-10-20T10:45:34+00:00
40958,SK-453,small_airport,"Hacienda La Elvira Airport",4.618056,-75.921667,3307,SA,CO,CO-VAC,Obando,0,,,HEV,,,,50,2009-10-20T10:46:01+00:00
32315,SKOR,small_airport,"Orito Airport",0.669444,-76.88,1132,SA,CO,CO-PUT,Orito,0,SKOR,,ORI,,,,50,2009-10-20T10:46:19+00:00
32126,SKOE,small_airport,"Orocue Airport",4.79222,-71.3564,434,SA,CO,CO-CAS,Orocue,0,SKOE,ORC,ORC,,,,50,2009-10-20T10:46:19+00:00
40625,SK-079,small_airport,"Guanapalo Airport",5.180556,-71.428889,475,SA,CO,CO-CAS,Orocue,0,,,ORO,,,,50,2009-10-20T10:45:32+00:00
40628,SK-053,small_airport,"Buena Vista Airport",4.836111,-71.502222,457,SA,CO,CO-CAS,Orocue,0,,,OCU,,,,50,2009-10-20T10:45:30+00:00
40629,SK-062,small_airport,"El Boral Airport",4.734722,-71.503333,427,SA,CO,CO-CAS,Orocue,0,,,ORR,,,,50,2009-10-20T10:45:30+00:00
40630,SK-126,small_airport,"Sardinas Airport",4.983611,-71.513333,478,SA,CO,CO-CAS,Orocue,0,,,ORS,,,,50,2009-10-20T10:45:34+00:00
40632,SK-100,small_airport,"Lasguabin Airport",4.710833,-71.549444,446,SA,CO,CO-CAS,Orocue,0,,,LAS,,,,50,2009-10-20T10:45:34+00:00
40633,SK-072,small_airport,"El Viejo Carmen Airport",4.8875,-71.568333,476,SA,CO,CO-CAS,Orocue,0,,,OCE,,,,50,2009-10-20T10:45:32+00:00
40636,SK-080,small_airport,"Guarilaque Airport",4.89,-71.592222,6375,SA,CO,CO-CAS,Orocue,0,,,ORA,,,,50,2009-10-20T10:45:32+00:00
40637,SK-085,small_airport,"La Candelaria Airport",5.111111,-71.628056,509,SA,CO,CO-CAS,Orocue,0,,,ORX,,,,50,2009-10-20T10:45:32+00:00
40638,SK-121,small_airport,"San Pablo Airport",4.785833,-71.630833,489,SA,CO,CO-CAS,Orocue,0,,,OOR,,,,50,2009-10-20T10:45:34+00:00
40639,SK-091,small_airport,"La Culebra Airport",4.9025,-71.634722,478,SA,CO,CO-CAS,Orocue,0,,,ORJ,,,,50,2009-10-20T10:45:32+00:00
40640,SK-049,small_airport,"Altamira Airport",4.758611,-71.638611,467,SA,CO,CO-CAS,Orocue,0,,,ALT,,,,50,2009-10-20T10:45:30+00:00
40641,SK-096,small_airport,"La Pista Airport",4.827778,-71.6675,477,SA,CO,CO-CAS,Orocue,0,,,LAL,,,,50,2009-10-20T10:45:32+00:00
40642,SK-106,small_airport,"Mararey Airport",4.828056,-71.680833,482,SA,CO,CO-CAS,Orocue,0,,,MAR,,,,50,2009-10-20T10:45:34+00:00
40643,SK-063,small_airport,"El Caimán Airport",4.856389,-71.683889,485,SA,CO,CO-CAS,Orocue,0,,,ORE,,,,50,2009-10-20T10:45:30+00:00
40645,SK-067,small_airport,"El Medano Airport",4.799722,-71.7125,481,SA,CO,CO-CAS,Orocue,0,,,ORU,,,,50,2009-10-20T10:45:32+00:00
40651,SK-122,small_airport,"Santa Ana Airport",5.087778,-71.789722,540,SA,CO,CO-CAS,Orocue,0,,,SAA,,,,50,2009-10-20T10:45:34+00:00
40658,SK-071,small_airport,"El Rodeo Airport",4.753889,-71.931667,491,SA,CO,CO-CAS,Orocue,0,,,ORM,,,,50,2009-10-20T10:45:32+00:00
40866,SK-018,small_airport,"Remedios C Airport",6.933333,-74.716667,2523,SA,CO,CO-ANT,Otu,0,,,OTU,,,,50,2009-10-20T10:45:28+00:00
40615,SK-484,small_airport,"Pacoa Airport",0.066667,-71.208333,549,SA,CO,CO-VAU,Pacoa,0,,,PCA,,,,50,2009-10-20T10:46:03+00:00
40975,SK-141,small_airport,"San Jacinto Airport",3.185833,-76.326111,3261,SA,CO,CO-CAU,Padilla,0,,,SJP,,,,50,2009-10-20T10:45:36+00:00
40822,SK-148,small_airport,"Buenos Aires Airport",9.02,-73.6725,224,SA,CO,CO-CES,Pailitas,0,,,BNP,,,,50,2009-10-20T10:45:36+00:00
6144,SKPA,small_airport,"Juan Jose Rondon Airport",5.76454,-73.1054,8205,SA,CO,CO-BOY,Paipa,0,SKPA,,PIP,,,,50,2009-10-20T10:46:19+00:00
40928,SK-233,small_airport,"El Juncal Airport",2.846944,-75.313056,1524,SA,CO,CO-HUI,Palermo,0,,,EJU,,,,50,2009-10-20T10:45:43+00:00
40933,SK-237,small_airport,"Guamito Airport",2.914167,-75.396667,1773,SA,CO,CO-HUI,Palermo,0,,,GUN,,,,50,2009-10-20T10:45:44+00:00
40936,SK-243,small_airport,"San Luis Airport",2.929722,-75.42,1808,SA,CO,CO-HUI,Palermo,0,,,PMO,,,,50,2009-10-20T10:45:44+00:00
40971,SK-454,small_airport,"Ingenio Manuelita Airport",3.598889,-76.303611,3310,SA,CO,CO-VAC,Palmira,0,,,PMM,,,,50,2009-10-20T10:46:01+00:00
41036,SK-115,small_airport,"Paratebueno Airport",4.383333,-73.2,820,SA,CO,CO-CAS,Paratebueno,0,,EUO,EUO,,,,50,2014-09-14T16:58:02+00:00
40732,SK-215,small_airport,"La Ponderosa Airport",4.287778,-73.133889,665,SA,CO,CO-CUN,Paratebueno,0,,,PBR,,,,50,2009-10-20T10:45:41+00:00
40735,SK-219,small_airport,"Primero De Mayo Airport",4.334722,-73.143889,685,SA,CO,CO-CUN,Paratebueno,0,,,PRI,,,,50,2009-10-20T10:45:43+00:00
40739,SK-214,small_airport,"La Paz Airport",4.297778,-73.189167,729,SA,CO,CO-CUN,Paratebueno,0,,,LAZ,,,,50,2009-10-20T10:45:41+00:00
40757,SK-211,small_airport,"La Aurora Airport",4.304444,-73.256667,808,SA,CO,CO-CUN,Paratebueno,0,,,PRB,,,,50,2009-10-20T10:45:41+00:00
40997,SK-136,small_airport,"El Guayabx Airport",2.091111,-76.955,2980,SA,CO,CO-CAU,Patia,0,,,EGY,,,,50,2009-10-20T10:45:35+00:00
41085,SK-366,small_airport,"Payán Airport",1.8,-78.166667,97,SA,CO,CO-NAR,Payán,0,,,PYN,,,,50,2009-10-20T10:45:54+00:00
40644,SK-119,small_airport,"San Fernandof Airport",5.666667,-71.683889,584,SA,CO,CO-CAS,"Paz De Arif",0,,,SAN,,,,50,2009-10-20T10:45:34+00:00
40601,SK-134,small_airport,"Venecia De Guamas Airport",5.691944,-70.739722,389,SA,CO,CO-CAS,"Paz De Ariporo",0,,,PZI,,,,50,2009-10-20T10:45:35+00:00
40607,SK-098,small_airport,"La Venganza Airport",6.022778,-70.8975,412,SA,CO,CO-CAS,"Paz De Ariporo",0,,,PDE,,,,50,2009-10-20T10:45:33+00:00
40610,SK-086,small_airport,"La Carpeta Airport",5.958611,-70.94,423,SA,CO,CO-CAS,"Paz De Ariporo",0,,,LAP,,,,50,2009-10-20T10:45:32+00:00
40617,SK-056,small_airport,"Chaparrito Airport",5.56,-71.217222,456,SA,CO,CO-CAS,"Paz De Ariporo",0,,,PZR,,,,50,2009-10-20T10:45:30+00:00
40631,SK-089,small_airport,"La Colonia Airport",5.763889,-71.531389,556,SA,CO,CO-CAS,"Paz De Ariporo",0,,,PDR,,,,50,2009-10-20T10:45:32+00:00
40634,SK-054,small_airport,"Caño Garza Airport",5.591667,-71.589444,544,SA,CO,CO-CAS,"Paz De Ariporo",0,,,PAZ,,,,50,2009-10-20T10:45:30+00:00
40918,SK-042,small_airport,"Pensilvania Airport",5.369722,-75.140833,7626,SA,CO,CO-CAL,Pensilvania,0,,,PEN,,,,50,2009-10-20T10:45:30+00:00
40956,SK-375,small_airport,"El Diamante Airport",4.823611,-75.845278,3891,SA,CO,CO-RIS,Pereira,0,,,PEP,,,,50,2009-10-20T10:45:55+00:00
40891,SK-427,small_airport,"La Opia Airport",4.451389,-74.965556,1856,SA,CO,CO-TOL,Piedras,0,,,PRA,,,,50,2009-10-20T10:45:58+00:00
40896,SK-399,small_airport,"Agua Blanca Airport",4.467222,-74.993333,1920,SA,CO,CO-TOL,Piedras,0,,,ABT,,,,50,2009-10-20T10:45:56+00:00
40901,SK-442,small_airport,"Santa Ana Airport",4.408333,-75.021667,2192,SA,CO,CO-TOL,Piedras,0,,SQB,,,,,50,2009-10-20T10:45:59+00:00
40903,SK-444,small_airport,"Teucali Airport",4.425556,-75.023611,2201,SA,CO,CO-TOL,Piedras,0,,,TEU,,,,50,2009-10-20T10:46:01+00:00
40907,SK-439,small_airport,"San Javier Airport",4.401389,-75.035556,2270,SA,CO,CO-TOL,Piedras,0,,,SJT,,,,50,2009-10-20T10:45:59+00:00
40908,SK-447,small_airport,"Waterloo Airport",4.442222,-75.035556,2262,SA,CO,CO-TOL,Piedras,0,,,PIE,,,,50,2009-10-20T10:46:01+00:00
40858,SK-268,small_airport,"La Palestina Airport",10.609722,-74.298333,64,SA,CO,CO-MAG,Pivijay,0,,,PIV,,,,50,2009-10-20T10:45:46+00:00
41063,SK-204,closed,"Planeta Rica Airport",8.398853,-75.577379,280,SA,CO,CO-COR,"Planeta Rica",0,,,PLC,,,,50,2016-03-12T11:22:59+00:00
32165,SKPL,small_airport,"Plato Airport",9.8,-74.7833,69,SA,CO,CO-MAG,Plato,0,SKPL,PLT,PLT,,,,50,2009-10-20T10:46:19+00:00
40861,SK-267,small_airport,"La Gaviota Airport",9.644444,-74.425,187,SA,CO,CO-MAG,Plato,0,,,LEB,,,,50,2009-10-20T10:45:46+00:00
40865,SK-257,small_airport,"Corral Nuevo Airport",9.693611,-74.645833,124,SA,CO,CO-MAG,Plato,0,,,CRN,,,,50,2009-10-20T10:45:45+00:00
40922,SK-240,small_airport,"Polonia Airport",3.266667,-75.168056,1285,SA,CO,CO-HUI,Polonia,0,,,POL,,,,50,2009-10-20T10:45:44+00:00
41026,SK-116,small_airport,"Pore Airport",5.733333,-71.983333,975,SA,CO,CO-CAS,Pore,0,,PRE,POR,,,,50,2016-01-08T23:09:27+00:00
6145,SKPB,small_airport,"Puerto Bolívar Airport",12.2215,-71.9848,90,SA,CO,CO-LAG,Portete,0,SKPB,,PBO,,http://en.wikipedia.org/wiki/Puerto_Bol%C3%ADvar_Airport,,50,2009-10-20T10:46:19+00:00
40970,SK-448,small_airport,"Castilla Central Airport",3.361667,-76.283056,3304,SA,CO,CO-VAC,Pradera,0,,,CST,,,,50,2009-10-20T10:46:01+00:00
40959,SK-428,small_airport,"Las Garzas Airport",3.751111,-75.9475,13119,SA,CO,CO-TOL,Prado,0,,,LGA,,,,50,2009-10-20T10:45:58+00:00
6153,SKPR,small_airport,"Puerto Berrio Airport",6.46034,-74.4105,445,SA,CO,CO-ANT,"Puerto Berrio",0,SKPR,PBE,PBE,,,,50,2009-10-20T10:46:19+00:00
6175,SKVL,small_airport,"Velásquez Airport",5.93904,-74.457,566,SA,CO,CO-BOY,"Puerto Boyacá",0,SKVL,PYA,,,,,50,2016-01-15T07:30:13+00:00
40558,SK-519,small_airport,"Jibici Airport",4.883889,-68.356389,356,SA,CO,CO-VID,"Puerto Carreño",0,,,PRR,,,,50,2009-10-20T10:46:05+00:00
40559,SK-524,small_airport,"Pinoquia Airport",6.1525,-68.817778,234,SA,CO,CO-VID,"Puerto Carreño",0,,,PNQ,,,,50,2009-10-20T10:46:06+00:00
40584,SK-527,small_airport,"San José De Ocune Airport",4.082222,-70.253889,560,SA,CO,CO-VID,"Puerto Carreño",0,,,PRE,,,,50,2009-10-20T10:46:06+00:00
40586,SK-518,small_airport,"Guerima Airport",3.591667,-70.312778,471,SA,CO,CO-VID,"Puerto Carreño",0,,,GRM,,,,50,2009-10-20T10:46:05+00:00
40599,SK-522,small_airport,"La Victoria Airport",3.828056,-70.589167,438,SA,CO,CO-VID,"Puerto Carreño",0,,,PTC,,,,50,2009-10-20T10:46:06+00:00
32316,SKPG,small_airport,"Puerto Gaitan Airport",4.30444,-72.0844,510,SA,CO,CO-CAS,"Puerto Gaitan",0,SKPG,,,,,,50,2009-10-20T10:46:19+00:00
40623,SK-310,small_airport,"La Plata Airport",3.488056,-71.375556,635,SA,CO,CO-MET,"Puerto Gaitán",0,,,PGP,,,,50,2009-10-20T10:45:50+00:00
40627,SK-327,small_airport,"Morelia Airport",3.754167,-71.459722,607,SA,CO,CO-MET,"Puerto Gaitán",0,,,PGT,,,,50,2009-10-20T10:45:52+00:00
40635,SK-286,small_airport,"El Rodeo Airport",4.415,-71.590278,624,SA,CO,CO-MET,"Puerto Gaitán",0,,,PGO,,,,50,2009-10-20T10:45:48+00:00
40646,SK-295,small_airport,"Hato La Esperanza Airport",4.2375,-71.718056,666,SA,CO,CO-MET,"Puerto Gaitán",0,,,HLE,,,,50,2009-10-20T10:45:48+00:00
40654,SK-318,small_airport,"Las Malvinas Airport",3.770833,-71.823889,709,SA,CO,CO-MET,"Puerto Gaitán",0,,,LML,,,,50,2009-10-20T10:45:51+00:00
40663,SK-338,small_airport,"Sabaneta Airport",3.931667,-72.043333,683,SA,CO,CO-MET,"Puerto Gaitán",0,,,PGN,,,,50,2009-10-20T10:45:52+00:00
40945,SK-202,small_airport,"La Esperanza Airport",7.868889,-75.675556,261,SA,CO,CO-COR,"Puerto Libertador",0,,,PLK,,,,50,2009-10-20T10:45:41+00:00
40793,SK-289,small_airport,"Gaviotas Airport",3.365833,-73.4675,805,SA,CO,CO-MET,"Puerto Lleras",0,,,PUL,,,,50,2009-10-20T10:45:48+00:00
30816,SKCI,small_airport,"Carimagua Airport",4.56417,-71.3364,700,SA,CO,CO-MET,"Puerto López",0,SKCI,CCO,CCO,,,,50,2014-07-13T10:29:03+00:00
40678,SK-328,small_airport,"Mundo Nuevo Airport",4.330278,-72.32,594,SA,CO,CO-MET,"Puerto López",0,,,MUN,,,,50,2009-10-20T10:45:52+00:00
40689,SK-358,small_airport,"Yátaros De Meluá Airport",3.793889,-72.477778,580,SA,CO,CO-MET,"Puerto López",0,,,PTZ,,,,50,2009-10-20T10:45:53+00:00
40691,SK-273,small_airport,"Bello Horizonte Airport",4.291667,-72.504167,578,SA,CO,CO-MET,"Puerto López",0,,,PLE,,,,50,2009-10-20T10:45:46+00:00
40714,SK-314,small_airport,"Lajitas Airport",4.159167,-72.910833,726,SA,CO,CO-MET,"Puerto López",0,,,LAJ,,,,50,2009-10-20T10:45:50+00:00
40717,SK-337,small_airport,"Rancho Nare Airport",3.854167,-72.973611,774,SA,CO,CO-MET,"Puerto López",0,,,RCN,,,,50,2009-10-20T10:45:52+00:00
40722,SK-322,small_airport,"Los Venados Airport",4.0675,-73.005,611,SA,CO,CO-MET,"Puerto López",0,,,LVE,,,,50,2009-10-20T10:45:51+00:00
40729,SK-331,small_airport,"Palmasola Airport",4.127222,-73.076667,616,SA,CO,CO-MET,"Puerto López",0,,,PLO,,,,50,2009-10-20T10:45:52+00:00
40730,SK-352,small_airport,"Tobasia Airport",4.078611,-73.079444,604,SA,CO,CO-MET,"Puerto López",0,,,PLS,,,,50,2009-10-20T10:45:53+00:00
40731,SK-285,small_airport,"El Rinconcito Airport",3.927222,-73.081111,615,SA,CO,CO-MET,"Puerto López",0,,,PPZ,,,,50,2009-10-20T10:45:47+00:00
40733,SK-312,small_airport,"La Reforma Airport",4.062778,-73.139167,649,SA,CO,CO-MET,"Puerto López",0,,,PTE,,,,50,2009-10-20T10:45:50+00:00
40734,SK-319,small_airport,"Los Bálticos Airport",4.131389,-73.140833,661,SA,CO,CO-MET,"Puerto López",0,,,LOB,,,,50,2009-10-20T10:45:51+00:00
40738,SK-329,small_airport,"Natalia Airport",4.069722,-73.180556,674,SA,CO,CO-MET,"Puerto López",0,,,PRL,,,,50,2009-10-20T10:45:52+00:00
40749,SK-339,small_airport,"San Isidro Airport",4.127222,-73.238889,738,SA,CO,CO-MET,"Puerto López",0,,,PLD,,,,50,2009-10-20T10:45:52+00:00
40772,SK-334,small_airport,"Puerto Lleras Airport",3.283333,-73.35,805,SA,CO,CO-MET,"Puerto López",0,,,PLL,,,,50,2009-10-20T10:45:52+00:00
41034,SKOL,small_airport,"Puerto López Airport",4.089869,-72.976483,599,SA,CO,CO-MET,"Puerto López",0,SKOL,,,,,,50,2009-10-20T10:46:19+00:00
41045,SK-160,small_airport,"Gamarra Airport",8.20199,-73.7653,130,SA,CO,CO-CES,"Puerto Mosquito",0,,,GRA,,,,50,2009-10-20T10:45:37+00:00
41060,SK-045,small_airport,"Puerto Rico Airport",1.916667,-75.166667,980,SA,CO,CO-CAQ,"Puerto Rico",0,,PCC,PCC,,https://es.wikipedia.org/wiki/Aeropuerto_de_Puerto_Rico,,50,2015-10-06T23:37:02+00:00
40742,SK-335,small_airport,"Puerto Rico Airport",2.941944,-73.203889,709,SA,CO,CO-MET,"Puerto Rico",0,,,PUE,,,,50,2009-10-20T10:45:52+00:00
41020,SK-029,small_airport,"Rondón Airport",6.284479,-71.097732,447,SA,CO,CO-ARA,"Puerto Rondón",0,,,RDN,,,,50,2016-03-11T21:10:00+00:00
41054,SK-218,small_airport,"Palanquero Airport",5.483333,-74.65,566,SA,CO,CO-CUN,"Puerto Salgar",0,,,PAL,,,,50,2009-10-20T10:45:43+00:00
40864,SK-016,small_airport,"Puerto Perales Airport",5.991776,-74.57009,460,SA,CO,CO-ANT,"Puerto Triunfo",0,,,PFO,,,,50,2017-04-24T02:22:54+00:00
40807,SK-383,small_airport,"El Porvenir Airport",7.310278,-73.578611,499,SA,CO,CO-SAN,"Puerto Wilches",0,,,PWC,,,,50,2009-10-20T10:45:56+00:00
40836,SK-388,small_airport,"Los Gemelos Dorados Airport",7.363333,-73.771944,228,SA,CO,CO-SAN,"Puerto Wilches",0,,,PTW,,,,50,2009-10-20T10:45:56+00:00
40837,SK-386,small_airport,"La Ponderosa Airport",7.274167,-73.8225,304,SA,CO,CO-SAN,"Puerto Wilches",0,,,LPS,,,,50,2009-10-20T10:45:56+00:00
40842,SK-390,small_airport,"Puerto Wlches Airport",7.35,-73.9,204,SA,CO,CO-SAN,"Puerto Wilches",0,,,PWT,,,,50,2009-10-20T10:45:56+00:00
40994,SK-378,small_airport,"Buenos Aires Airport",7.463889,-76.746111,63,SA,CO,CO-SAN,"Puerto Wilches",0,,,BNO,,,,50,2009-10-20T10:45:55+00:00
40895,SK-426,small_airport,"La María Airport",3.883333,-74.992778,993,SA,CO,CO-TOL,Purificacion,0,,,LMT,,,,50,2009-10-20T10:45:58+00:00
32310,SKFR,small_airport,"Furatena Airport",5.5275,-74.1869,3850,SA,CO,CO-BOY,Quipama,0,SKFR,,QPM,,,,50,2009-10-20T10:46:12+00:00
40711,SK-249,small_airport,"Cotoprix Airport",11.223611,-72.836111,192,SA,CO,CO-LAG,Riohacha,0,,,CTP,,,,50,2009-10-20T10:45:45+00:00
40778,SK-382,small_airport,"El Marne Airport",7.428333,-73.376111,416,SA,CO,CO-SAN,Rionegro,0,,,ELM,,,,50,2009-10-20T10:45:56+00:00
40816,SK-384,small_airport,"El Tornillo Airport",7.621667,-73.6225,246,SA,CO,CO-SAN,Rionegro,0,,,ETO,,,,50,2009-10-20T10:45:56+00:00
40965,SK-469,small_airport,"Tierra Blanca Airport",4.413056,-76.123333,2990,SA,CO,CO-VAC,Roldanillo,0,,,TIB,,,,50,2009-10-20T10:46:01+00:00
41048,SK-284,small_airport,"El Recreo Airport",2,-74.133333,900,SA,CO,CO-MET,"Ruperto Polania",0,,ELJ,ELJ,,,,50,2014-09-12T17:59:37+00:00
40812,SK-389,small_airport,"Mata De Plátano Airport",7.530556,-73.601667,224,SA,CO,CO-SAN,"Sabana De",0,,,MAT,,,,50,2009-10-20T10:45:56+00:00
32342,CO-SNT,small_airport,"Las Cruces Airport",7.38322,-73.505402,440,SA,CO,CO-SAN,"Sabana De Torres",0,,SNT,,,,,50,2009-10-20T10:45:28+00:00
40706,SK-123,small_airport,"Santa Clara Airport",4.415833,-72.773889,559,SA,CO,CO-CAS,Sabanalarga,0,,,SAT,,,,50,2009-10-20T10:45:34+00:00
40724,SK-118,small_airport,"Sabanalarga Airport",4.816667,-73.033333,1188,SA,CO,CO-CAS,Sabanalarga,0,,,SLC,,,,50,2009-10-20T10:45:34+00:00
40888,SK-437,small_airport,"San Agustín Airport",3.945278,-74.940556,982,SA,CO,CO-TOL,Saldana,0,,,SDA,,,,50,2009-10-20T10:45:59+00:00
40893,SK-431,small_airport,"Los Mangos Airport",3.915833,-74.981944,1001,SA,CO,CO-TOL,Saldaña,0,,,LMS,,,,50,2009-10-20T10:45:59+00:00
40900,SK-416,small_airport,"Facón Saldaña Airport",3.916667,-75.016667,1014,SA,CO,CO-TOL,Saldaña,0,,,SSL,,,,50,2009-10-20T10:45:58+00:00
40787,SK-163,small_airport,"Irho Airport",7.734444,-73.434167,295,SA,CO,CO-CES,"San Alberto",0,,,IRH,,,,50,2009-10-20T10:45:37+00:00
40788,SK-155,small_airport,"El Bosque Airport",7.810556,-73.448333,249,SA,CO,CO-CES,"San Alberto",0,,,SAR,,,,50,2009-10-20T10:45:36+00:00
40791,SK-162,small_airport,"Hipilandia Airport",7.892778,-73.462222,305,SA,CO,CO-CES,"San Alberto",0,,,SNL,,,,50,2009-10-20T10:45:37+00:00
40745,SK-308,small_airport,"La Mansión Airport",3.779444,-73.220556,713,SA,CO,CO-MET,"San Carlos De Guaroa",0,,,SDG,,,,50,2009-10-20T10:45:49+00:00
40752,SK-344,small_airport,"San Miguel Airport",3.868056,-73.252778,732,SA,CO,CO-MET,"San Carlos De Guaroa",0,,,SNU,,,,50,2009-10-20T10:45:53+00:00
40754,SK-349,small_airport,"Suescun Airport",3.926111,-73.254444,748,SA,CO,CO-MET,"San Carlos De Guaroa",0,,,,,,,50,2009-10-20T10:45:53+00:00
40766,SK-304,small_airport,"La Florida Airport",3.911944,-73.295556,772,SA,CO,CO-MET,"San Carlos De Guaroa",0,,,SGG,,,,50,2009-10-20T10:45:49+00:00
40768,SK-282,small_airport,"El Prado Airport",3.718889,-73.308611,777,SA,CO,CO-MET,"San Carlos De Guaroa",0,,,SCG,,,,50,2009-10-20T10:45:47+00:00
40771,SK-298,small_airport,"La Cabana Airport",3.951389,-73.347222,844,SA,CO,CO-MET,"San Carlos De Guaroa",0,,,SCM,,,,50,2009-10-20T10:45:48+00:00
40760,SK-171,small_airport,"La Matua Airport",10.207222,-73.263333,343,SA,CO,CO-CES,"San Diego",0,,,LAT,,,,50,2009-10-20T10:45:38+00:00
41009,SK-224,small_airport,"San Felipe Airport",1.91502,-67.0814,365,SA,CO,CO-GUA,"San Felipe",0,,,SSD,,,,50,2009-10-20T10:45:43+00:00
32319,SKSG,small_airport,"San Gil Airport",6.58444,-73.1283,5498,SA,CO,CO-SAN,"San Gil",0,SKSG,,SGL,,,,50,2009-10-20T10:46:21+00:00
40650,SK-229,small_airport,"Tomachipa Airport",2.308889,-71.773333,566,SA,CO,CO-GUV,"San José Del Guaviare",0,,,TPI,,,,50,2009-10-20T10:45:43+00:00
40693,SK-226,small_airport,"Calamar Airport",1.955556,-72.533333,846,SA,CO,CO-GUV,"San José Del Guaviare",0,,,CLM,,,,50,2009-10-20T10:45:43+00:00
40977,SK-019,small_airport,"San José Mulatos Airport",8.35,-76.333333,324,SA,CO,CO-ANT,"San José Mulatos",0,,,SJM,,,,50,2009-10-20T10:45:28+00:00
41074,SK-020,small_airport,"San Juan De Uraba Airport",8.766667,-76.533333,10,SA,CO,CO-ANT,"San Juan De Uraba",0,,SJR,SJR,,,,50,2013-08-29T11:34:49+00:00
41035,SK-183,small_airport,"San Juan Del César Airport",10.766667,-73.016667,3608,SA,CO,CO-CES,"San Juan Del César",0,,SJH,SJH,,,,50,2013-08-29T12:06:21+00:00
40720,SK-253,small_airport,"San Juan Del César Airport",10.744444,-72.994444,663,SA,CO,CO-LAG,"San Juan Del César",0,,,DJV,,,,50,2009-10-20T10:45:45+00:00
40820,SK-340,small_airport,"San Juanito Airport",4.433333,-73.65,8198,SA,CO,CO-MET,"San Juanito",0,,,SJJ,,,,50,2009-10-20T10:45:52+00:00
40899,SK-430,small_airport,"Los Feria Girón Airport",4.258889,-75.01,1486,SA,CO,CO-TOL,"San Luis",0,,,SLR,,,,50,2009-10-20T10:45:59+00:00
40919,SK-445,small_airport,"Varsovia Airport",4.017222,-75.1575,1308,SA,CO,CO-TOL,"San Luis",0,,,VAV,,,,50,2009-10-20T10:46:01+00:00
40613,SK-055,small_airport,"Caño Grande Airport",5.1725,-71.141944,426,SA,CO,CO-CAS,"San Luis De Palenque",0,,,CAA,,,,50,2009-10-20T10:45:30+00:00
40647,SK-084,small_airport,"La Bramadora Airport",5.195556,-71.7475,533,SA,CO,CO-CAS,"San Luis De Palenque",0,,,SLI,,,,50,2009-10-20T10:45:32+00:00
40652,SK-093,small_airport,"La Flora Airport",5.209722,-71.810556,549,SA,CO,CO-CAS,"San Luis De Palenque",0,,,NUC,,,,50,2009-10-20T10:45:32+00:00
40653,SK-099,small_airport,"Las Delicias Airport",5.215,-71.813611,551,SA,CO,CO-CAS,"San Luis De Palenque",0,,,LLI,,,,50,2009-10-20T10:45:33+00:00
40655,SK-108,small_airport,"Matenovillos Airport",5.213889,-71.853333,564,SA,CO,CO-CAS,"San Luis De Palenque",0,,,SLY,,,,50,2009-10-20T10:45:34+00:00
40695,SK-070,small_airport,"El Recreo Airport",5.320556,-72.577778,2722,SA,CO,CO-CAS,"San Luis De Palenque",0,,,ELE,,,,50,2009-10-20T10:45:32+00:00
41023,SK-120,small_airport,"San Luis De Palenque Airport",5.400181,-71.7001,551,SA,CO,CO-CAS,"San Luis De Palenque",0,,SQE,SQE,,,,50,2015-05-29T02:12:05+00:00
40909,SK-393,small_airport,"El Algarrobo Airport",8.501111,-75.070833,56,SA,CO,CO-SUC,"San Marcos",0,,,EAS,,,,50,2009-10-20T10:45:56+00:00
40921,SK-396,small_airport,"San Marcos Airport",8.65,-75.166667,66,SA,CO,CO-SUC,"San Marcos",0,,,SRS,,,,50,2009-10-20T10:45:56+00:00
40798,SK-181,small_airport,"Sabaneta Airport",8.025556,-73.515833,319,SA,CO,CO-CES,"San Martin",0,,,SMD,,,,50,2009-10-20T10:45:39+00:00
40805,SK-165,small_airport,"La Cacica Airport",7.985833,-73.577778,220,SA,CO,CO-CES,"San Martin",0,,,LCI,,,,50,2009-10-20T10:45:37+00:00
40811,SK-186,small_airport,"Villa Oliva Airport",7.963056,-73.593889,195,SA,CO,CO-CES,"San Martin",0,,,VOA,,,,50,2009-10-20T10:45:39+00:00
40823,SK-176,small_airport,"Los Monjes Airport",7.992778,-73.675,150,SA,CO,CO-CES,"San Martin",0,,,SNT,,,,50,2009-10-20T10:45:38+00:00
40648,SK-333,small_airport,"Puerto Alvira Airport",2.902778,-71.749444,532,SA,CO,CO-MET,"San Martín",0,,,PCJ,,,,50,2009-10-20T10:45:52+00:00
40669,SK-325,small_airport,"Mapiripan Airport",2.8958,-72.1397,730,SA,CO,CO-MET,"San Martin",0,SKIR,,MAP,,,,50,2016-01-22T16:47:01+00:00
40747,SK-300,small_airport,"La Ceiba Airport",3.688889,-73.2325,712,SA,CO,CO-MET,"San Martin",0,,,SIN,,,,50,2009-10-20T10:45:48+00:00
40782,SK-326,small_airport,"Matupa Airport",3.595278,-73.403611,939,SA,CO,CO-MET,"San Martin",0,,,MTU,,,,50,2009-10-20T10:45:51+00:00
40783,SK-305,small_airport,"La Loma Airport",3.674167,-73.403889,832,SA,CO,CO-MET,"San Martin",0,,,SRT,,,,50,2009-10-20T10:45:49+00:00
40827,SK-343,small_airport,"San Martin Airport",3.716667,-73.7,1422,SA,CO,CO-MET,"San Martin",0,,,SNR,,,,50,2009-10-20T10:45:53+00:00
40941,SK-394,small_airport,"El Rincón De Mucura Airport",9.774167,-75.638056,18,SA,CO,CO-SUC,"San Onofre",0,,,SOR,,,,50,2009-10-20T10:45:56+00:00
40944,SK-395,small_airport,"Los Morros Airport",9.719455,-75.652563,3,SA,CO,CO-SUC,"San Onofre",0,,,LMR,,,,50,2009-10-20T10:45:56+00:00
40612,SK-351,small_airport,"Tibiri Airport",3.95,-71.133333,583,SA,CO,CO-MET,"San Pedro",0,,,TBI,,,,50,2009-10-20T10:45:53+00:00
40968,SK-460,small_airport,"La Macarena Airport",3.980556,-76.249167,3135,SA,CO,CO-VAC,"San Pedro",0,,,SDO,,,,50,2009-10-20T10:46:01+00:00
40969,SK-450,small_airport,"Chambimbal Airport",3.973056,-76.2775,3078,SA,CO,CO-VAC,"San Pedro",0,,,CHB,,,,50,2009-10-20T10:46:01+00:00
41040,SK-221,small_airport,"San Pedro De Jagua Airport",4.65,-73.333333,2460,SA,CO,CO-CUN,"San Pedro De Jagua",0,,,SJG,,,,50,2009-10-20T10:45:43+00:00
41072,SK-021,small_airport,"San Pedro Airport",8.28597,-76.380386,420,SA,CO,CO-ANT,"San Pedro de Urabá",0,,NPU,PDA,,,,50,2016-03-11T20:32:57+00:00
40786,SK-391,small_airport,"San Vicente Airport",6.891,-73.4295,1920,SA,CO,CO-SAN,"San Vicente De Chucurí",0,,,SVT,,,,50,2017-05-27T10:27:08+00:00
30667,SKYA,small_airport,"Yaguara Airport",1.54417,-73.9333,812,SA,CO,CO-CAQ,"San Vicente Del Caguán",0,SKYA,AYG,AYG,,,,50,2009-10-20T10:46:27+00:00
40838,SK-044,small_airport,"Ciudad Yari Airport",1.583333,-73.866667,950,SA,CO,CO-CAQ,"San Vicente Del Caguán",0,,,CDY,,,,50,2009-10-20T10:45:30+00:00
41070,SK-207,small_airport,"Santa Catalina Airport",8.5,-76.175,280,SA,CO,CO-COR,"Santa Catalina",0,,,SCA,,,,50,2009-10-20T10:45:41+00:00
41077,SK-196,small_airport,"Santa Maria Airport",8.166667,-77.05,23,SA,CO,CO-CHO,"Santa María",0,,,SMC,,,,50,2009-10-20T10:45:40+00:00
40829,SK-265,small_airport,"La Diva Airport",11.245278,-73.716667,27,SA,CO,CO-MAG,"Santa Marta",0,,,SNM,,,,50,2009-10-20T10:45:46+00:00
40557,SK-512,small_airport,"Centro Adm/Tivo Airport",5.316667,-67.9,274,SA,CO,CO-VID,"Santa Rita",0,,,CAO,,,,50,2009-10-20T10:46:05+00:00
40939,SK-023,small_airport,"Santa Rita, Ituango Airport",7.333333,-75.6,6406,SA,CO,CO-ANT,"Santa Rita, Ituango",0,,,STR,,,,50,2009-10-20T10:45:28+00:00
40846,SK-038,small_airport,"Santa Rosa Del Sud Airport",7.991389,-74.036111,1359,SA,CO,CO-BOL,"Santa Rosa Del Sud",0,,,SRD,,,,50,2009-10-20T10:45:30+00:00
40600,SK-528,small_airport,"Santa Rosalìa Airport",5.233333,-70.683333,377,SA,CO,CO-VID,"Santa Rosalìa",0,,,CAO,,,,50,2009-10-20T10:46:06+00:00
40604,SK-526,small_airport,"San Carlos-Planas Airport",4.033333,-70.833333,449,SA,CO,CO-VID,"Santa Rosalìa",0,,,SCS,,,,50,2009-10-20T10:46:06+00:00
40606,SK-513,small_airport,"Cumachagua Airport",4.016667,-70.883333,433,SA,CO,CO-VID,"Santa Rosalìa",0,,,CAV,,,,50,2009-10-20T10:46:05+00:00
40954,SK-017,small_airport,"Rancho Ae Airport",6.522222,-75.808056,1479,SA,CO,CO-ANT,"Santafe De Antioquía",0,,,RAN,,,,50,2009-10-20T10:45:28+00:00
40859,SK-260,small_airport,"El Edén Airport",9.519722,-74.339167,165,SA,CO,CO-MAG,Santana,0,,,STA,,,,50,2009-10-20T10:45:46+00:00
41061,SK-245,small_airport,"Santana Ramos Airport",2.216667,-75.25,6017,SA,CO,CO-HUI,"Santana Ramos",0,,SRO,SRO,,,,50,2015-06-07T02:46:41+00:00
32318,SKSA,small_airport,"Los Colonizadores Airport",6.951868,-71.857179,680,SA,CO,CO-ARA,Saravena,1,SKSA,RVE,SRV,,http://en.wikipedia.org/wiki/Los_Colonizadores_Airport,"El Eden Airport",50,2016-03-11T22:04:45+00:00
40844,SK-035,small_airport,"Millan Airport",7.928889,-73.967222,176,SA,CO,CO-BOL,Simiti,0,,,STI,,,,50,2009-10-20T10:45:30+00:00
6162,SKSO,small_airport,"Alberto Lleras Camargo Airport",5.67732,-72.9703,8155,SA,CO,CO-BOY,Sogamoso,0,SKSO,SOX,SOX,,,,50,2009-10-20T10:46:25+00:00
41062,SK-046,small_airport,"Solano Airport",0.702022,-75.2505,860,SA,CO,CO-CAQ,Solano,0,,SQF,SQF,,,,50,2015-05-29T02:13:50+00:00
41024,SK-348,small_airport,"Solita Airport",3.016667,-71.75,652,SA,CO,CO-MET,Solita,0,,SOH,SOH,,,,50,2015-05-28T00:57:18+00:00
40951,SK-024,small_airport,"Sopetran Airport",6.498056,-75.785278,1609,SA,CO,CO-ANT,Sopetran,0,,,SOP,,,,50,2009-10-20T10:45:28+00:00
40943,SK-043,small_airport,"Vegas Del Rio Airport",5.441667,-75.65,3762,SA,CO,CO-CAL,Supia,0,,,VDR,,,,50,2009-10-20T10:45:30+00:00
41041,SK53,small_airport,"Yaguarito Airport",3.88,-73.339996,836,SA,CO,CO-MET,Surimena,0,SK53,,SK53,,,,50,2009-10-20T10:46:06+00:00
40671,SK-129,small_airport,"Tablón De Tamara Airport",5.733333,-72.166667,1605,SA,CO,CO-CAS,"Tablón De Tamara",0,,,TTM,,,,50,2009-10-20T10:45:34+00:00
40566,SK-499,small_airport,"Taraira Airport",0.5675,-69.637222,492,SA,CO,CO-VAU,Taraira,0,,,TAR,,,,50,2009-10-20T10:46:04+00:00
40694,SK-092,small_airport,"La Envidia Airport",4.413333,-72.570556,550,SA,CO,CO-CAS,Tauramena,0,,,TRE,,,,50,2009-10-20T10:45:32+00:00
40696,SK-117,small_airport,"Providencia Airport",4.971389,-72.595833,751,SA,CO,CO-CAS,Tauramena,0,,,TNU,,,,50,2009-10-20T10:45:34+00:00
40698,SK-060,small_airport,"Cusiana Airport",4.973889,-72.636667,847,SA,CO,CO-CAS,Tauramena,0,,,CUS,,,,50,2009-10-20T10:45:30+00:00
40699,SK-090,small_airport,"La Concordia Airport",4.930833,-72.641389,791,SA,CO,CO-CAS,Tauramena,0,,,TRM,,,,50,2009-10-20T10:45:32+00:00
40701,SK-130,small_airport,"Tarqui Airport",4.755556,-72.699167,702,SA,CO,CO-CAS,Tauramena,0,,,TMA,,,,50,2009-10-20T10:45:35+00:00
41031,SK-131,small_airport,"Tauramena Airport",5.01281,-72.7424,1462,SA,CO,CO-CAS,Tauramena,0,SKTA,TAU,TAU,,,,50,2013-03-31T17:28:41+00:00
40925,SK-241,small_airport,"San Diego Airport",3.066667,-75.1875,1747,SA,CO,CO-HUI,Tello,0,,,TLO,,,,50,2009-10-20T10:45:44+00:00
40937,SK-247,small_airport,"Tesalia Airport",2.456389,-75.450278,5252,SA,CO,CO-HUI,Tesalia,0,,,TES,,,,50,2009-10-20T10:45:45+00:00
40948,SK-244,small_airport,"Santa Bárbara Airport",2.458333,-75.741944,2696,SA,CO,CO-HUI,Tesalia,0,,,TSI,,,,50,2009-10-20T10:45:44+00:00
6165,SKTB,small_airport,"Tibú Airport",8.63152,-72.7304,194,SA,CO,CO-NSA,Tibú,0,SKTB,TIB,TBU,,,,50,2012-11-22T08:25:18+00:00
40963,SK-199,small_airport,"Chapinero Airport",7.346944,-76.079722,2360,SA,CO,CO-COR,Tierralta,0,,,CHR,,,,50,2009-10-20T10:45:40+00:00
40967,SK-208,small_airport,"Urra Airport",8.005278,-76.2275,592,SA,CO,CO-COR,Tierralta,0,,,URT,,,,50,2009-10-20T10:45:41+00:00
41082,SK-142,small_airport,"Timbiqui Airport",2.7701,-77.6433,145,SA,CO,CO-CAU,Timbiqui,0,,,TBD,,,,50,2009-10-20T10:45:36+00:00
6166,SKTI,small_airport,"Tolemaida Air Base",4.2448,-74.649901,1617,SA,CO,CO-CUN,"Tolemaida - Nilo",0,SKTI,,TOL,,https://en.wikipedia.org/wiki/Tolemaida_Air_Base,,50,2018-03-14T16:09:07+00:00
32460,SKTL,small_airport,"Golfo de Morrosquillo Airport",9.50945,-75.5854,16,SA,CO,CO-SUC,Tolú,1,SKTL,TLU,TLU,,https://en.wikipedia.org/wiki/Golfo_de_Morrosquillo_Airport,,50,2016-01-22T11:49:13+00:00
32429,SKTD,small_airport,"Trinidad Airport",5.43278,-71.6625,649,SA,CO,CO-CAS,Trinidad,0,SKTD,TDA,TDA,,,,50,2009-10-20T10:46:25+00:00
40616,SK-103,small_airport,"Los Toros Airport",5.4275,-71.216389,447,SA,CO,CO-CAS,Trinidad,0,,,TRI,,,,50,2009-10-20T10:45:34+00:00
40619,SK-113,small_airport,"Palmarito Airport",5.332222,-71.234722,449,SA,CO,CO-CAS,Trinidad,0,,,TRD,,,,50,2009-10-20T10:45:34+00:00
40622,SK-104,small_airport,"Malabares Airport",5.468889,-71.369167,489,SA,CO,CO-CAS,Trinidad,0,,,MAL,,,,50,2009-10-20T10:45:34+00:00
40649,SK-075,small_airport,"Elf Trinidad Airport",5.504444,-71.770833,581,SA,CO,CO-CAS,Trinidad,0,,,TDI,,,,50,2009-10-20T10:45:32+00:00
41008,SK-361,small_airport,"Guinulero Airport",1.727778,-78.940278,23,SA,CO,CO-NAR,Tumaco,0,,,GUI,,,,50,2009-10-20T10:45:54+00:00
32475,SKTU,small_airport,"Gonzalo Mejía Airport",8.07453,-76.7415,6,SA,CO,CO-ANT,Turbo,0,SKTU,TRB,TRB,,,,50,2009-10-20T10:46:26+00:00
40989,SK-026,small_airport,"Villanueva Airport",7.971667,-76.629722,83,SA,CO,CO-ANT,Turbo,0,,,VVA,,,,50,2009-10-20T10:45:28+00:00
40993,SK-007,small_airport,"Indira Airport",7.947222,-76.6975,20,SA,CO,CO-ANT,Turbo,0,,,INA,,,,50,2009-10-20T10:45:28+00:00
40863,SK-212,small_airport,"La Esperanza Airport",5.756111,-74.513056,625,SA,CO,CO-CUN,"Uerto Salgar",0,,,PTS,,,,50,2009-10-20T10:45:41+00:00
41051,SK-354,small_airport,"Uribe Airport",3.216667,-74.4,2750,SA,CO,CO-MET,Uribe,0,,URI,URI,,,,50,2015-06-07T13:39:38+00:00
40620,SK-252,small_airport,"Puerto Estrella Airport",12.35,-71.3,10,SA,CO,CO-LAG,Uribia,0,,,URA,,,,50,2009-10-20T10:45:45+00:00
32550,SKUR,small_airport,"Urrao Airport",6.32883,-76.1425,6090,SA,CO,CO-ANT,Urrao,0,SKUR,URR,URR,,,,50,2009-10-20T10:46:26+00:00
40736,SK-151,small_airport,"Campo Alegre Airport",10.6475,-73.148056,677,SA,CO,CO-CES,Valledupa,0,,,VAP,,,,50,2009-10-20T10:45:36+00:00
40770,SK-182,small_airport,"Sala 77 Airport",10.355556,-73.333333,388,SA,CO,CO-CES,Valledupa,0,,,SSC,,,,50,2009-10-20T10:45:39+00:00
40776,SK-177,small_airport,"Madaci Airport",10.3275,-73.371944,385,SA,CO,CO-CES,Valledupa,0,,,VDP,,,,50,2009-10-20T10:45:38+00:00
40804,SK-187,small_airport,"Villa Rosa Airport",10.203889,-73.555556,316,SA,CO,CO-CES,Valledupa,0,,,VDL,,,,50,2009-10-20T10:45:39+00:00
40843,SK-379,small_airport,"Campo Capote Airport",6.75,-73.916667,310,SA,CO,CO-SAN,Velez,0,,,CAC,,,,50,2009-10-20T10:45:55+00:00
40878,SK-403,small_airport,"Boluca Airport",4.693611,-74.891944,988,SA,CO,CO-TOL,Venadillo,0,,,BNI,,,,50,2009-10-20T10:45:57+00:00
41078,SK-193,small_airport,"Gilgal Airport",8.333333,-77.083333,148,SA,CO,CO-CHO,"Villa Claret",0,,GGL,GGL,,,,50,2013-07-20T14:47:35+00:00
6174,SKVG,small_airport,"Villa Garzón Airport",0.978767,-76.6056,1248,SA,CO,CO-PUT,"Villa Garzón",0,SKVG,VGZ,VGZ,,http://en.wikipedia.org/wiki/Villa_Garz%C3%B3n_Airport,,50,2016-02-06T23:40:13+00:00
32320,SKVN,small_airport,"Villanueva Airport",4.62472,-72.9469,1002,SA,CO,CO-CAS,Villanueva,0,SKVN,,VLA,,,,50,2009-10-20T10:46:27+00:00
40704,SK-058,small_airport,"Colegial Airport",4.487222,-72.760278,585,SA,CO,CO-CAS,Villanueva,0,,,VNL,,,,50,2009-10-20T10:45:30+00:00
40705,SK-124,small_airport,"Santa Helena De Upia Airport",4.35,-72.760278,546,SA,CO,CO-CAS,Villanueva,0,,,SHL,,,,50,2009-10-20T10:45:34+00:00
40707,SK-127,small_airport,"Señorías Airport",4.387778,-72.7775,561,SA,CO,CO-CAS,Villanueva,0,,,VLE,,,,50,2009-10-20T10:45:34+00:00
40708,SK-128,small_airport,"Soceagro Airport",4.483889,-72.8225,612,SA,CO,CO-CAS,Villanueva,0,,,VNU,,,,50,2009-10-20T10:45:34+00:00
40710,SK-114,small_airport,"Palmas Del Casana Airport",4.601944,-72.829722,655,SA,CO,CO-CAS,Villanueva,0,,,VIL,,,,50,2009-10-20T10:45:34+00:00
40712,SK-112,small_airport,"Palmar De Oriente Airport",4.498611,-72.845833,652,SA,CO,CO-CAS,Villanueva,0,,,VLU,,,,50,2009-10-20T10:45:34+00:00
40715,SK-073,small_airport,"El Vigía Airport",4.562222,-72.9425,725,SA,CO,CO-CAS,Villanueva,0,,,EVC,,,,50,2009-10-20T10:45:32+00:00
40723,SK-254,small_airport,"Villanueva Airport",10.583333,-73.016667,667,SA,CO,CO-LAG,Villanueva,0,,,VLL,,,,50,2009-10-20T10:45:45+00:00
40737,SK-280,small_airport,"El Diamante Airport",3.893333,-73.176667,698,SA,CO,CO-MET,Villavicencio,0,,,VCC,,,,50,2009-10-20T10:45:47+00:00
40740,SK-342,small_airport,"San Luis De Airport",4.049167,-73.191111,682,SA,CO,CO-MET,Villavicencio,0,,,VVE,,,,50,2009-10-20T10:45:52+00:00
40743,SK-347,small_airport,"Santa Isabel Airport",3.988889,-73.209167,711,SA,CO,CO-MET,Villavicencio,0,,,VVU,,,,50,2009-10-20T10:45:53+00:00
40748,SK-330,small_airport,"Neiva York Airport",4.089722,-73.232778,726,SA,CO,CO-MET,Villavicencio,0,,,VVN,,,,50,2009-10-20T10:45:52+00:00
40761,SK-274,small_airport,"Canaima Airport",4.118056,-73.266944,761,SA,CO,CO-MET,Villavicencio,0,,,CMA,,,,50,2009-10-20T10:45:47+00:00
40767,SK-271,small_airport,"Andalucía Airport",3.988056,-73.299444,784,SA,CO,CO-MET,Villavicencio,0,,,VVM,,,,50,2009-10-20T10:45:46+00:00
40773,SK-279,small_airport,"El Convento Airport",4.026944,-73.355556,843,SA,CO,CO-MET,Villavicencio,0,,,VIC,,,,50,2009-10-20T10:45:47+00:00
40774,SK-303,small_airport,"La Esmeralda Airport",4.088333,-73.367778,924,SA,CO,CO-MET,Villavicencio,0,,,LEM,,,,50,2009-10-20T10:45:49+00:00
40779,SK-311,small_airport,"La Realidad Airport",3.999167,-73.376389,871,SA,CO,CO-MET,Villavicencio,0,,,VCI,,,,50,2009-10-20T10:45:50+00:00
40780,SK-301,small_airport,"La Colina Airport",4.064167,-73.383611,1019,SA,CO,CO-MET,Villavicencio,0,,,LAM,,,,50,2009-10-20T10:45:49+00:00
40785,SK-315,small_airport,"Las Brisas Airport",4.0625,-73.412222,1007,SA,CO,CO-MET,Villavicencio,0,,,VVD,,,,50,2009-10-20T10:45:51+00:00
40797,SK-350,small_airport,"Tapa Chicamocha Airport",4.416667,-73.4975,5658,SA,CO,CO-MET,Villavicencio,0,,,VVL,,,,50,2009-10-20T10:45:53+00:00
40923,SK-231,small_airport,"Berlín Airport",3.4025,-75.173611,1145,SA,CO,CO-HUI,Villavieja,0,,,BJA,,,,50,2009-10-20T10:45:43+00:00
40924,SK-246,small_airport,"Sinai Airport",3.332222,-75.186111,1214,SA,CO,CO-HUI,Villavieja,0,,,VVJ,,,,50,2009-10-20T10:45:45+00:00
40835,SK-355,small_airport,"Vista Hermosa Airport",3.146667,-73.771111,909,SA,CO,CO-MET,"Vista Hermosa",0,,,VIH,,,,50,2009-10-20T10:45:53+00:00
40938,SK-238,small_airport,"La Floresta Airport",2.629722,-75.576111,2090,SA,CO,CO-HUI,Yaguara,0,,,LFT,,,,50,2009-10-20T10:45:44+00:00
41029,SK-047,small_airport,"Yari Airport",-0.383333,-72.266667,569,SA,CO,CO-CAQ,Yari,0,,AYI,AYI,,,,50,2012-06-24T18:05:01+00:00
41018,SK-510,small_airport,"Yavarate Airport",1.116667,-70.75,649,SA,CO,CO-VAU,Yavarate,0,,,VAB,,,,50,2009-10-20T10:46:05+00:00
40672,SK-133,small_airport,"Trompillos Airport",5.129167,-72.180833,636,SA,CO,CO-CAS,Yopal,0,,,YOP,,,,50,2009-10-20T10:45:35+00:00
40674,SK-101,small_airport,"Los Cabros Airport",5.441944,-72.234444,730,SA,CO,CO-CAS,Yopal,0,,,YYP,,,,50,2009-10-20T10:45:34+00:00
40676,SK-050,small_airport,"Araguanen Airport",5.413056,-72.283056,784,SA,CO,CO-CAS,Yopal,0,,,ARG,,,,50,2009-10-20T10:45:30+00:00
40677,SK-078,small_airport,"Germania Airport",5.186111,-72.32,702,SA,CO,CO-CAS,Yopal,0,,,YPP,,,,50,2009-10-20T10:45:32+00:00
40713,SK-057,small_airport,"Ciénaga Airport",5.248056,-72.868611,5270,SA,CO,CO-CAS,Yopal,0,,,YPL,,,,50,2009-10-20T10:45:30+00:00
40872,SK-036,small_airport,"Monterrey Airport",9.736667,-74.829444,59,SA,CO,CO-BOL,Zambrano,0,,,MBO,,,,50,2009-10-20T10:45:30+00:00
40879,SK-034,small_airport,"La Vega Airport",9.856389,-74.895833,77,SA,CO,CO-BOL,Zambrano,0,,,LVB,,,,50,2009-10-20T10:45:30+00:00
41039,SK-392,small_airport,"Zapatoca Airport",6.816667,-73.283333,6377,SA,CO,CO-SAN,Zapatoca,0,,AZT,AZT,,,,50,2012-06-19T01:08:58+00:00
40964,SK-465,small_airport,"Rio Paila Airport",4.317222,-76.093611,3043,SA,CO,CO-VAC,Zarzal,0,,,OPA,,,,50,2009-10-20T10:46:01+00:00
41069,SK-467,small_airport,"San Marino Airport",4.37695,-76.0664,3044,SA,CO,CO-VAC,Zarzal,0,,,ZAR,,,,50,2009-10-20T10:46:01+00:00
316785,CO-0052,small_airport,"Loreto North Airstrip",-3.524,-70.328,505,SA,CO,CO-AMA,,0,,,,,,,0,2016-01-23T10:40:42+00:00
316786,CO-0053,small_airport,"Nugent Airstrip",-3.863,-70.04,415,SA,CO,CO-AMA,,0,,,,,,,0,2016-01-23T10:48:08+00:00
43979,CO-0001,small_airport,"Airport Punta Espada",12.075256,-71.125725,,SA,CO,CO-LAG,,0,,,,,,,0,2009-10-20T10:45:27+00:00
45100,SKGA,small_airport,"La Gaviota Airport",4.549722,-70.925,,SA,CO,CO-VID,,0,SKGA,LGT,,,,,0,2015-02-21T02:10:35+00:00
317277,CO-0056,small_airport,"Patetal Airport",8.231858,-75.058043,145,SA,CO,CO-COR,Ayapel,0,,,,,,,0,2016-03-13T08:05:27+00:00
45099,SKCP,small_airport,"Cupica Airport",6.691944,-77.477222,,SA,CO,CO-CHO,"Bahía Solano",0,SKCP,,,,,,0,2009-10-20T10:46:09+00:00
45103,CO-0002,heliport,"Banco De La Republica Heliport",1.672222,-78.142222,,SA,CO,CO-NAR,Barbacoas,0,,,BAS,,,,0,2012-06-09T11:18:04+00:00
45149,CO-0048,heliport,"Ecopetrol Heliport",7.0775,-73.865,,SA,CO,CO-SAN,Barrancabermeja,0,,,ECO,,,,0,2012-06-09T12:26:23+00:00
45130,CO-0029,heliport,"Banco De La Republica Heliport",10.989444,-74.789167,,SA,CO,CO-ATL,Barranquilla,0,,,BAE,,,,0,2012-06-09T11:03:10+00:00
45133,CO-0032,heliport,"Hospital De Engativa Heliport",4.710556,-74.11,,SA,CO,CO-CUN,Bogota,0,,,HOS,,,,0,2012-06-08T20:09:32+00:00
45134,CO-0033,heliport,"Camara De Comercio De Bogota Heliport",4.657222,-74.106944,,SA,CO,CO-CUN,Bogotá,0,,,1CA,,,,0,2012-06-08T19:55:55+00:00
45135,CO-0034,heliport,"Fiscalia General De La Nacion Heliport",4.641944,-74.103333,,SA,CO,CO-CUN,Bogota,0,,,FIS,,,,0,2012-06-08T19:48:21+00:00
45136,CO-0035,heliport,"Caja De Vivienda Militar Heliport",4.646389,-74.0975,,SA,CO,CO-CUN,Bogotá,0,,,,,,,0,2010-08-30T12:31:04+00:00
45137,CO-0036,heliport,"Beneficiencia De Cundinamarca Heliport",4.638611,-74.096667,,SA,CO,CO-CUN,Bogotá,0,,,,,,,0,2010-08-30T12:30:52+00:00
45138,CO-0037,heliport,"Centro Internacional Tequendama Heliport",4.617222,-74.088333,,SA,CO,CO-CUN,Bogotá,0,,,CEN,,,,0,2012-06-08T19:43:52+00:00
45139,CO-0038,heliport,"Banco De Occidente Heliport",4.617778,-74.087222,,SA,CO,CO-CUN,Bogotá,0,,,BAI,,,,0,2012-06-08T19:38:14+00:00
45140,CO-0039,heliport,"Proma Heliport",4.728056,-74.084444,,SA,CO,CO-CUN,Bogota,0,,PRM,,,,,0,2009-10-20T10:47:48+00:00
45142,CO-0041,heliport,"Parque Central Bavaria Heliport",4.620278,-74.073333,,SA,CO,CO-CUN,Bogota,0,,,IPA,,,,0,2012-06-08T19:33:10+00:00
45143,CO-0042,heliport,"Clinica Shaio Heliport",4.700833,-74.0675,,SA,CO,CO-CUN,Bogotá,0,,,CLI,,,,0,2012-06-08T20:05:16+00:00
45144,CO-0043,heliport,"Centro Comercial Andino Heliport",4.669167,-74.056111,,SA,CO,CO-CUN,Bogotá,0,,,CER,,,,0,2012-06-09T11:53:57+00:00
45145,CO-0044,heliport,"I.N.G. Barings Heliport",4.660556,-74.054444,,SA,CO,CO-CUN,Bogota,0,,,ING,,,,0,2012-06-09T23:18:42+00:00
45146,CO-0045,heliport,"Bavaria Heliport",4.677778,-74.047222,,SA,CO,CO-CUN,Bogotá,0,,,BAV,,,,0,2012-06-08T20:00:04+00:00
45147,CO-0046,heliport,"Apotema Heliport",4.693333,-74.039444,,SA,CO,CO-CUN,Bogotá,0,,,APT,,,,0,2012-06-08T23:41:16+00:00
45148,CO-0047,heliport,"Helitaxi Heliport",4.625833,-73.875556,,SA,CO,CO-CUN,Bogota,0,,,,,,,0,2010-08-29T23:22:06+00:00
45151,CO-0050,heliport,"Estacion De Bomberos Heliport",7.113611,-73.129167,,SA,CO,CO-SAN,Bucaramanga,0,,,EST,,,,0,2012-06-09T12:31:45+00:00
45152,CO-0051,heliport,"Fundacion Oftalmologica De Santander Heliport",7.074722,-73.115278,,SA,CO,CO-SAN,Bucaramanga,0,,,FUA,,,,0,2012-06-09T22:52:14+00:00
45113,CO-0012,heliport,"Cofa Buga Heliport",3.895556,-76.305833,,SA,CO,CO-VAC,Buga,0,,,COB,,,,0,2012-06-09T11:59:52+00:00
45107,CO-0006,heliport,"Centro Administrativo Municipal Heliport",3.456389,-76.536944,,SA,CO,CO-VAC,Cali,0,,,CEA,,,,0,2012-06-09T11:50:17+00:00
45108,CO-0007,heliport,"Banco De Occidente Heliport",3.451111,-76.535556,,SA,CO,CO-VAC,Cali,0,,,BAT,,,,0,2012-06-09T11:27:37+00:00
45109,CO-0008,heliport,"Banco De La Republica Heliport",3.634167,-76.408889,,SA,CO,CO-VAC,Cali,0,,,BNE,,,,0,2012-06-09T11:22:58+00:00
45111,CO-0010,heliport,"El Pailon Heliport",3.410556,-76.350556,,SA,CO,CO-VAC,Candelaria,0,,,,,,,0,2010-08-30T07:49:14+00:00
45117,CO-0016,heliport,"Baru Heliport",10.210278,-75.616667,,SA,CO,CO-BOL,Cartagena,0,,,BAU,,,,0,2012-06-09T11:35:27+00:00
45128,CO-0027,heliport,"Banco De La Republica Heliport",7.989722,-75.197778,,SA,CO,CO-ANT,Caucasia,0,,,1BD,,,,0,2012-06-09T00:36:33+00:00
45131,CO-0030,heliport,"Drummond Heliport",11.059722,-74.211111,,SA,CO,CO-MAG,Cienaga,0,,,DRU,,,,0,2012-06-09T12:22:59+00:00
45106,CO-0005,heliport,"Banco De La Republica Heliport",5.1,-76.649444,,SA,CO,CO-CHO,Condoto,0,,,1BA,,,,0,2012-06-09T11:09:40+00:00
45132,CO-0031,heliport,"Helicentro Heliport",4.746389,-74.146667,,SA,CO,CO-CUN,Cota,0,,,HEI,,,,0,2012-06-09T22:57:43+00:00
45129,CO-0028,heliport,"Banco De La Republica Heliport",4.299444,-74.810833,,SA,CO,CO-CUN,Girardot,0,,,BAO,,,,0,2012-06-09T11:12:51+00:00
45150,CO-0049,heliport,"Isa Giron Heliport",7.058333,-73.129722,,SA,CO,CO-SAN,Giron,0,,,,,,,0,2018-05-05T12:00:04+00:00
45127,CO-0026,heliport,"Beneficencia Del Tolima Heliport",4.443889,-75.241667,,SA,CO,CO-TOL,Ibagué,0,,,BEE,,,,0,2012-06-09T11:41:31+00:00
308661,LMC,small_airport,"La Macarena Airport",2.17565,-73.78674,790,SA,CO,CO-MET,"La Macarena",1,,LMC,,,http://en.wikipedia.org/wiki/La_Macarena_Airport,"Aeropuerto Javier Noreña Valencia",0,2013-05-14T02:33:39+00:00
45125,CO-0024,heliport,"Banco Cafetero Heliport",5.070278,-75.528889,,SA,CO,CO-CAL,Manizales,0,,,BAA,,,,0,2012-06-08T23:48:24+00:00
45126,CO-0025,heliport,"Hospital De Caldas Heliport",5.0625,-75.500833,,SA,CO,CO-CAL,Manizales,0,,,HOA,,,,0,2012-06-09T23:11:42+00:00
45118,CO-0017,heliport,"Fundicion Gutierrez Heliport",6.25,-75.578611,,SA,CO,CO-ANT,Medellin,0,,,FUD,,,,0,2012-06-09T00:04:11+00:00
45119,CO-0018,heliport,"Fundicion Escobar Heliport",6.246944,-75.576389,,SA,CO,CO-ANT,Medellin,0,,,FUI,,,,0,2012-06-09T00:06:40+00:00
45120,CO-0019,heliport,"Palacio Municipal Heliport",6.591389,-75.576389,,SA,CO,CO-ANT,Medellin,0,,,PAL,,,,0,2012-06-09T00:28:06+00:00
45121,CO-0020,heliport,"Banco De La Republica Heliport",6.252778,-75.573889,,SA,CO,CO-ANT,Medellín,0,,,BAC,,,,0,2012-06-08T23:55:02+00:00
45122,CO-0021,heliport,"Hospital General De Medellin Heliport",6.235,-75.572778,,SA,CO,CO-ANT,Medellin,0,,,HOY,,,,0,2012-06-09T00:13:02+00:00
45123,CO-0022,heliport,"Isa Medellin Heliport",6.200556,-75.572222,,SA,CO,CO-ANT,Medellin,0,,,ISA,,,,0,2012-06-09T00:21:43+00:00
45124,CO-0023,heliport,"Banco Popular Heliport",6.252222,-75.570833,,SA,CO,CO-ANT,Medellín,0,,,BAP,,,,0,2012-06-09T00:00:41+00:00
45141,CO-0040,heliport,"Caja De Vivienda Militar Heliport",4.646389,-74.083333,,SA,CO,CO-ANT,Medellín,0,,,CAJ,,,,0,2012-06-08T19:52:53+00:00
317268,CO-0055,small_airport,"Mondo Nuevo Airport",8.3909,-75.7911,108,SA,CO,CO-COR,"Mondo Nuevo",0,,,,,,,0,2016-03-12T11:46:38+00:00
45116,CO-0015,heliport,"Cofa Montenegro Heliport",4.508333,-75.786389,,SA,CO,CO-QUI,Montenegro,0,,,1CO,,,,0,2012-06-09T12:02:53+00:00
45110,CO-0009,heliport,"Isa Palmira Heliport",3.537778,-76.401111,,SA,CO,CO-VAC,Palmira,0,,,,,,,0,2010-08-30T07:47:36+00:00
45112,CO-0011,heliport,"Helivalle Heliport",3.558889,-76.306389,,SA,CO,CO-VAC,Palmira,0,,,HEA,,,,0,2012-06-09T23:00:50+00:00
45114,CO-0013,heliport,"Cofa-Palmira Heliport",3.514722,-76.305556,,SA,CO,CO-VAC,Palmira,0,,,COA,,,,0,2012-06-09T12:18:03+00:00
45104,CO-0003,heliport,"Banco De La Republica Heliport",1.196944,-77.28,,SA,CO,CO-NAR,Pasto,0,,,BNC,,,,0,2012-06-09T11:20:37+00:00
45105,CO-0004,heliport,"Banco De La Republica Heliport",5.6975,-76.665,,SA,CO,CO-CHO,Quibdo,0,,,BND,,,,0,2012-06-09T11:07:51+00:00
