id,ident,type,name,latitude_deg,longitude_deg,elevation_ft,continent,iso_country,iso_region,municipality,scheduled_service,gps_code,iata_code,local_code,home_link,wikipedia_link,keywords,score,last_updated
"#meta +id","#meta +code","#loc +airport +type","#loc +airport +name","#geo +lat","#geo +lon","#geo +elevation +ft","#region +continent +code","#country +code +iso2","#adm1 +code +iso","#loc +municipality +name","#status +scheduled","#loc +airport +code +gps","#loc +airport +code +iata","#loc +airport +code +local","#meta +url +airport","#meta +url +wikipedia","#meta +keywords","#meta +score","#date +updated"
3206,HKJK,large_airport,"Jomo Kenyatta International Airport",-1.31923997402,36.9277992249,5330,AF,KE,KE-110,Nairobi,1,HKJK,NBO,,http://www.kenyaairports.com/jkia/IndexJkia.php,http://en.wikipedia.org/wiki/Jomo_Kenyatta_International_Airport,"Jkia Airport, Embakasi Airport, Nairobi International Airport",1200,2014-03-14T11:29:28+00:00
3213,HKMO,large_airport,"Mombasa Moi International Airport",-4.034830093383789,39.594200134277344,200,AF,KE,KE-300,Mombasa,1,HKMO,MBA,,http://www.kenyaairports.co.ke/kaa/airports/moi/,http://en.wikipedia.org/wiki/Moi_International_Airport,,1050,2009-02-08T10:30:52+00:00
3215,HKNW,medium_airport,"Nairobi Wilson Airport",-1.321720004081726,36.81480026245117,5536,AF,KE,KE-110,Nairobi,1,HKNW,WIL,,http://www.kenyaairports.co.ke/kaa/airports/wilson/,http://en.wikipedia.org/wiki/Wilson_Airport,WLN,875,2009-02-08T10:36:51+00:00
3205,HKEL,medium_airport,"Eldoret International Airport",0.4044579863548279,35.23889923095703,6941,AF,KE,KE-700,Eldoret,1,HKEL,EDL,,http://www.kenyaairports.co.ke/kaa/airports/eldoret/,http://en.wikipedia.org/wiki/Eldoret_International_Airport,HKED,575,2009-02-08T10:33:45+00:00
3210,HKLK,medium_airport,"Lokichoggio Airport",4.20412015914917,34.348201751708984,2074,AF,KE,KE-700,Lokichoggio,1,HKLK,LKG,,http://www.kenyaairports.co.ke/kaa/airports/loki/,http://en.wikipedia.org/wiki/Lokichogio_Airport,,450,2009-02-08T10:21:56+00:00
31988,HKML,medium_airport,"Malindi Airport",-3.2293100357055664,40.10169982910156,80,AF,KE,KE-300,Malindi,1,HKML,MYD,,http://www.kenyaairports.co.ke/kaa/airports/malindi/,http://en.wikipedia.org/wiki/Malindi_Airport,,450,2009-02-08T10:20:46+00:00
31594,HKMS,medium_airport,"Mara Serena Lodge Airstrip",-1.406111,35.008057,5200,AF,KE,KE-700,"Masai Mara",1,HKMS,MRE,,,http://en.wikipedia.org/wiki/Mara_Serena_Airport,6100,450,2016-05-24T21:16:33+00:00
3208,HKKI,medium_airport,"Kisumu Airport",-0.0861390009522438,34.72890090942383,3734,AF,KE,KE-600,Kisumu,1,HKKI,KIS,,http://www.kenyaairports.co.ke/kaa/airports/kisumu/,http://en.wikipedia.org/wiki/Kisumu_Airport,,800,2009-02-08T10:38:02+00:00
3212,HKLU,medium_airport,"Manda Airstrip",-2.252419948577881,40.91310119628906,20,AF,KE,KE-300,Lamu,1,HKLU,LAU,,http://www.kenyaairports.co.ke/kaa/airports/airstrips/manda_intro.html,http://en.wikipedia.org/wiki/Manda_Airport,,800,2009-02-08T10:46:00+00:00
3217,HKWJ,medium_airport,"Wajir Airport",1.73324,40.091599,770,AF,KE,KE-500,Wajir,1,HKWJ,WJR,,,https://en.wikipedia.org/wiki/Wajir_Airport,,550,2018-09-16T03:49:59+00:00
32066,HKNY,medium_airport,"Nanyuki Airport",-0.06239889934659004,37.04100799560547,6250,AF,KE,KE-200,Nanyuki,1,HKNY,NYK,,,http://en.wikipedia.org/wiki/Nanyuki_Airport,,450,2009-02-08T10:29:25+00:00
42595,KE-6112,small_airport,"Angama Airport",-1.27156,34.955513,6180,AF,KE,KE-700,"Maasai Mara",0,HKOM,ANA,,,,"Olkurruk Mara",50,2018-03-18T14:57:36+00:00
31596,HKUK,small_airport,"Ukunda Airstrip",-4.29333,39.571098,98,AF,KE,KE-300,Ukunda,0,HKUK,UKA,,http://www.kenyaairports.co.ke/kaa/airports/airstrips/ukunda_intro.html,https://en.wikipedia.org/wiki/Ukunda_Airport,"HKKA,6643",50,2018-05-09T06:44:41+00:00
318718,KE-0115,small_airport,"Funzi Island Airport",-4.573672,39.447079,,AF,KE,KE-300,"Funzi Island",0,,,,,,,0,2016-06-15T07:10:48+00:00
3211,HKLO,medium_airport,"Lodwar Airport",3.1219699382781982,35.608699798583984,1715,AF,KE,KE-700,Lodwar,0,HKLO,LOK,,,,,250,2008-12-05T17:18:00+00:00
42636,KE-6957,small_airport,"Aruba Airport",-3.3333330154418945,38.766666412353516,1300,AF,KE,KE-300,Aruba,0,,,,,,,50,2008-12-05T17:20:22+00:00
42708,KE-0065,small_airport,"Crocodile Camp Airport",-3.0691111087799072,39.234222412109375,500,AF,KE,KE-300,"Crocodile Camp",0,,,,,,,50,2008-12-05T17:21:38+00:00
42633,KE-6937,small_airport,"Lokichar Airport",2.3833329677581787,35.650001525878906,2440,AF,KE,KE-700,Lokichar,0,,,,,,,50,2008-12-05T17:20:18+00:00
31590,HKLG,small_airport,"Lokitaung Airport",4.319205,35.688641,1805,AF,KE,KE-700,Lokitaung,0,HKLG,,,,https://en.wikipedia.org/wiki/Lokitaung_Airport,,50,2016-06-15T09:11:18+00:00
42649,KE-0006,closed,"[Duplicate] Intrepid Mara Airport",-1.408778,35.109749,5000,AF,KE,KE-700,"Masai Mara National Park",0,,,,,,,50,2016-06-16T04:39:57+00:00
42677,KE-0034,small_airport,"Orly (Olooitikosh) Airport",-1.581194,36.812832,5600,AF,KE,KE-700,"Orly (Olooitikosh)",0,HKIK,,ORLY,,,,50,2017-11-29T21:31:14+00:00
28481,HKAM,medium_airport,"Amboseli Airport",-2.645050048828125,37.25310134887695,3755,AF,KE,KE-700,"Amboseli National Park",1,HKAM,ASV,,,http://en.wikipedia.org/wiki/Amboseli_Airport,"Maasai Amboseli Game Reserve",450,2009-02-08T10:24:17+00:00
42550,KWY,medium_airport,"Kiwayu Airport",-1.9605599641799927,41.29750061035156,21,AF,KE,KE-300,Kiwayu,1,,KWY,,,http://en.wikipedia.org/wiki/Kiwayu_Airport,"Mkononi Airport",350,2009-02-08T10:25:01+00:00
3209,HKKT,medium_airport,"Kitale Airport",0.9719889760017395,34.95859909057617,6070,AF,KE,KE-700,Kitale,0,HKKT,KTL,,,,,250,2008-12-05T17:17:56+00:00
32500,HKSB,small_airport,"Buffalo Spring",0.530583,37.534195,3295,AF,KE,KE-700,Samburu,0,HKSB,UAS,,,https://en.wikipedia.org/wiki/Samburu_Airport,"Samburu Airport",150,2018-05-09T06:40:33+00:00
28482,BMQ,small_airport,"Bamburi Airport",-3.98191,39.730768,52,AF,KE,KE-300,,1,HKBM,BMQ,,,http://en.wikipedia.org/wiki/Bamburi_Airport,,50,2016-06-01T06:34:26+00:00
42552,KE-6028,small_airport,"Kulalu Ranch Airport",-3.083333,39.416668,500,AF,KE,KE-300,,0,HKUR,,,,,,50,2018-03-23T21:10:24+00:00
42710,KE-0067,small_airport,"Kore Galana Ranch Airport",-2.733333110809326,39.53333282470703,500,AF,KE,KE-300,,0,,,,,,,50,2008-12-05T17:21:40+00:00
42549,KE-6025,small_airport,"Kisima Farm Airport",0.04727799817919731,37.4341926574707,7800,AF,KE,KE-400,,0,,,,,,,50,2008-12-05T17:18:51+00:00
42686,KE-0043,small_airport,"Hall Strip Airport",2.930361032485962,37.067527770996094,6000,AF,KE,KE-400,,0,,,,,,,50,2008-12-05T17:21:15+00:00
42688,KE-0045,small_airport,"Ibis Farm Airport",0.04727799817919731,37.20083236694336,7000,AF,KE,KE-400,,0,,,,,,,50,2008-12-05T17:21:17+00:00
42689,KE-0046,small_airport,"Oldonyo Farm Airport",0.09727799892425537,37.30086135864258,7800,AF,KE,KE-400,,0,,,,,,,50,2008-12-05T17:21:18+00:00
42583,KE-6076,small_airport,"Segera Ranch Airport",0.1821729987859726,36.911842346191406,5700,AF,KE,KE-700,,0,,,,,,,50,2008-12-05T17:19:26+00:00
42599,KE-6151,small_airport,"Solio Ranch Airport",-0.24516700208187103,36.8848876953125,6300,AF,KE,KE-700,,0,,,,,,,50,2008-12-05T17:19:42+00:00
42603,KE-6158,small_airport,"Oljogi Ranch Airport",0.26394400000572205,36.950862884521484,5640,AF,KE,KE-700,,0,,,,,,,50,2008-12-05T17:19:46+00:00
42608,KE-6320,small_airport,"Laikipia Ranch Airport",0.5833330154418945,36.43333435058594,6100,AF,KE,KE-700,,0,,,,,,,50,2008-12-05T17:19:53+00:00
42620,KE-6873,small_airport,"George Smith Farm Airport",0.6166669726371765,35.29999923706055,6880,AF,KE,KE-700,,0,,,,,,,50,2008-12-05T17:20:05+00:00
42679,KE-0036,small_airport,"Muridjo Ranch Airport",0.6472219824790955,36.850860595703125,5800,AF,KE,KE-700,,0,,,,,,,50,2008-12-05T17:21:07+00:00
42682,KE-0039,small_airport,"El Karama Airport",0.19724999368190765,36.91749954223633,5700,AF,KE,KE-700,,0,,,,,,,50,2008-12-05T17:21:11+00:00
42685,KE-0042,small_airport,"Hall Hall Airport",0.9333329796791077,37.06666564941406,6000,AF,KE,KE-700,,0,,,,,,,50,2008-12-05T17:21:14+00:00
42541,KE-6012,small_airport,"Arroket Airport",-0.623426,35.065867,5955,AF,KE,KE-700,Arroket,0,HKAR,,,,,,50,2018-03-25T15:52:55+00:00
42542,KE-6013,small_airport,"Balesa Airport",3.646972,37.350861,2000,AF,KE,KE-400,Balesa,0,HKBL,,,,,,50,2018-03-21T23:40:31+00:00
42619,KE-6656,small_airport,"Banisa Airport",3.8943190574645996,40.32099151611328,2998,AF,KE,KE-500,Banisa,0,,,,,,,50,2008-12-05T17:20:04+00:00
42626,KE-6890,small_airport,"Baragoi Airport",1.7814079523086548,36.801368713378906,4202,AF,KE,KE-700,Baragoi,0,,,,,,,50,2008-12-05T17:20:11+00:00
42577,KE-6067,small_airport,"Barina Airport",-0.13600000739097595,36.01747131347656,5600,AF,KE,KE-700,Barina,0,,,,,,,50,2008-12-05T17:19:20+00:00
42628,KE-6894,small_airport,"Borana Airport",0.23058299720287323,37.2841682434082,6100,AF,KE,KE-700,Borana,0,,,,,,,50,2008-12-05T17:20:13+00:00
42531,HKBU,small_airport,"Bungoma Airport",0.5762079954147339,34.55345153808594,4726,AF,KE,KE-900,Bungoma,0,,,,,,,50,2008-12-05T17:17:28+00:00
31579,HKBR,small_airport,"Bura East Airport",-1.100000023841858,39.95000076293945,345,AF,KE,KE-300,Bura,0,HKBR,,,,,,50,2008-12-05T17:17:27+00:00
42530,HKBA,small_airport,"Busia Airport",0.4570850133895874,34.130279541015625,3989,AF,KE,KE-900,Busia,0,,,,,,,50,2008-12-05T17:17:25+00:00
42627,KE-6893,small_airport,"Changoi Tea Estate Airport",-0.476943999529,35.2422218323,6100,AF,KE,KE-700,"Changoi Tea Estate",0,,,,,,,50,2012-07-26T11:51:52+00:00
42650,KE-0007,small_airport,"Chepgoiven Airport",-0.38600000739097595,35.334110260009766,6955,AF,KE,KE-700,Chepgoiven,0,,,,,,,50,2008-12-05T17:20:38+00:00
42663,KE-0020,small_airport,"Congrieve Airfield",-0.483944,36.124359,5800,AF,KE,KE-700,Congrieve,0,HKCG,,CONGRIE,,,,50,2017-06-02T15:55:31+00:00
42590,KE-6088,small_airport,"Cottar's Camp Airport",-1.4952269792556763,35.41211700439453,5350,AF,KE,KE-700,"Cottar's Camp",0,,,,,,,50,2008-12-05T17:19:33+00:00
42554,KE-6033,small_airport,"Hagadera Airport",0.12532299757003784,40.28998565673828,360,AF,KE,KE-500,Dadaab,0,,,,,,,50,2008-12-05T17:18:56+00:00
42572,KE-6058,small_airport,"Didima Bule Airport",-2.3691670894622803,39.617584228515625,500,AF,KE,KE-300,"Didima Bule",0,,,,,,,50,2008-12-05T17:19:14+00:00
31581,HKEW,small_airport,"El Wak Airport",2.812043,40.932484,1295,AF,KE,KE-500,"El Wak",0,HKEW,,,,,6047,50,2018-11-05T02:13:20+00:00
42532,HKED,small_airport,"Eldoret Boma Airport",0.536926,35.280518,7050,AF,KE,KE-700,Eldoret,0,,,,,,,50,2016-06-15T06:37:47+00:00
28480,HKES,small_airport,"Eliye Springs Airport",3.216670036315918,35.96670150756836,1395,AF,KE,KE-700,"Eliye Springs",0,HKES,EYS,,,,"Ille Springs",50,2008-12-05T17:17:32+00:00
42538,HKSA,small_airport,"Embakasi Airport",-1.2982189655303955,36.91554641723633,5357,AF,KE,KE-110,Embakasi,0,,,,,,,50,2008-12-05T17:18:31+00:00
42574,KE-6062,small_airport,"Embori Farm Airport",0.07766,37.34969,8666,AF,KE,KE-400,"Embori Farm",0,,,,,,,50,2015-01-23T14:29:49+00:00
31580,HKEM,small_airport,"Embu Airport",-0.57327,37.49726,4150,AF,KE,KE-400,Embu,0,HKEM,,,,,,50,2016-06-28T15:06:50+00:00
42699,KE-0056,small_airport,"Finch Hattons Airport",-2.94596791267395,37.91468811035156,2644,AF,KE,KE-300,"Finch Hattons",0,,,,,,,50,2008-12-05T17:21:29+00:00
42567,KE-6050,small_airport,"Gaitu Airport",-0.05272199958562851,37.734195709228516,3805,AF,KE,KE-400,Gaitu,0,,,,,,,50,2008-12-05T17:19:09+00:00
31582,HKGT,small_airport,"Garba Tula Airport",0.533333,38.516667,2000,AF,KE,KE-400,"Garba Tula",0,HKGT,,,,,,50,2017-06-24T13:13:44+00:00
31514,HKGA,small_airport,"Garissa Airport",-0.4635080099105835,39.64830017089844,475,AF,KE,KE-500,Garissa,0,HKGA,GAS,,,,,50,2008-12-05T17:17:38+00:00
42714,KE-0071,small_airport,"Garsen Airport",-2.2680559158325195,40.09377670288086,16,AF,KE,KE-300,Garsen,0,,,,,,,50,2008-12-05T17:21:45+00:00
42588,KE-6084,small_airport,"Green Park Airport",-0.6696670055389404,36.310279846191406,6791,AF,KE,KE-700,"Green Park",0,,,,,,,50,2008-12-05T17:19:31+00:00
42697,KE-0054,small_airport,"Harris Hills Airport",3.4166669845581055,37.766666412353516,4300,AF,KE,KE-400,"Harris Hills",0,,,,,,,50,2008-12-05T17:21:26+00:00
42545,KE-6019,small_airport,"Head Office Delamere Estates Airport",-0.467954,36.191218,6500,AF,KE,KE-700,"Head Office Delamere Estates",0,,,,,,,50,2016-06-15T06:57:33+00:00
31611,HKHO,small_airport,"Hola Airport",-1.5219999551773071,40.00400161743164,195,AF,KE,KE-300,Hola,0,HKHO,HOA,,,,,50,2008-12-05T17:17:44+00:00
31583,HKHB,small_airport,"Homa Bay Airport",-0.6000000238418579,34.46699905395508,4280,AF,KE,KE-600,"Homa Bay",0,HKHB,,,,,,50,2008-12-05T17:17:42+00:00
42635,KE-6951,small_airport,"Hulugho Airport",-1.135972023010254,41.05097198486328,490,AF,KE,KE-500,Hulugho,0,,,,,,,50,2008-12-05T17:20:21+00:00
42695,KE-0052,small_airport,"Il Ngwesi Airport",0.19724999368190765,37.467529296875,5600,AF,KE,KE-400,"Il Ngwesi",0,,,,,,,50,2008-12-05T17:21:24+00:00
42580,KE-6072,small_airport,"Ilkek Airport",-0.6026390194892883,36.36747360229492,6350,AF,KE,KE-700,Ilkek,0,,,,,,,50,2008-12-05T17:19:23+00:00
42621,KE-6874,small_airport,"Impala Farm Airport",0.3666670024394989,36.91666793823242,5500,AF,KE,KE-700,"Impala Farm",0,,,,,,,50,2008-12-05T17:20:06+00:00
31584,HKIS,small_airport,"Isiolo Airport",0.33817094564437866,37.59169387817383,3495,AF,KE,KE-400,Isiolo,0,HKIS,,,,,,50,2009-05-18T13:24:06+00:00
42704,KE-0061,small_airport,"Ithumba Airport",-2.216722011566162,38.38689041137695,1700,AF,KE,KE-400,Ithumba,0,,,,,,,50,2008-12-05T17:21:34+00:00
42546,KE-6020,small_airport,"Itona Ranch Airport",-1.135916,34.83411,5500,AF,KE,KE-700,"Itona Ranch",0,HKIC,,,,,,50,2018-03-21T23:42:24+00:00
42613,KE-6596,small_airport,"Kajiado Airport",-1.850000023841858,36.78333282470703,5603,AF,KE,KE-700,Kajiado,0,,,,,,,50,2008-12-05T17:19:58+00:00
3207,HKKG,small_airport,"Kakamega Airport",0.271342009306,34.7873001099,5020,AF,KE,KE-900,Kakamega,0,HKKG,GGM,,,http://en.wikipedia.org/wiki/Kakamega_Airport,,50,2012-02-12T23:18:04+00:00
42611,KE-6557,small_airport,"Kakuma Airport",3.716667,34.866669,1906,AF,KE,KE-700,Kakuma,0,HKKM,,,,,,50,2016-06-16T12:39:29+00:00
42581,KE-6074,small_airport,"Kalacha South Airport",3.0199999809265137,37.448333740234375,1000,AF,KE,KE-400,"Kalacha South",0,,,,,,,50,2008-12-05T17:19:24+00:00
31758,HKFG,small_airport,"Kalokol Airport",3.49161,35.836777,1245,AF,KE,KE-700,Kalokol,0,HKFG,KLK,,,https://en.wikipedia.org/wiki/Kalokol_Airport,"FER, Ferguson's Gulf",50,2016-06-15T06:58:11+00:00
42629,KE-6907,small_airport,"Kambi Ya Samaki Airport",-2.316667079925537,37.91666793823242,3093,AF,KE,KE-400,"Kambi Ya",0,,,,,,,50,2008-12-05T17:20:14+00:00
42701,KE-0058,small_airport,"Kamboyo(Tsavo West) Airport",-2.75,38.119998931884766,2805,AF,KE,KE-300,Kamboyo,0,,,,,,,50,2008-12-05T17:21:31+00:00
42551,KE-6027,small_airport,"Kamok Airport",0.013944000005722046,36.80083465576172,6290,AF,KE,KE-700,Kamok,0,,,,,,,50,2008-12-05T17:18:53+00:00
42687,KE-0044,small_airport,"Kamwaki Farm Airport",0.13384400308132172,37.15920639038086,6530,AF,KE,KE-700,"Kamwaki Farm",0,,,,,,,50,2008-12-05T17:21:16+00:00
42702,KE-0059,small_airport,"Kangetchwa Airport",-3.179363965988159,38.131011962890625,3050,AF,KE,KE-300,Kangetchwa,0,,,,,,,50,2008-12-05T17:21:32+00:00
42638,KE-6996,small_airport,"Kapchomuswo (Kabarnet) Airport",0.536848,35.728044,6205,AF,KE,KE-700,Kapchomuswo,0,,,,,,Kabarnet,50,2016-06-15T07:45:56+00:00
42661,KE-0018,small_airport,"Kapedo Airport",1.1638610363006592,36.08416748046875,2500,AF,KE,KE-700,Kapedo,0,,,,,,,50,2008-12-05T17:20:49+00:00
42634,KE-6946,small_airport,"Kapenguria (Kisiaunet) Airport",1.2693220376968384,35.076324462890625,6482,AF,KE,KE-700,Kapenguria,0,,,,,,,50,2008-12-05T17:20:20+00:00
42625,KE-6888,small_airport,"Kapsumbeiwa Nandi Airport",0.13033999502658844,35.2208251953125,1750,AF,KE,KE-700,"Kapsumbeiwa Nandi",0,,,,,,,50,2008-12-05T17:20:10+00:00
42547,KE-6021,small_airport,"Karimbuni Airport",-0.8029670119285583,36.09061050415039,9300,AF,KE,KE-700,Karimbuni,0,,,,,,,50,2008-12-05T17:18:49+00:00
31587,HKKE,small_airport,"Keekorok Airport",-1.5829999446868896,35.25,5800,AF,KE,KE-700,Keekorok,0,HKKE,,,,,,50,2008-12-05T17:17:50+00:00
31743,HKKR,small_airport,"Kericho Airport",-0.3899,35.242093,6446,AF,KE,KE-700,Kericho,0,HKKR,KEY,,,https://en.wikipedia.org/wiki/Kericho_Airport,,50,2018-04-01T18:59:35+00:00
31586,HKKB,small_airport,"Kiambere Airport",-0.6330000162124634,37.882999420166016,2450,AF,KE,KE-400,Kiambere,0,HKKB,,,,,6022,50,2008-12-05T17:17:48+00:00
42548,KE-6024,small_airport,"Masai Mara Airport",1.2666670083999634,35.033329010009766,5360,AF,KE,KE-700,"Kichwa Tembo",0,,,,,,,50,2008-12-05T17:18:50+00:00
42673,KE-0030,small_airport,"Kigio (Malewa) Airport",-0.5677779912948608,36.38336181640625,6734,AF,KE,KE-700,"Kigio (Malewa)",0,,,,,,,50,2008-12-05T17:21:01+00:00
42713,KE-0070,small_airport,"Kijipwa Airport",-3.8431389331817627,39.80516815185547,40,AF,KE,KE-300,Kijipwa,0,,,,,,,50,2008-12-05T17:21:44+00:00
31673,HKKL,small_airport,"Kilaguni Airport",-2.9106099605560303,38.06520080566406,2750,AF,KE,KE-300,Kilaguni,0,HKKL,ILU,,,,,50,2008-12-05T17:17:52+00:00
42585,KE-6079,small_airport,"Kilgoris Airport",-1.079585,34.87741,5755,AF,KE,KE-700,Kilgoris,0,HKRS,,,,,,50,2018-03-25T15:20:22+00:00
42592,KE-6095,small_airport,"Kilifi Plantation Farm Airport",-3.6333329677581787,39.849998474121094,3,AF,KE,KE-300,Kilifi,0,,,,,,,50,2008-12-05T17:19:35+00:00
42637,KE-6978,small_airport,"Kerio Valley Airport",0.3196380138397217,35.662559509277344,4325,AF,KE,KE-700,Kimwarer,0,,KRV,,,,,50,2008-12-05T17:20:23+00:00
42587,KE-6082,small_airport,"Kinna Airport",0.31666699051856995,38.20000076293945,2211,AF,KE,KE-400,Kinna,0,,,,,,,50,2008-12-05T17:19:30+00:00
31588,HKKS,small_airport,"Kisii Airport",-0.6669999957084656,34.70000076293945,4905,AF,KE,KE-600,Kisii,0,HKKS,,,,,,50,2008-12-05T17:17:56+00:00
31589,HKKU,small_airport,"Kitui Airport",-1.372789978981018,37.97809982299805,3790,AF,KE,KE-400,Kitui,0,HKKU,,,,,6575,50,2008-12-05T17:17:58+00:00
42639,KE-KIU,small_airport,"Kiunga Airport",-1.7438290119171143,41.484344482421875,1,AF,KE,KE-300,Kiunga,0,,KIU,,,,,50,2008-12-05T17:20:25+00:00
42630,KE-6911,small_airport,"Samburu North Airport",-3.766666889190674,39.28333282470703,967,AF,KE,KE-300,Koitogo,0,,,,,,,50,2008-12-05T17:20:15+00:00
42711,KE-0068,small_airport,"Komawayu (Tanke) Airport",-2.9166669845581055,39.55091857910156,500,AF,KE,KE-300,"Komawayu (Tanke)",0,,,,,,,50,2008-12-05T17:21:41+00:00
42573,KE-6061,small_airport,"Komofodo Galana Ranch Airport",2.552500009536743,39.66758346557617,500,AF,KE,KE-500,"Komofodo Galana",0,,,,,,,50,2008-12-05T17:19:15+00:00
42706,KE-0063,small_airport,"Kone Airport",-2.219193935394287,39.100887298583984,500,AF,KE,KE-300,Kone,0,,,,,,,50,2008-12-05T17:21:36+00:00
42666,KE-0023,small_airport,"Kongoni Airport",-0.8666669726371765,36.233333587646484,6600,AF,KE,KE-700,Kongoni,0,,,,,,,50,2008-12-05T17:20:54+00:00
42709,KE-0066,small_airport,"Kwale Airport",-4.169795036315918,39.43186569213867,1380,AF,KE,KE-300,Kwale,0,,,,,,,50,2008-12-05T17:21:39+00:00
42684,KE-0041,small_airport,"Laburra Airport",-0.298471,36.947185,6030,AF,KE,KE-200,Laburra,0,,,,,,,50,2016-06-16T05:01:19+00:00
42539,KE-6002,small_airport,"Laisamis Airport",1.578387,37.810799,1866,AF,KE,KE-400,Laisamis,0,HKLA,,,,,,50,2018-03-21T23:16:07+00:00
42640,KE-LBN,small_airport,"Lake Baringo Airport",0.6661030054092407,36.104190826416016,3226,AF,KE,KE-700,"Lake Baringo",0,,LBN,,,,,50,2008-12-05T17:20:28+00:00
42658,KE-0015,small_airport,"Lake Baringo (Kampi Ya Samaki) Airport",0.6031669974327087,36.01300048828125,3000,AF,KE,KE-700,"Lake Baringo",0,,,,,,,50,2008-12-05T17:20:46+00:00
42698,KE-0055,small_airport,"Lake Jipe Airport",-3.6169440746307373,37.77891540527344,2400,AF,KE,KE-300,"Lake Jipe",0,,,,,,,50,2008-12-05T17:21:28+00:00
42641,KE-LKU,small_airport,"Lake Rudolf Airport",3.4166669845581055,35.883331298828125,1300,AF,KE,KE-700,"Lake Rudolf",0,,LKU,,,,,50,2008-12-05T17:20:29+00:00
42584,KE-6077,small_airport,"Lali Galana Airport",-3.1357779502868652,39.30088806152344,500,AF,KE,KE-300,"Lali Galana",0,,,,,,,50,2008-12-05T17:19:27+00:00
42624,KE-6885,small_airport,"Lewa Downs Airport",0.195346,37.470331,5500,AF,KE,KE-400,"Lewa Downs",0,,,,,https://en.wikipedia.org/wiki/Lewa_Airport,,50,2018-08-01T03:48:50+00:00
31796,KE-LBK,small_airport,"Liboi Airport",0.3483330011367798,40.88169860839844,280,AF,KE,KE-500,Liboi,0,,LBK,,,,,50,2008-12-05T17:20:27+00:00
42533,HKLT,small_airport,"Loitokitok Airport",-2.9098849296569824,37.52610778808594,5320,AF,KE,KE-700,Loitokitok,0,,,,,,,50,2008-12-05T17:18:01+00:00
42540,KE-6007,small_airport,"Lokori Airport",1.966667,36.016668,1990,AF,KE,KE-700,Lokori,0,HKLR,,,,,,50,2018-03-21T23:22:30+00:00
42670,KE-0027,small_airport,"Loldia Airport",-0.699999988079071,36.31666564941406,1970,AF,KE,KE-700,Loldia,0,,,,,,,50,2008-12-05T17:20:58+00:00
42692,KE-0049,small_airport,"Loloroi Airport",0.635479,37.380327,3000,AF,KE,KE-700,Loloroi,0,,,,,,,50,2016-06-16T05:02:31+00:00
42555,KE-6034,small_airport,"Lomolo Airport",0.031057,35.988683,5200,AF,KE,KE-700,Lomolo,0,HKMX,,,,,,50,2018-03-23T21:18:27+00:00
42556,KE-6035,small_airport,"Loporot Airport",2.345275,35.882778,2011,AF,KE,KE-700,Loporot,0,HKOP,,,,,,50,2018-03-23T21:30:07+00:00
42557,KE-6036,small_airport,"Lothagah Airport",3.033333,36.049999,1600,AF,KE,KE-700,Lothagah,0,HKTH,,,,,,50,2018-03-23T21:36:54+00:00
42558,KE-6037,small_airport,"Lotubae Airport",1.9833329916000366,36.04999923706055,1700,AF,KE,KE-700,Lotubae,0,,,,,,,50,2008-12-05T17:19:00+00:00
31842,HKLY,small_airport,"Loyengalani Airport",2.75,36.71699905395508,1195,AF,KE,KE-400,Loyengalani,0,HKLY,LOY,,,,,50,2008-12-05T17:18:04+00:00
42553,KE-6029,small_airport,"Lubarra Airport",-1.2999999523162842,36.95000076293945,6100,AF,KE,KE-110,Lubarra,0,,,,,,,50,2008-12-05T17:18:55+00:00
42609,KE-6394,small_airport,"Lunga-Lunga Airport",-4.550000190734863,39.116668701171875,193,AF,KE,KE-300,Lunga-Lunga,0,,,,,,,50,2008-12-05T17:19:54+00:00
42535,HKMR,small_airport,"Mackinnon Road Airport",-3.735685110092163,39.033329010009766,1443,AF,KE,KE-300,"Mackinnon Road",0,,,,,,,50,2008-12-05T17:18:18+00:00
42632,KE-6924,small_airport,"Mado Gashi Airport",0.7223730087280273,39.176143646240234,1000,AF,KE,KE-500,"Mado Gashi",0,,,,,,,50,2008-12-05T17:20:17+00:00
42534,HKMG,small_airport,"Magadi Airport",-1.9480570554733276,36.28333282470703,1955,AF,KE,KE-700,Magadi,0,,,,,,,50,2008-12-05T17:18:09+00:00
42591,KE-6089,small_airport,"Maji Mazuri Airport",0.933333,35.166668,6980,AF,KE,KE-700,"Maji Mazuri",0,HKZM,,,,,,50,2018-03-18T16:46:37+00:00
42537,HKMU,small_airport,"Makindu Airport",-2.289712905883789,37.82862091064453,3513,AF,KE,KE-400,Makindu,0,,,,,,,50,2008-12-05T17:18:22+00:00
42700,KE-0057,small_airport,"Maktau Gate Airport",-3.4081668853759766,38.119667053222656,3500,AF,KE,KE-300,Maktau,0,,,,,,,50,2008-12-05T17:21:30+00:00
32014,HKMA,small_airport,"Mandera Airport",3.933000087738037,41.849998474121094,805,AF,KE,KE-500,Mandera,0,HKMA,NDE,,,,,50,2008-12-05T17:18:06+00:00
42671,KE-0028,small_airport,"Manyatta Airport",-0.494715,36.352908,6400,AF,KE,KE-700,Manyatta,0,,,,,,"Gilgil Flash",50,2016-06-15T07:20:21+00:00
42589,KE-6087,small_airport,"Mara Buffalo Airport",-1.14542,35.124922,5500,AF,KE,KE-700,Mara,0,HKMF,,,,,,50,2016-06-16T12:55:35+00:00
42642,KE-MRE,small_airport,"Mara Lodges Airport",-1.1782759428024292,35.11130905151367,5706,AF,KE,KE-700,"Mara Lodges",0,,MRE,,,,,50,2008-12-05T17:20:30+00:00
42648,KE-0005,small_airport,"Mara Shikar Airport",-1.0692780017852783,35.050777435302734,5500,AF,KE,KE-700,"Mara Shikar",0,,,,,,,50,2008-12-05T17:20:36+00:00
31591,HKMI,small_airport,"Maralal (Kisima) Airport",0.949999988079071,36.79999923706055,5940,AF,KE,KE-700,Maralal,0,HKMI,,,,,,50,2008-12-05T17:18:11+00:00
42610,KE-6396,small_airport,"Maralal Airport",1.099450945854187,36.69509506225586,6450,AF,KE,KE-700,Maralal,0,,,,,,,50,2008-12-05T17:19:55+00:00
32198,HKMB,small_airport,"Marsabit Airport",2.344254,37.999996,4395,AF,KE,KE-400,Marsabit,0,HKMB,RBT,,,https://en.wikipedia.org/wiki/Marsabit_Airport,6122,50,2016-06-16T05:04:49+00:00
42544,KE-6018,small_airport,"Fig Tree  Airport",-1.434722,35.193249,5050,AF,KE,KE-700,"Masai Mara National Park",0,HKFT,,,,,,50,2016-06-16T11:00:13+00:00
42631,KE-6920,small_airport,"Masalani (Fanjaa) Airport",-1.6956549882888794,40.1257209777832,150,AF,KE,KE-300,Masalani,0,,,,,,,50,2008-12-05T17:20:16+00:00
42582,KE-6075,small_airport,"Masnami Airport",-1.1333329677581787,35.33333206176758,5600,AF,KE,KE-700,Masnami,0,,,,,,,50,2008-12-05T17:19:25+00:00
42696,KE-0053,small_airport,"Mbirikani Airport",-2.560832977294922,37.54100036621094,3900,AF,KE,KE-700,Mbirikani,0,,,,,,,50,2008-12-05T17:21:25+00:00
42559,KE-6040,small_airport,"Menengai Airport",-0.23602800071239471,36.00080490112305,6650,AF,KE,KE-700,Menengai,0,,,,,,,50,2008-12-05T17:19:01+00:00
42703,KE-0060,small_airport,"Mulika Lodge Airport",0.165083006024,38.1951408386,2000,AF,KE,KE-400,Meru-Kinna,1,HKMK,JJM,,,http://en.wikipedia.org/wiki/Mulika_Lodge_Airport,"Meru National Park",50,2012-03-24T12:03:08+00:00
42644,KE-0001,small_airport,"Mfangano Airport",-0.4665,34.063998,3750,AF,KE,KE-600,"Mfangano Island",0,HKZF,,,,,,50,2018-03-18T16:54:52+00:00
31593,HKMM,small_airport,"Migori Airport",-1.1169999837875366,34.483001708984375,4575,AF,KE,KE-600,Migori,0,HKMM,,,,,6645,50,2008-12-05T17:18:17+00:00
42593,KE-6109,small_airport,"Mitunguu Airport",-0.10968299955129623,37.79010009765625,3100,AF,KE,KE-400,Mitunguu,0,,,,,,,50,2008-12-05T17:19:36+00:00
42594,KE-6110,small_airport,"Mkowe Airport",-2.2340381145477295,40.846466064453125,3,AF,KE,KE-300,Mkowe,0,,,,,,,50,2008-12-05T17:19:37+00:00
42623,KE-6883,small_airport,"Mount Kenya Game Ranch Airport",-0.045436,37.129827,7020,AF,KE,KE-400,"Mount Kenya",0,,,,,,,50,2016-06-15T09:37:51+00:00
42707,KE-0064,small_airport,"Moyale (Boma) Airport",3.450000047683716,39.132999420166016,2790,AF,KE,KE-400,Moyale,0,,,,,,,50,2008-12-05T17:21:37+00:00
32141,HKMY,small_airport,"Moyale Airport",3.46972,39.101398,2790,AF,KE,KE-400,"Moyale (Lower)",0,HKMY,OYL,,,https://en.wikipedia.org/wiki/Moyale_Airport,,50,2016-06-15T06:03:15+00:00
42536,HKMT,small_airport,"Mtito Andei Airport",-2.7170820236206055,38.197566986083984,2397,AF,KE,KE-300,Mtito,0,,,,,,,50,2008-12-05T17:18:21+00:00
31592,HKMK,small_airport,"Meru Mulika Airport",0.229567,38.171412,2230,AF,KE,KE-400,Mulika,0,HKMK,,,,,,50,2016-06-13T07:26:00+00:00
42643,KE-MUM,small_airport,"Mumias Airport",0.355399,34.528234,4163,AF,KE,KE-900,Mumias,0,,MUM,,,,,50,2016-06-15T09:55:42+00:00
42596,KE-6121,small_airport,"Musiara Airstrip",-1.2991379499435425,35.06387710571289,5117,AF,KE,KE-700,Musiara,0,,,,,,,50,2008-12-05T17:19:39+00:00
42651,KE-0008,small_airport,"Muswani Airport",-1.1359169483184814,35.33414077758789,5600,AF,KE,KE-700,Muswani,0,,,,,,,50,2008-12-05T17:20:39+00:00
42614,KE-6646,small_airport,"Marrian's Airport",-0.3405900001525879,36.91352462768555,6400,AF,KE,KE-200,Mweiga,0,,,,,,,50,2008-12-05T17:19:59+00:00
3216,HKRE,medium_airport,"Moi Air Base",-1.2772699594499999,36.8623008728,5336,AF,KE,KE-110,Nairobi,0,HKRE,,,,http://en.wikipedia.org/wiki/Moi_Air_Base,"RAF Eastleigh, Eastleigh Airport",50,2015-01-23T13:13:32+00:00
42662,KE-0019,small_airport,"Naishi Airport",-0.4565829932689667,36.084999084472656,5500,AF,KE,KE-700,Naishi,0,,,,,,,50,2008-12-05T17:20:50+00:00
3214,HKNV,small_airport,"Naivasha Airport",-0.787953,36.433494,6380,AF,KE,KE-700,Naivasha,0,HKNV,,,,https://en.wikipedia.org/wiki/Naivasha_Airport,"Naivasha South",50,2018-03-27T00:24:39+00:00
28485,HKNK,small_airport,"Nakuru Airport",-0.298067,36.159302,6234,AF,KE,KE-700,Nakuru,1,HKNK,NUU,,,https://en.wikipedia.org/wiki/Nakuru_Airport,,50,2016-06-16T03:56:42+00:00
42657,KE-0014,small_airport,"Barclays Airport",-0.1877959966659546,35.967098236083984,6368,AF,KE,KE-700,Nakuru,0,,,,,,,50,2008-12-05T17:20:45+00:00
42667,KE-0024,small_airport,"Delamare Camp Airport",-0.40255600214004517,36.23605728149414,5800,AF,KE,KE-700,Nakuru,0,,,,,,,50,2008-12-05T17:20:55+00:00
42597,KE-6123,small_airport,"Namanga Airport",-2.57938888889,36.912166666699996,4080,AF,KE,KE-700,Namanga,0,,,,,,,50,2012-03-02T07:18:57+00:00
42560,KE-6041,small_airport,"Nampaso Airport",-1.0423929691314697,35.24995422363281,5500,AF,KE,KE-700,Nampaso,0,,,,,,,50,2008-12-05T17:19:02+00:00
42680,KE-0037,small_airport,"Nanyuki West Airport",-0.141092,36.914995,6000,AF,KE,KE-700,"Nanyuki West",0,,,,,,,50,2016-06-17T02:33:25+00:00
31595,HKNO,small_airport,"Narok Airport",-1.128103,35.785685,6311,AF,KE,KE-700,Narok,0,HKNO,,,,,,50,2018-03-25T16:18:46+00:00
42664,KE-0021,small_airport,"Ndabibi Airport",-0.7430350184440613,36.17222213745117,7100,AF,KE,KE-700,Ndabibi,0,,,,,,,50,2008-12-05T17:20:52+00:00
42561,KE-6042,small_airport,"Ndovu Airport",2.0137779712677,38.634220123291016,1150,AF,KE,KE-400,Ndovu,0,,,,,,,50,2008-12-05T17:19:03+00:00
42674,KE-0031,small_airport,"Ndume Langa Airport",-0.5193060040473938,36.38414001464844,6500,AF,KE,KE-700,Ndume,0,,,,,,,50,2008-12-05T17:21:02+00:00
42562,KE-6043,small_airport,"Lanet Prairies Airport",-0.28600001335144043,36.15080642700195,6200,AF,KE,KE-700,Neylan's,0,,,,,,,50,2008-12-05T17:19:04+00:00
42668,KE-0025,small_airport,"Ngelesha Airport",1.5172220468521118,36.2852783203125,6000,AF,KE,KE-700,Ngelesha,0,,,,,,,50,2008-12-05T17:20:56+00:00
42576,KE-6066,small_airport,"Ngerende Airport",-1.083519,35.18565,5510,AF,KE,KE-700,Ngerende,0,,,,,,,50,2016-06-16T04:14:23+00:00
42615,KE-6647,small_airport,"Nginyang (Kinkang) Airport",0.9666669964790344,36.016666412353516,2368,AF,KE,KE-700,Nginyang,0,,,,,,Kinkang,50,2008-12-05T17:20:00+00:00
42579,KE-6071,small_airport,"Ngorare Ranch Airport",0.33058300614356995,36.65083312988281,6400,AF,KE,KE-700,Ngorare,0,,,,,,,50,2008-12-05T17:19:22+00:00
42563,KE-6044,small_airport,"Ngore Ngore Airport",-1.8359440565109253,37.78419494628906,6290,AF,KE,KE-400,"Ngore Ngore",0,,,,,,,50,2008-12-05T17:19:05+00:00
42616,KE-6648,small_airport,"Ngulia Lodge Airport",-2.947635,38.250075,2500,AF,KE,KE-300,"Ngulia Lodge",0,,,,,,,50,2016-06-16T04:16:35+00:00
42564,KE-6045,small_airport,"Njoro Airport",-0.316978,35.922549,7140,AF,KE,KE-700,Njoro,0,,,,,,,50,2016-06-16T04:21:40+00:00
42656,KE-0013,small_airport,"Njoro Country Club Airport",-0.335999995470047,35.91747283935547,7100,AF,KE,KE-700,Njoro,0,,,,,,,50,2008-12-05T17:20:44+00:00
42565,KE-6046,small_airport,"Nkreta Airport",-1.0166670083999634,35.83333206176758,6700,AF,KE,KE-700,Nkreta,0,,,,,,,50,2008-12-05T17:19:07+00:00
42598,KE-6127,small_airport,"Beverley Airport",3.316666,37.066666,1187,AF,KE,KE-400,"North Horr",0,HKZT,,,,,,50,2018-03-18T16:33:24+00:00
42672,KE-0029,small_airport,"Nyahururu Airport",-0.013767000287771225,36.36973571777344,7750,AF,KE,KE-200,Nyahururu,0,,,,,,,50,2008-12-05T17:21:00+00:00
32065,HKNI,small_airport,"Nyeri Airport",-0.3644140064716339,36.978485107421875,5830,AF,KE,KE-200,Nyeri,0,HKNI,NYE,,,,,50,2008-12-05T17:18:26+00:00
42645,KE-0002,small_airport,"Nzoia Airport",0.1333329975605011,34.08333206176758,3770,AF,KE,KE-900,Nzoia,0,,,,,,,50,2008-12-05T17:20:33+00:00
42676,KE-0033,small_airport,"Ol Maisor Airport",0.413292,36.651665,5900,AF,KE,KE-700,"Ol Maisor",0,,,,,,,50,2016-06-16T04:16:09+00:00
42654,KE-0011,small_airport,"Olerai Airport",0.9859439730644226,35.550804138183594,6500,AF,KE,KE-700,Olerai,0,,,,,,,50,2008-12-05T17:20:42+00:00
42566,KE-6048,small_airport,"Oleleren Airport",0.013944000005722046,36.8841667175293,5580,AF,KE,KE-700,Olereren,0,,,,,,,50,2008-12-05T17:19:08+00:00
42655,KE-0012,small_airport,"Oleshabani Airport",-0.9723460078239441,35.74672317504883,6700,AF,KE,KE-700,Oleshabani,0,,,,,,,50,2008-12-05T17:20:43+00:00
42607,KE-6208,small_airport,"Olkiombo Airport",-1.408586,35.110689,5011,AF,KE,KE-700,Olkiombo,0,,,,,,,50,2018-08-02T14:08:44+00:00
42681,KE-0038,small_airport,"Olpejeta Airport",0.03061099909245968,36.90083312988281,5845,AF,KE,KE-700,Olpejeta,0,,,,,,,50,2008-12-05T17:21:10+00:00
42647,KE-0004,small_airport,"Oropoi Airport",3.8084490299224854,34.3600959777832,2842,AF,KE,KE-700,Oropoi,0,,,,,,,50,2008-12-05T17:20:35+00:00
42586,KE-6081,small_airport,"Oserian Naivasha Airport",-0.8526390194892883,36.26747131347656,6350,AF,KE,KE-700,Oserian,0,,,,,,,50,2008-12-05T17:19:29+00:00
42669,KE-0026,small_airport,"Oserongoni Airport",-0.8190000057220459,36.28783416748047,6200,AF,KE,KE-700,Oserongoni,0,,,,,,Oserian,50,2008-12-05T17:20:57+00:00
42715,KE-0072,small_airport,"Rhamu Airport",3.923082113265991,41.223690032958984,805,AF,KE,KE-500,Rhamu,0,,,,,,,50,2008-12-05T17:21:46+00:00
42600,KE-6152,small_airport,"Rumuruti Airport",0.2775940001010895,36.53333282470703,6066,AF,KE,KE-700,Rumuruti,0,,,,,,,50,2008-12-05T17:19:43+00:00
42646,KE-0003,small_airport,"Rusinga Airport",-0.41266700625419617,34.14250183105469,3800,AF,KE,KE-600,Rusinga,0,,,,,,,50,2008-12-05T17:20:34+00:00
42694,KE-0051,small_airport,"Rutundu Airport",-0.052654001861810684,37.464542388916016,10200,AF,KE,KE-400,Rutundu,0,,,,,,,50,2008-12-05T17:21:23+00:00
42601,KE-6153,small_airport,"Sabarei Airport",4.333976,36.906768,2300,AF,KE,KE-400,Sabarei,0,,,,,,,50,2016-06-16T04:49:25+00:00
42693,KE-0050,small_airport,"Sarara Airport",-1.0499999523162842,37.43333435058594,3760,AF,KE,KE-400,Sarara,0,,,,,,,50,2008-12-05T17:21:22+00:00
42705,KE-0062,small_airport,"Satao Airport",-3.393749952316284,38.946861267089844,1400,AF,KE,KE-300,Satao,0,,,,,,,50,2008-12-05T17:21:35+00:00
42665,KE-0022,small_airport,"Seislucho Airport",4.377778053283691,36.21666717529297,1350,AF,KE,KE-400,Seislucho,0,,,,,,,50,2008-12-05T17:20:53+00:00
42652,KE-0009,small_airport,"Sergoit Airport",0.6499999761581421,35.383331298828125,7200,AF,KE,KE-700,Sergoit,0,,,,,,,50,2008-12-05T17:20:40+00:00
42575,KE-6064,small_airport,"Shekiko Airport",-2.566667079925537,40.349998474121094,6,AF,KE,KE-300,Shekiko,0,,,,,,,50,2008-12-05T17:19:18+00:00
42622,KE-6878,small_airport,"Shimba Hills Airport",-1.2356940507888794,39.41755676269531,1200,AF,KE,KE-300,"Shimba Hills",0,,,,,,,50,2008-12-05T17:20:07+00:00
42659,KE-0016,small_airport,"Shompole (Dry Lake) Airport",-2.0203330516815186,36.03911209106445,2050,AF,KE,KE-700,Shompole,0,,,,,,,50,2008-12-05T17:20:47+00:00
42660,KE-0017,small_airport,"Shompole (""All"" weather) Airport",-1.9755829572677612,36.04838943481445,2000,AF,KE,KE-700,Shompole,0,,,,,,,50,2008-12-05T17:20:48+00:00
42653,KE-0010,small_airport,"Siana Springs Airport",-1.4833329916000366,35.41666793823242,5350,AF,KE,KE-700,"Siana Springs",0,,,,,,,50,2008-12-05T17:20:41+00:00
42602,KE-6155,closed,"Sigor Airport",1.483333,35.466667,3218,AF,KE,KE-700,Sigor,0,,,,,,,50,2016-03-01T14:56:32+00:00
42618,KE-6650,small_airport,"Sololo Airport",3.554547071456909,38.64363479614258,2296,AF,KE,KE-400,Sololo,0,,,,,,,50,2008-12-05T17:20:03+00:00
42578,KE-6068,small_airport,"Soy-Chemoset Airport",0.7138890027999878,36.86750030517578,5130,AF,KE,KE-700,SOY-Chemoset,0,,,,,,,50,2008-12-05T17:19:21+00:00
42675,KE-0032,small_airport,"Mugie Ranch Airport",0.714812,36.586594,6150,AF,KE,KE-700,"Sukuta Mugie",0,,,,,,,50,2016-06-15T09:52:06+00:00
42678,KE-0035,small_airport,"Tadlitium Airport",-2.122875928878784,36.817481994628906,5000,AF,KE,KE-700,Tadlitium,0,,,,,,,50,2008-12-05T17:21:06+00:00
42568,KE-6053,small_airport,"Taita Hills Airport",-3.5123889446258545,38.250221252441406,3150,AF,KE,KE-300,"Taita Hills",0,,,,,,,50,2008-12-05T17:19:10+00:00
42617,KE-6649,small_airport,"Takabba Airport",3.426179,40.229733,1991,AF,KE,KE-500,Takabba,0,,,,,,,50,2016-06-17T02:28:20+00:00
42683,KE-0040,small_airport,"Talu Airport",-1.1459519863128662,36.91798782348633,5110,AF,KE,KE-200,Talu,0,,,,,,,50,2008-12-05T17:21:12+00:00
42690,KE-0047,small_airport,"Tassia Airport",0.4262219965457916,37.33402633666992,3400,AF,KE,KE-700,Tassia,0,,,,,,,50,2008-12-05T17:21:19+00:00
42612,KE-6576,small_airport,"Taveta Airport",-3.3947649002075195,37.697757720947266,2988,AF,KE,KE-300,Taveta,0,,,,,,,50,2008-12-05T17:19:57+00:00
42569,KE-6054,small_airport,"Taveta Sisal Airport",-3.418889045715332,37.6341667175293,2525,AF,KE,KE-300,"Taveta Sisal",0,,,,,,,50,2008-12-05T17:19:11+00:00
42604,KE-6166,small_airport,"Todenyang Airport",4.530250072479248,35.91752624511719,1195,AF,KE,KE-700,Todenyang,0,,,,,,,50,2008-12-05T17:19:47+00:00
42570,KE-6055,small_airport,"Turkwel Gorge Airport",1.895681,35.38826,2625,AF,KE,KE-700,"Turkwel Gorge",0,,,,,,,50,2016-06-17T02:44:02+00:00
42712,KE-0069,small_airport,"Vipingo Estate Airport",-3.80666666667,39.7973888889,86,AF,KE,KE-300,"Vipingo Estate",0,,VPG,,,,,50,2012-04-29T15:37:54+00:00
31598,HKVO,small_airport,"Voi Airport",-3.3745388984680176,38.53474807739258,1900,AF,KE,KE-300,Voi,0,HKVO,,,,,,50,2008-12-05T17:18:37+00:00
42605,KE-6175,small_airport,"Voi Park Airport",-3.3627219200134277,38.605167388916016,1700,AF,KE,KE-300,Voi,0,,,,,,,50,2008-12-05T17:19:48+00:00
42606,KE-6178,small_airport,"Wamba Airport",0.9777780175209045,37.31888198852539,4324,AF,KE,KE-700,Wamba,0,,,,,,,50,2008-12-05T17:19:51+00:00
42691,KE-0048,small_airport,"Wanguru (Thiba) Airport",-0.6966760158538818,37.37461853027344,3400,AF,KE,KE-200,"Wanguru (Thiba)",0,,,,,,,50,2008-12-05T17:21:20+00:00
31599,HKWE,small_airport,"Webuye Airport",0.6169999837875366,34.78300094604492,4300,AF,KE,KE-900,Webuye,0,HKWE,,,,,6577,50,2008-12-05T17:18:39+00:00
42571,KE-6056,small_airport,"Ziwani Airport",-3.2193610668182373,37.80072021484375,3025,AF,KE,KE-300,Ziwani,0,,,,,,,50,2008-12-05T17:19:13+00:00
318719,KE-0116,small_airport,"Galana Ranch Airstrip",-3.062141,39.331661,,AF,KE,KE-200,,0,,,,,,,0,2016-06-15T07:16:11+00:00
318757,KE-0154,small_airport,"Limuru Airstrip",-1.106687,36.688778,,AF,KE,KE-200,,0,,,,,,,0,2016-06-15T09:07:01+00:00
318739,KE-0136,small_airport,"Kilalinda Airport",-2.627593,38.338681,,AF,KE,KE-300,,0,,,,,,,0,2016-06-15T08:15:08+00:00
318761,KE-0158,small_airport,"Lugard Falls South Airport",-3.048607,38.689626,,AF,KE,KE-300,,0,,,,,,,0,2016-06-15T09:20:40+00:00
318815,KE-0188,small_airport,"Sala Gate Airport",-3.072405,39.215665,,AF,KE,KE-300,,0,,,,,,,0,2016-06-16T04:52:25+00:00
318819,KE-0192,small_airport,"Sheldrick Trust Strip",-2.669606,38.367137,1800,AF,KE,KE-300,,0,,,,,,,0,2016-06-16T05:10:24+00:00
318830,KE-0201,small_airport,"Tsavo Safari Camp Airstrip",-2.638919,38.364736,1700,AF,KE,KE-300,,0,,,,,,,0,2016-06-17T02:38:41+00:00
318832,KE-0203,small_airport,"Wanjala Mine Airstrip",-3.245484,38.181924,3800,AF,KE,KE-300,,0,,,,,,,0,2016-06-17T02:46:32+00:00
318544,KE-0082,small_airport,"Tana River Rapids Airport",-0.069552,38.382484,,AF,KE,KE-400,,0,,,,,,,0,2016-06-13T07:20:21+00:00
318545,KE-0083,small_airport,"Tana River Airport",-0.049021,38.308839,,AF,KE,KE-400,,0,,,,,,,0,2016-06-13T07:23:28+00:00
318546,KE-0084,small_airport,"Rojewero River Airport",0.118977,38.268425,,AF,KE,KE-400,,0,,,,,,,0,2016-06-13T07:25:30+00:00
318547,KE-0085,small_airport,"Tharaka Nithi Meru Airport",0.02597,38.065436,,AF,KE,KE-400,,0,,,,,,,0,2016-06-13T07:27:49+00:00
318693,KE-0090,small_airport,"Asako Airport",-0.107107,39.046973,500,AF,KE,KE-400,,0,,,,,,,0,2016-06-15T05:12:10+00:00
318762,KE-0159,small_airport,"Malinda Estate Airstrip",-1.483679,37.098339,,AF,KE,KE-400,,0,,,,,,,0,2016-06-15T09:23:15+00:00
318765,KE-0162,small_airport,"Mawingo Airprot",-0.043734,37.145506,,AF,KE,KE-400,,0,,,,,,,0,2016-06-15T09:38:09+00:00
318767,KE-0164,small_airport,"Meriti Oil Rig Airstrip",1.089888,38.600205,,AF,KE,KE-400,,0,,,,,,,0,2016-06-15T09:40:47+00:00
318772,KE-0169,small_airport,"Mughwango Airstrip",0.126097,38.132497,,AF,KE,KE-400,,0,,,,,,,0,2016-06-15T09:50:44+00:00
318818,KE-0191,small_airport,"Shaba Lodge Airport",0.658176,37.700377,2600,AF,KE,KE-400,,0,,,,,,,0,2016-06-16T05:07:38+00:00
44465,KE-0073,small_airport,"Ngare Ndare Airstrip",0.231557,37.364159,5500,AF,KE,KE-700,,0,,,,,,,0,2016-06-16T04:14:05+00:00
44466,KE-0074,small_airport,"Laragai Airstrip",0.26957,37.328098,,AF,KE,KE-700,,0,,,,,,,0,2016-06-15T09:00:45+00:00
318709,KE-0106,small_airport,"Chyulus Airport",-2.527368,37.731488,,AF,KE,KE-700,,0,,,,,,,0,2016-06-15T06:22:34+00:00
318710,KE-0107,small_airport,"Cottars Mara Airport",-1.680954,35.344401,5780,AF,KE,KE-700,,0,HKCC,,,,,"Cottars Camp",0,2016-06-16T01:16:13+00:00
318730,KE-0127,small_airport,"Kamogi Ranch Airstrip",0.601706,36.73699,,AF,KE,KE-700,,0,,,,,,,0,2016-06-15T07:55:52+00:00
318737,KE-0134,small_airport,"Kifuku Estate Airstrip",0.173081,36.583018,,AF,KE,KE-700,,0,,,,,,,0,2016-06-15T08:10:41+00:00
318743,KE-0140,small_airport,"Kisima Ranch Airstrip",0.512642,36.694537,,AF,KE,KE-700,,0,,,,,,,0,2016-06-15T08:24:48+00:00
318752,KE-0149,small_airport,"Langata Enerit Airstrip",-1.536513,36.020637,,AF,KE,KE-700,,0,,,,,,,0,2016-06-15T08:59:57+00:00
318753,KE-0150,small_airport,"Larsens Camp Airstrip",0.591385,37.586685,,AF,KE,KE-700,,0,,,,,,,0,2016-06-15T09:01:49+00:00
318759,KE-0156,small_airport,"Longonot Fair Airstrip",-0.817072,36.391407,,AF,KE,KE-700,,0,,,,,,,0,2016-06-15T09:17:24+00:00
318766,KE-0163,small_airport,"Mbaruk Airport",-0.397362,36.215325,,AF,KE,KE-700,,0,,,,,,,0,2016-06-15T09:39:58+00:00
318768,KE-0165,small_airport,"Milmet Airport",-0.1115,36.124334,,AF,KE,KE-700,,0,,,,,,,0,2016-06-15T09:42:14+00:00
318770,KE-0167,small_airport,"Mpala Farm Airstrip",0.353531,36.892033,,AF,KE,KE-700,,0,,,,,,,0,2016-06-15T09:47:54+00:00
318771,KE-0168,small_airport,"Mpala Research Center Airstrip",0.29012,36.892436,,AF,KE,KE-700,,0,,,,,,,0,2016-06-15T09:48:32+00:00
318773,KE-0170,small_airport,"Mukenye Ranch Airstrip",0.251711,36.805338,,AF,KE,KE-700,,0,,,,,,,0,2016-06-15T09:53:05+00:00
318800,KE-0173,small_airport,"Namunyak Airport",1.058237,37.437892,3200,AF,KE,KE-700,,0,,,,,,,0,2016-06-16T03:59:01+00:00
318801,KE-0174,small_airport,"Nariokotome Airport",4.114254,35.840039,1600,AF,KE,KE-700,,0,,,,,,,0,2016-06-16T04:00:14+00:00
318806,KE-0179,small_airport,"Ol Derkessi Airstrip",-1.713528,35.560338,6100,AF,KE,KE-700,,0,,,,,,,0,2016-06-16T04:23:40+00:00
318807,KE-0180,small_airport,"Ol Donyo Laro Airport",-1.813717,36.018261,4450,AF,KE,KE-700,,0,,,,,,,0,2016-06-16T04:24:33+00:00
318808,KE-0181,small_airport,"Ol Malo Lodge Airstrip",0.659821,36.868623,5500,AF,KE,KE-700,,0,,,,,,,0,2016-06-16T04:25:54+00:00
318809,KE-0182,small_airport,"Ol Seki Airstrip",-1.378382,35.378453,6500,AF,KE,KE-700,,0,,,,,,,0,2016-06-16T04:30:32+00:00
318810,KE-0183,small_airport,"Oryx Airport",0.60964,37.53018,3100,AF,KE,KE-700,,0,,,,,,,0,2016-06-16T04:41:10+00:00
318813,KE-0186,small_airport,"Rukinga Ranch Airstrip",-3.575566,38.760165,1767,AF,KE,KE-700,,0,,,,,,,0,2016-06-16T04:47:36+00:00
318814,KE-0187,small_airport,"Saguta Naibor Ranch Airstrip",0.431231,36.729133,5600,AF,KE,KE-700,,0,,,,,,,0,2016-06-16T04:50:47+00:00
318821,KE-0194,small_airport,"Sirocco Airstrip",-0.721299,36.28709,6100,AF,KE,KE-700,,0,,,,,,,0,2016-06-16T05:29:54+00:00
318824,KE-0195,small_airport,"Sosian Ranch Airstrip",0.418494,36.738667,5700,AF,KE,KE-700,,0,,,,,,,0,2016-06-17T02:20:23+00:00
318829,KE-0200,small_airport,"Tortilis Camp Airstrip",-2.683608,37.178328,3806,AF,KE,KE-700,,0,,,,,,,0,2016-06-17T02:36:38+00:00
326833,KE-0206,closed,"Ngoinio Estate Airport",-0.51839,35.071665,5636,AF,KE,KE-700,,0,,,,,,,0,2018-03-26T23:48:38+00:00
328908,KE-0207,small_airport,"Loisaba Airstrop",0.61196,36.800095,5744,AF,KE,KE-700,,0,,,,,,,0,2018-08-01T03:55:57+00:00
329819,KE-0208,small_airport,"Olare Orok Airfield",-1.324213,35.246106,5779,AF,KE,KE-700,,0,,,,,,,0,2018-12-11T17:05:55+00:00
318769,KE-0166,small_airport,"Mount Elgon Orchards Airstrip",1.209714,34.796225,,AF,KE,KE-900,,0,,,,,,,0,2016-06-15T09:45:56+00:00
318811,KE-0184,small_airport,"Oseur Airstrip",-1.606288,35.436835,5700,AF,KE,KE-U-A,,0,,,,,,,0,2016-06-16T04:42:49+00:00
318828,KE-0199,small_airport,"Tinderet Teas Estate Airstrip",-0.017443,35.351428,6700,AF,KE,KE-U-A,,0,,,,,,,0,2016-06-17T02:34:20+00:00
318690,KE-0087,small_airport,"Alale Airport",2.267596,35.029196,5000,AF,KE,KE-900,Alale,0,,,,,,,0,2016-06-15T05:01:11+00:00
318691,KE-0088,small_airport,"Alia Bay Airport",3.705058,36.262236,,AF,KE,KE-400,"Alia Bay",0,,,,,,,0,2016-06-15T05:06:04+00:00
318692,KE-0089,small_airport,"Arabia Airport",3.566973,41.511833,,AF,KE,KE-500,Arabia,0,,,,,,,0,2016-06-15T05:10:12+00:00
318694,KE-0091,small_airport,"Athi River Airport",-1.51094,37.034369,,AF,KE,KE-110,"Athi River",0,,,,,,,0,2016-06-15T05:13:05+00:00
318695,KE-0092,small_airport,"Bachuma Gate Airport",-3.663575,38.945339,1250,AF,KE,KE-300,Bachuma,0,,,,,,,0,2016-06-15T05:19:10+00:00
318696,KE-0093,small_airport,"Baragoi West Airport",1.807578,36.679137,,AF,KE,KE-700,Baragoi,0,,,,,,,0,2016-06-15T05:24:25+00:00
318697,KE-0094,small_airport,"Barsaloi Airport",1.340706,36.856679,,AF,KE,KE-700,Barsaloi,0,,,,,,,0,2016-06-15T05:26:56+00:00
318701,KE-0098,small_airport,"Bissel Airport",-2.136863,36.838493,,AF,KE,KE-700,Bissel,0,,,,,,,0,2016-06-15T05:47:05+00:00
318703,KE-0100,small_airport,"Bogani Airport",-1.014198,35.342806,,AF,KE,KE-700,Bogani,0,,,,,,,0,2016-06-15T05:52:17+00:00
318704,KE-0101,small_airport,"Bomet Airport",-0.776471,35.318411,,AF,KE,KE-600,Bomet,0,,,,,,,0,2016-06-15T05:54:00+00:00
318705,KE-0102,small_airport,"Buna Airport",2.80117,39.481787,,AF,KE,KE-500,Buna,0,,,,,,,0,2016-06-15T05:55:42+00:00
318543,KE-0081,small_airport,"Bura West Airport",-1.189574,39.81448,250,AF,KE,KE-300,"Bura West",0,,,,,,,0,2016-06-15T06:00:59+00:00
318706,KE-0103,small_airport,"Bute Moyale Airport",3.337517,39.41424,,AF,KE,KE-400,Bute,0,,,,,,,0,2016-06-15T06:07:51+00:00
318711,KE-0108,small_airport,"Dadaab Airstrip",0.058189,40.318055,400,AF,KE,KE-500,Dadaab,0,HKDA,,,,,,0,2016-06-16T00:59:43+00:00
318712,KE-0109,small_airport,"Dol Dol Airport",0.367944,37.141442,,AF,KE,KE-700,"Dol Dol",0,,,,,,,0,2016-06-15T06:34:59+00:00
318713,KE-0110,small_airport,"El Kantor Airport",1.465284,37.073011,,AF,KE,KE-700,"El Kantor",0,,,,,,,0,2016-06-15T06:36:37+00:00
318727,KE-0124,small_airport,"Jolai Delamere Estates Airport",-0.523628,36.187582,,AF,KE,KE-700,Elmenteita,0,,,,,,,0,2016-06-15T07:42:41+00:00
318714,KE-0111,small_airport,"Enasoit Airport",0.237853,37.077848,,AF,KE,KE-700,Enasoit,0,,,,,,,0,2016-06-15T07:03:09+00:00
318715,KE-0112,small_airport,"Engelesha Airport",0.510757,36.294394,,AF,KE,KE-U-A,Engelesha,0,,,,,,,0,2016-06-15T07:05:58+00:00
318717,KE-0114,small_airport,"Entesekera Airport",-1.842318,35.86778,,AF,KE,KE-700,Entesekera,0,,,,,,,0,2016-06-15T07:08:24+00:00
318720,KE-0117,small_airport,"Gatab Lower Airport",2.636477,36.932055,,AF,KE,KE-400,Gatab,0,,,,,,,0,2016-06-15T07:17:51+00:00
318721,KE-0118,small_airport,"Gilgil Coulson Airport",-0.502798,36.356915,,AF,KE,KE-700,Gilgil,0,,,,,,,0,2016-06-15T07:21:21+00:00
318723,KE-0120,small_airport,"Habaswein Airport",1.016215,39.505836,,AF,KE,KE-400,Habaswein,0,,,,,,,0,2016-06-15T07:30:55+00:00
318724,KE-0121,small_airport,"Ileret Main Airport",4.281881,36.266951,,AF,KE,KE-400,Ileret,0,,,,,,,0,2016-06-15T07:32:39+00:00
318725,KE-0122,small_airport,"Ileret Town Airport",4.304698,36.235572,,AF,KE,KE-400,Ileret,0,,,,,,,0,2016-06-15T07:38:41+00:00
318726,KE-0123,small_airport,"Ilkerin Airport",-1.806828,35.704339,,AF,KE,KE-700,Ilkerin,0,,,,,,,0,2016-06-15T07:40:48+00:00
318539,KE-0078,small_airport,"Kalacha Airport",3.134855,37.426236,,AF,KE,KE-400,Kalacha,0,,,,,,,0,2016-06-13T07:01:07+00:00
318728,KE-0125,small_airport,"Kalama Airport",0.69463,37.612912,,AF,KE,KE-U-A,Kalama,0,,,,,,,0,2016-06-15T07:48:33+00:00
318716,KE-0113,small_airport,"Entasopia Airport",-1.783522,36.057783,,AF,KE,KE-U-A,Kalema,0,,,,,,,0,2016-06-15T07:07:26+00:00
318729,KE-0126,small_airport,"Kamburu Airport",-0.823913,37.715869,,AF,KE,KE-400,Kamburu,0,,,,,,,0,2016-06-15T07:55:11+00:00
318731,KE-0128,small_airport,"Kanzi Airport",-2.75235,37.878257,,AF,KE,KE-700,Kanzi,0,,,,,,,0,2016-06-15T07:59:17+00:00
318689,KE-0086,small_airport,"Airspray Naivasha Airfield",-0.802034,36.411967,6200,AF,KE,KE-700,Karagita,0,,,,,,,0,2016-06-15T04:59:13+00:00
318702,KE-0099,small_airport,"Bobs Harries Airport",-1.040713,36.992879,,AF,KE,KE-U-A,Karamaini,0,,,,,,,0,2016-06-15T05:48:55+00:00
318700,KE-0097,small_airport,"Belatrix Kargi Airport",2.505995,37.565966,,AF,KE,KE-400,Kargi,0,,,,,,,0,2016-06-15T05:35:12+00:00
318732,KE-0129,small_airport,"Kasigau Gate Airport",-3.85072,38.515401,,AF,KE,KE-300,Kasigau,0,,,,,,,0,2016-06-15T08:04:49+00:00
318733,KE-0130,small_airport,"Kataboi Airport",3.756125,35.833843,,AF,KE,KE-700,Kataboi,0,,,,,,,0,2016-06-15T08:06:08+00:00
318734,KE-0131,small_airport,"Katilu Airport",2.284583,35.429495,,AF,KE,KE-700,Katilu,0,,,,,,,0,2016-06-15T08:07:12+00:00
318540,KE-0079,small_airport,"Kauro Airstrip",1.06402,37.720198,,AF,KE,KE-700,Kauro,0,,,,,,,0,2016-06-13T07:04:12+00:00
318735,KE-0132,small_airport,"Kedong Airport",-1.299226,36.475029,,AF,KE,KE-700,Kedong,0,,,,,,,0,2016-06-15T08:08:31+00:00
318764,KE-0161,small_airport,"Marinyn Airport",-0.436093,35.298761,,AF,KE,KE-600,Kericho,0,,,,,,,0,2016-06-15T09:33:52+00:00
318736,KE-0133,small_airport,"Kichwa Tembo Airport",-1.263497,35.027533,,AF,KE,KE-700,"Kichwa Tembo",0,,,,,,,0,2016-06-15T08:09:56+00:00
318738,KE-0135,small_airport,"Kijabe Airport",-0.956812,36.592155,,AF,KE,KE-700,Kijabe,0,,,,,,,0,2016-06-15T08:13:31+00:00
318740,KE-0137,small_airport,"Kimana Airstrip",-2.752942,37.525214,,AF,KE,KE-700,Kimana,0,,,,,,,0,2016-06-15T08:18:22+00:00
318741,KE-0138,small_airport,"Kipipri Airport",-0.454084,36.493097,,AF,KE,KE-700,Kipipri,0,,,,,,,0,2016-06-15T08:22:29+00:00
318742,KE-0139,small_airport,"Kipsin Airstrip",0.598082,37.319715,,AF,KE,KE-700,Kipsin,0,,,,,,,0,2016-06-15T08:23:17+00:00
318744,KE-0141,small_airport,"Koka Airport",-1.917027,36.004027,,AF,KE,KE-700,Koka,0,,,,,,,0,2016-06-15T08:31:47+00:00
318745,KE-0142,small_airport,"Kongoni Game Valley Airport",-0.843317,36.259475,,AF,KE,KE-700,Kongoni,0,,,,,,,0,2016-06-15T08:33:05+00:00
318746,KE-0143,small_airport,"Korr Airport",2.013786,37.516742,,AF,KE,KE-400,Korr,0,,,,,,,0,2016-06-15T08:41:48+00:00
318747,KE-0144,small_airport,"Korr AIM Airstrip",2.007568,37.492219,,AF,KE,KE-400,Korr,0,,,,,,,0,2016-06-15T08:42:51+00:00
318748,KE-0145,small_airport,"Kowop Airstrip",2.00616,36.8299,,AF,KE,KE-700,Kowop,0,,,,,,,0,2016-06-15T08:49:29+00:00
318749,KE-0146,small_airport,"Kuluo Airport",-1.12471,35.197795,,AF,KE,KE-700,Kuluo,0,,,,,,,0,2016-06-15T08:50:37+00:00
318750,KE-0147,small_airport,"Kuti Airport",0.645962,36.427784,,AF,KE,KE-700,Kuti,0,,,,,,,0,2016-06-15T08:55:41+00:00
318754,KE-0151,small_airport,"Latakwen Airport",1.547691,37.108677,,AF,KE,KE-700,Latakwen,0,,,,,,,0,2016-06-15T09:02:44+00:00
44470,KE-0076,small_airport,"Private Airstrip near Lenana",-0.16217799484729767,37.445899963378906,,AF,KE,KE-400,Lenana,0,,,,,,,0,2009-07-24T07:27:42+00:00
318755,KE-0152,small_airport,"Lenchukuti Airport",2.243084,36.670897,,AF,KE,KE-700,Lenchukuti,0,,,,,,,0,2016-06-15T09:04:31+00:00
318756,KE-0153,small_airport,"Lentille Airport",0.504473,37.006397,,AF,KE,KE-700,Lentille,0,,,,,,,0,2016-06-15T09:05:28+00:00
318538,KE-0077,small_airport,"Log Logo Airstrip",1.994582,37.916434,,AF,KE,KE-400,"Log Logo",0,,,,,,,0,2016-06-13T06:13:25+00:00
318760,KE-0157,small_airport,"Lowarengak Airport",4.283992,35.874055,,AF,KE,KE-700,Lowarengak,0,,,,,,,0,2016-06-15T09:18:24+00:00
326822,KE-0205,closed,"MacAlder Airport",-0.957591,34.306287,4074,AF,KE,KE-600,"MacAlder Mines",0,,,,,,,0,2018-03-25T14:40:15+00:00
318751,KE-0148,small_airport,"Manda Point Airstrip",-2.228949,40.971447,,AF,KE,KE-300,"Manda Island",0,,,,,,,0,2016-06-15T08:57:49+00:00
318763,KE-0160,small_airport,"Manyani Airport",-3.094749,38.476476,,AF,KE,KE-300,Manyani,0,,,,,,,0,2016-06-15T09:24:25+00:00
318542,KE-0080,small_airport,"Baomo Tana Airport",-1.847326,40.091586,200,AF,KE,KE-300,Maroni,0,,,,,,,0,2016-06-15T05:21:01+00:00
318817,KE-0190,small_airport,"Segel Airprot",2.544761,37.944126,2000,AF,KE,KE-400,Marsabit,0,,,,,,,0,2016-06-16T05:06:03+00:00
318774,KE-0171,small_airport,"Mutomo Airport",-1.846779,38.204732,,AF,KE,KE-400,Mutomo,0,,,,,,,0,2016-06-15T09:57:46+00:00
318798,KE-0172,small_airport,"Mwatate Airport",-3.517815,38.442556,2580,AF,KE,KE-300,Mwatate,0,,,,,,,0,2016-06-16T03:55:51+00:00
318698,KE-0095,small_airport,"Barton's Naivasha Airport",-0.795118,36.295698,,AF,KE,KE-700,Naivasha,0,,,,,,,0,2016-06-15T05:30:00+00:00
318699,KE-0096,small_airport,"Crescent Island Naivasha Airport",-0.767433,36.397561,,AF,KE,KE-700,Naivasha,0,,,,,,,0,2016-06-15T05:31:15+00:00
318812,KE-0185,small_airport,"Perror Airport",2.846734,35.050887,2500,AF,KE,KE-700,Namoruputh,0,,,,,,,0,2016-06-16T04:44:52+00:00
44467,KE-0075,medium_airport,"Laikipia Air Base",0.032933201640844345,37.02690124511719,,AF,KE,KE-700,Nanyuki,0,,,,,,,0,2009-07-24T07:30:27+00:00
318802,KE-0175,small_airport,"National Park Airstrip",-0.170666,37.136612,7500,AF,KE,KE-200,"Naro Moru",0,,,,,,,0,2016-06-16T04:04:34+00:00
318803,KE-0176,small_airport,"Ngalai Airport",1.170659,37.252765,4150,AF,KE,KE-700,Ngalai,0,,,,,,,0,2016-06-16T04:08:07+00:00
318804,KE-0177,small_airport,"Ngao Airport",-2.42834,40.193087,150,AF,KE,KE-300,Ngao,0,,,,,,,0,2016-06-16T04:13:09+00:00
318805,KE-0178,small_airport,"Ngurunit South Airport",1.735737,37.3216,3200,AF,KE,KE-700,Ngurunit,0,,,,,,,0,2016-06-16T04:19:39+00:00
318722,KE-0119,small_airport,"Gogar Airport",-0.18786,35.856818,,AF,KE,KE-700,Rongai,0,,,,,,,0,2016-06-15T07:22:31+00:00
318707,KE-0104,small_airport,"Carzan Rongai Airport",-0.191457,35.864189,,AF,KE,KE-U-A,Rongai,0,,,,,,,0,2016-06-15T07:25:05+00:00
318816,KE-0189,small_airport,"Seder Airport",2.314229,36.88698,2850,AF,KE,KE-400,Seder,0,,,,,,,0,2016-06-16T05:03:44+00:00
318708,KE-0105,small_airport,"Chaffa Airport",0.667151,37.910007,,AF,KE,KE-400,Shaba,0,,,,,,,0,2016-06-15T06:15:43+00:00
318820,KE-0193,small_airport,"Sigor Airport",1.58209,35.471191,3000,AF,KE,KE-700,Sigor,0,,,,,,,0,2016-06-16T05:28:48+00:00
318825,KE-0196,small_airport,"South Horr Airport",2.172091,36.906929,2900,AF,KE,KE-700,"South Horr",0,,,,,,,0,2016-06-17T02:23:08+00:00
318827,KE-0198,small_airport,"Sware Airport",1.077515,37.092131,4100,AF,KE,KE-700,Sware,0,,,,,,,0,2016-06-17T02:26:49+00:00
318833,KE-0204,small_airport,"Weavers Airstrip",-1.363068,35.189882,5000,AF,KE,KE-700,Talek,0,,,,,,,0,2016-06-17T02:47:34+00:00
325692,HKTW,small_airport,"Tawi airfield",-2.73,37.427,3800,AF,KE,KE-900,Tawi,0,HKTW,,,,,,0,2017-12-02T11:55:03+00:00
318758,KE-0155,small_airport,"Lolomarik Airport",0.107106,37.278907,,AF,KE,KE-700,Timau,0,,,,,,,0,2016-06-15T09:16:04+00:00
318831,KE-0202,small_airport,"Tum Airport",2.141479,36.759077,4500,AF,KE,KE-700,Tum,0,,,,,,,0,2016-06-17T02:42:45+00:00
318826,KE-0197,small_airport,"St. Andrews School Airstrip",-0.273941,35.767293,8236,AF,KE,KE-700,Turi,0,,,,,,,0,2016-06-17T02:25:45+00:00
