id,ident,type,name,latitude_deg,longitude_deg,elevation_ft,continent,iso_country,iso_region,municipality,scheduled_service,gps_code,iata_code,local_code,home_link,wikipedia_link,keywords,score,last_updated
"#meta +id","#meta +code","#loc +airport +type","#loc +airport +name","#geo +lat","#geo +lon","#geo +elevation +ft","#region +continent +code","#country +code +iso2","#adm1 +code +iso","#loc +municipality +name","#status +scheduled","#loc +airport +code +gps","#loc +airport +code +iata","#loc +airport +code +local","#meta +url +airport","#meta +url +wikipedia","#meta +keywords","#meta +score","#date +updated"
2908,FMMI,large_airport,"Ivato Airport",-18.7969,47.478802,4198,AF,MG,MG-T,Antananarivo,1,FMMI,TNR,,,http://en.wikipedia.org/wiki/Ivato_Airport,,1050,2019-01-13T13:39:04+00:00
2920,FMNN,medium_airport,"Fascene Airport",-13.3121004105,48.3148002625,36,AF,MG,MG-D,"Nosy Be",1,FMNN,NOS,,,http://en.wikipedia.org/wiki/Fascene_Airport,,875,2010-08-30T12:58:13+00:00
2933,FMST,medium_airport,"Toliara Airport",-23.383399963378906,43.72850036621094,29,AF,MG,MG-U,,1,FMST,TLE,,,http://en.wikipedia.org/wiki/Toliara_Airport,,800,2008-06-13T14:30:04+00:00
2907,FMMA,small_airport,"Antananarivo Arivonimamo Airport",-19.02899932861328,47.17179870605469,4757,AF,MG,MG-T,,0,FMMA,,,,,,50,2008-06-13T14:30:04+00:00
2911,FMMT,medium_airport,"Toamasina Airport",-18.109500885009766,49.39250183105469,22,AF,MG,MG-A,,1,FMMT,TMM,,,http://en.wikipedia.org/wiki/Toamasina_Airport,,1050,2008-06-13T14:30:04+00:00
2910,FMMS,medium_airport,"Sainte Marie Airport",-17.093900680541992,49.815799713134766,7,AF,MG,MG-A,,1,FMMS,SMS,,,http://en.wikipedia.org/wiki/Saints_Marie_Airport,,875,2008-09-25T12:05:33+00:00
2913,FMNA,medium_airport,"Arrachart Airport",-12.34939956665039,49.29169845581055,374,AF,MG,MG-D,,1,FMNA,DIE,,,http://en.wikipedia.org/wiki/Arrachart_Airport,,875,2008-06-13T14:30:04+00:00
2919,FMNM,medium_airport,"Amborovy Airport",-15.6668417421,46.351232528699995,87,AF,MG,MG-M,,1,FMNM,MJN,,,http://en.wikipedia.org/wiki/Amborovy_Airport,"Philibert Tsiranana Airport, Mahajanga",875,2011-08-03T23:24:46+00:00
2912,FMMV,medium_airport,"Morondava Airport",-20.284700393676758,44.31760025024414,30,AF,MG,MG-U,,1,FMMV,MOQ,,,http://en.wikipedia.org/wiki/Morondava_Airport,,825,2008-06-13T14:30:04+00:00
2928,FMSF,medium_airport,"Fianarantsoa Airport",-21.441600799560547,47.111698150634766,3658,AF,MG,MG-F,,1,FMSF,WFI,,,http://en.wikipedia.org/wiki/Fianarantsoa_Airport,,800,2008-06-13T14:30:04+00:00
2932,FMSR,medium_airport,"Morombe Airport",-21.7539005279541,43.3754997253418,16,AF,MG,MG-U,,1,FMSR,MXM,,,http://en.wikipedia.org/wiki/Morombe_Airport,,800,2008-06-13T14:30:04+00:00
2927,FMSD,medium_airport,"Tôlanaro Airport",-25.03809928894043,46.95610046386719,29,AF,MG,MG-U,Tôlanaro,1,FMSD,FTU,,,http://en.wikipedia.org/wiki/T%C3%B4lanaro_Airport,"Tolagnaro Airport, Marillac Airport",800,2008-06-13T14:30:04+00:00
31668,FMSI,small_airport,"Ihosy Airport",-22.404720202399997,46.1649370193,2500,AF,MG,MG-F,Ihosy,0,FMSI,IHO,,,,,50,2011-08-03T23:13:24+00:00
308935,MG-0002,small_airport,"Anjajavy Airport",-15.0231,47.2325,80,AF,MG,MG-M,Anjajavy,0,,,,,,,0,2013-06-30T14:56:06+00:00
2922,FMNR,medium_airport,"Maroantsetra Airport",-15.436699867248535,49.68830108642578,13,AF,MG,MG-A,,1,FMNR,WMN,,,http://en.wikipedia.org/wiki/Maroantsetra_Airport,,800,2008-06-13T14:30:04+00:00
2917,FMNH,medium_airport,"Antsirabato Airport",-14.99940013885498,50.3202018737793,20,AF,MG,MG-D,,1,FMNH,ANM,,,http://en.wikipedia.org/wiki/Antsirabato_Airport,,800,2008-06-13T14:30:04+00:00
2923,FMNS,medium_airport,"Sambava Airport",-14.278599739074707,50.17470169067383,20,AF,MG,MG-D,,1,FMNS,SVB,,,http://en.wikipedia.org/wiki/Sambava_Airport,,800,2008-06-13T14:30:04+00:00
2924,FMNV,medium_airport,"Vohimarina Airport",-13.375800132751465,50.00279998779297,19,AF,MG,MG-D,,1,FMNV,VOH,,,http://en.wikipedia.org/wiki/Vohemar_Airport,,800,2008-09-25T12:14:06+00:00
2930,FMSK,medium_airport,"Manakara Airport",-22.119699478149414,48.02170181274414,33,AF,MG,MG-F,,1,FMSK,WVK,,,http://en.wikipedia.org/wiki/Manakara_Airport,,800,2008-06-13T14:30:04+00:00
2931,FMSM,medium_airport,"Mananjary Airport",-21.201799392700195,48.358299255371094,20,AF,MG,MG-F,,1,FMSM,MNJ,,,http://en.wikipedia.org/wiki/Mananjary_Airport,,800,2008-06-13T14:30:04+00:00
2918,FMNL,medium_airport,"Analalava Airport",-14.62969970703125,47.76380157470703,345,AF,MG,MG-M,,1,FMNL,HVA,,,http://en.wikipedia.org/wiki/Analalava_Airport,,800,2008-09-25T12:01:19+00:00
2921,FMNQ,medium_airport,"Besalampy Airport",-16.744530296500002,44.4824838638,125,AF,MG,MG-M,,1,FMNQ,BPY,,,http://en.wikipedia.org/wiki/Besalampy_Airport,,800,2011-08-03T23:22:15+00:00
2909,FMMN,medium_airport,"Miandrivazo Airport",-19.56279945373535,45.450801849365234,203,AF,MG,MG-U,,1,FMMN,ZVA,,,http://en.wikipedia.org/wiki/Miandrivazo_Airport,,800,2008-06-13T14:30:04+00:00
2925,FMNW,medium_airport,"Ambalabe Airport",-14.898799896240234,47.993900299072266,92,AF,MG,MG-M,Antsohihy,1,FMNW,WAI,,,http://en.wikipedia.org/wiki/Ambalabe_Airport,,800,2009-02-16T21:01:09+00:00
2914,FMNC,medium_airport,"Mananara Nord Airport",-16.16390037536621,49.773799896240234,9,AF,MG,MG-A,"Mananara Nord",1,FMNC,WMR,,,http://en.wikipedia.org/wiki/Mananara_Nord_Airport,"Avaratra Airport",800,2008-06-13T14:30:04+00:00
2929,FMSG,small_airport,"Farafangana Airport",-22.805299758911133,47.82059860229492,26,AF,MG,MG-F,,1,FMSG,RVA,,,http://en.wikipedia.org/wiki/Farafangana_Airport,,450,2008-06-13T14:30:04+00:00
31688,FMNJ,small_airport,"Ambanja Airport",-13.645705,48.459427,36,AF,MG,MG-D,Ambanja,1,FMNJ,,,,,,450,2016-07-10T10:53:21+00:00
32630,FMMZ,small_airport,"Ambatondrazaka Airport",-17.795378,48.442583,2513,AF,MG,MG-A,Ambatondrazaka,1,FMMZ,WAM,,,https://en.wikipedia.org/wiki/Ambatondrazaka_Airport,,450,2018-09-16T04:26:52+00:00
31715,FMMK,small_airport,"Ankavandra Airport",-18.80501,45.273467,427,AF,MG,MG-U,Ankavandra,1,FMMK,JVA,,,https://en.wikipedia.org/wiki/Ankavandra_Airport,,450,2018-09-16T04:27:24+00:00
32633,FMMG,small_airport,"Antsalova Airport",-18.701273,44.614921,551,AF,MG,MG-M,Antsalova,1,FMMG,WAQ,,,https://en.wikipedia.org/wiki/Antsalova_Airport,,450,2018-09-16T04:27:51+00:00
30774,FMML,small_airport,"Belo sur Tsiribihina Airport",-19.6867008209,44.541900634799994,154,AF,MG,MG-U,"Belo sur Tsiribihina",1,FMML,BMD,,,http://en.wikipedia.org/wiki/Belo_sur_Tsiribihina_Airport,,450,2011-10-05T00:28:27+00:00
31982,FMMO,small_airport,"Maintirano Airport",-18.049999,44.033001,95,AF,MG,MG-M,Maintirano,1,FMMO,MXT,,,https://en.wikipedia.org/wiki/Maintirano_Airport,,450,2018-09-16T03:27:17+00:00
35210,FMNP,small_airport,"Mampikony Airport",-16.0722693402,47.644164562200004,,AF,MG,MG-M,Mampikony,1,FMNP,WMP,,,http://en.wikipedia.org/wiki/Mampikony_Airport,,450,2011-08-03T23:27:53+00:00
32659,FMNX,small_airport,"Mandritsara Airport",-15.833049,48.833284,1007,AF,MG,MG-M,Mandritsara,1,FMNX,WMA,,,https://en.wikipedia.org/wiki/Mandritsara_Airport,,450,2018-09-16T03:26:48+00:00
31912,FMSJ,small_airport,"Manja Airport",-21.426105,44.316509,787,AF,MG,MG-U,Manja,1,FMSJ,MJA,,,https://en.wikipedia.org/wiki/Manja_Airport,,450,2018-09-16T03:25:55+00:00
32484,FMMR,small_airport,"Morafenobe Airport",-17.850083,44.920467,748,AF,MG,MG-M,Morafenobe,1,FMMR,TVA,,,https://en.wikipedia.org/wiki/Morafenobe_Airport,,450,2018-09-16T03:25:09+00:00
32673,FMNG,small_airport,"Port Bergé Airport",-15.584286,47.623587,213,AF,MG,MG-M,"Port Bergé",1,FMNG,WPB,,,https://en.wikipedia.org/wiki/Port_Bergé_Airport,,450,2018-09-16T03:21:30+00:00
30951,FMNO,small_airport,"Soalala Airport",-16.10169,45.358837,141,AF,MG,MG-M,Soalala,1,FMNO,DWB,,,https://en.wikipedia.org/wiki/Soalala_Airport,,450,2018-09-16T03:17:48+00:00
32678,FMMU,small_airport,"Tambohorano Airport",-17.47610092163086,43.972801208496094,23,AF,MG,MG-M,Tambohorano,1,FMMU,WTA,,,,,450,2008-08-03T11:30:51+00:00
32481,FMNT,small_airport,"Tsaratanana Airport",-16.751064,47.619016,1073,AF,MG,MG-M,Tsaratanana,1,FMNT,TTS,,,https://en.wikipedia.org/wiki/Tsaratanana_Airport,,450,2018-09-16T03:11:48+00:00
32682,FMMX,small_airport,"Tsiroanomandidy Airport",-18.759677,46.054065,2776,AF,MG,MG-T,Tsiroanomandidy,1,FMMX,WTS,,,https://en.wikipedia.org/wiki/Tsiroanomandidy_Airport,,450,2018-09-16T03:09:57+00:00
2915,FMND,medium_airport,"Andapa Airport",-14.651700019836426,49.620601654052734,1552,AF,MG,MG-D,,0,FMND,ZWA,,,,,250,2008-06-13T14:30:04+00:00
2916,FMNE,small_airport,"Ambilobe Airport",-13.188400268554688,48.987998962402344,72,AF,MG,MG-D,,0,FMNE,AMB,,,,,50,2008-06-13T14:30:04+00:00
2926,FMNZ,small_airport,"Ampampamena Airport",-13.484816,48.632702,49,AF,MG,MG-D,,0,FMNZ,IVA,,,https://en.wikipedia.org/wiki/Ampampamena_Airport,,50,2016-07-10T11:19:59+00:00
4641,FM43,small_airport,"Antsiranana Andrakaka Airport",-12.2561,49.2542,200,AF,MG,MG-D,,0,FMNK,,FM43,,,,50,2017-05-03T22:26:22+00:00
31187,FMSA,small_airport,"Ambalavao Airport",-21.814891018799997,46.914024353,3189,AF,MG,MG-F,Ambalavao,0,FMSA,,,,,,50,2011-08-03T23:46:14+00:00
31185,FMMJ,small_airport,"Ambohijanahary Airport",-17.4644789611,48.3267116547,2496,AF,MG,MG-A,Ambohijanahary,0,FMMJ,,,,,,50,2011-08-03T23:29:42+00:00
30642,FMSY,small_airport,"Ampanihy Airport",-24.69969940185547,44.73419952392578,771,AF,MG,MG-U,Ampanihy,0,FMSY,AMP,,,,,50,2008-08-03T11:31:28+00:00
31186,FMMP,small_airport,"Amparafaravola Airport",-17.6545730219,48.2144451141,2576,AF,MG,MG-A,Amparafaravola,0,FMMP,,,,,,50,2011-08-03T23:30:04+00:00
32628,FMSZ,small_airport,"Ankazoabo Airport",-22.2964423522,44.5315361023,1411,AF,MG,MG-U,Ankazoabo,0,FMSZ,WAK,,,,,50,2011-08-03T23:15:24+00:00
30656,FMME,small_airport,"Antsirabe Airport",-19.8392214824,47.063713073699994,4997,AF,MG,MG-T,Antsirabe,0,FMME,ATJ,,,,,50,2011-08-03T23:41:32+00:00
32636,FMNF,small_airport,"Avaratra Airport",-15.199999809265137,48.483001708984375,820,AF,MG,MG-M,Befandriana,0,FMNF,WBD,,,,,50,2008-08-03T11:30:59+00:00
32136,FMSL,small_airport,"Bekily Airport",-24.235694754699995,45.3045272827,1270,AF,MG,MG-U,Bekily,0,FMSL,OVA,,,,,50,2011-08-03T23:14:23+00:00
32644,FMSB,small_airport,"Antsoa Airport",-21.606983764699997,45.136020183599996,820,AF,MG,MG-U,Beroroha,0,FMSB,WBO,,,,,50,2011-08-03T23:15:53+00:00
30766,FMSV,small_airport,"Betioky Airport",-23.732999801635742,44.388999938964844,919,AF,MG,MG-U,Betioky,0,FMSV,BKU,,,,,50,2008-08-03T11:31:27+00:00
31188,FMSE,small_airport,"Betroka Airport",-23.274307848299998,46.12498283389999,2841,AF,MG,MG-U,Betroka,0,FMSE,,,,,,50,2011-08-03T23:13:58+00:00
30933,MG-DOA,small_airport,"Doany Airport",-14.3681001663208,49.510799407958984,,AF,MG,MG-D,Doany,0,,DOA,,,,,50,2008-08-03T11:44:55+00:00
31672,FMMQ,small_airport,"Atsinanana Airport",-19.58300018310547,48.803001403808594,33,AF,MG,MG-A,Ilaka,0,FMMQ,ILK,,,,,50,2008-08-03T11:30:48+00:00
32604,FMMH,small_airport,"Mahanoro Airport",-19.83300018310547,48.79999923706055,16,AF,MG,MG-A,Mahanoro,0,FMMH,VVB,,,,,50,2008-08-03T11:30:36+00:00
32671,FMMC,small_airport,"Malaimbandy Airport",-20.355390292099997,45.5433726311,597,AF,MG,MG-U,Malaimbandy,0,FMMC,WML,,,,,50,2011-08-03T23:45:29+00:00
32670,FMSC,small_airport,"Mandabe Airport",-21.0463049303,44.9404120445,951,AF,MG,MG-U,Mandabe,0,FMSC,WMD,,,,,50,2011-08-03T23:16:59+00:00
32431,FMSN,small_airport,"Samangoky Airport",-21.700000762939453,43.733001708984375,89,AF,MG,MG-U,Tanandava,0,FMSN,TDV,,,,,50,2008-08-03T11:31:25+00:00
41919,FMSU,small_airport,"Vangaindrano Airport",-23.350766591499998,47.581701278699995,45,AF,MG,MG-F,Vangaindrano,0,FMSU,VND,,,,,50,2012-12-15T13:00:49+00:00
32566,FMMY,small_airport,"Vatomandry Airport",-19.383333,48.95,39,AF,MG,MG-A,Vatomandry,0,FMMY,VAT,,,,,50,2010-10-18T11:12:47+00:00
301758,AMY,small_airport,"Ambatomainty Airport",-17.6866666667,45.623888888900005,1025,AF,MG,MG-M,,0,,AMY,,,,,0,2012-06-17T15:59:04+00:00
299324,AHY,small_airport,"Ambatolhy Airport",-20.015833333299998,45.535,340,AF,MG,MG-U,Ambatolahy,0,,AHY,,,,,0,2011-09-04T02:21:10+00:00
318414,MG-0003,small_airport,"Amboasary Sud Airport",-25.075585,46.393433,,AF,MG,MG-U,"Amboasary Sud",0,,,,,,,0,2016-06-09T06:42:25+00:00
318858,MG-0012,small_airport,"Ambodiatafa Airport",-16.739423,49.972078,,AF,MG,MG-A,Ambodiatafa,0,,,,,,,0,2016-06-17T07:06:01+00:00
318420,MG-0009,small_airport,"Ambovombe Airport",-25.204247,46.071143,,AF,MG,MG-U,Ambovombe,0,,,,,,,0,2016-06-09T06:52:28+00:00
318121,DVD,small_airport,"Andavadoaka Airport",-22.06608,43.259573,30,AF,MG,MG-U,Andavadoaka,0,,DVD,,,https://en.wikipedia.org/wiki/Andavadoaka_Airport,,0,2016-05-28T16:27:55+00:00
316463,WAD,small_airport,"Andriamena Airport",-17.631,47.7233,2475,AF,MG,MG-M,Andriamena,0,,WAD,,,,,0,2015-12-04T11:50:10+00:00
318415,MG-0004,small_airport,"Antanimora Airport",-24.84006,45.675457,,AF,MG,MG-U,Antanimora,0,,,,,,,0,2016-06-09T06:43:59+00:00
302391,BZM,small_airport,"Bemolanga Airport",-17.6925,45.0888333333,950,AF,MG,MG-M,Bemolanga,0,,BZM,,,,,0,2012-08-09T15:58:39+00:00
302396,BSV,small_airport,"Besakoa Airport",-15.6725,47.0616666667,40,AF,MG,MG-M,Besakoa,0,,BSV,,,,,0,2012-08-09T21:53:39+00:00
300253,FMBI,small_airport,"Betainomby Airport",-18.1958013864,49.348526001,40,AF,MG,MG-A,Betainomby,0,FMFZ,,MBI,,,,0,2012-04-08T14:23:34+00:00
318417,MG-0006,small_airport,"Fotadrevo Airport",-24.031299,45.026573,,AF,MG,MG-U,Fotadrevo,0,,,,,,,0,2016-06-09T06:47:56+00:00
318418,MG-0007,small_airport,"Ifotaka Airport",-24.820849,46.153777,,AF,MG,MG-U,Ifotaka,0,,,,,,,0,2016-06-09T06:49:44+00:00
318416,MG-0005,small_airport,"Itampolo Airport",-24.691968,43.950994,,AF,MG,MG-U,Itampolo,0,,,,,,,0,2016-06-09T06:45:42+00:00
318422,MG-0011,small_airport,"Maromby Airport",-24.382498,46.556238,,AF,MG,MG-U,Maromby,0,,,,,,,0,2016-06-09T07:17:16+00:00
301200,MG-0001,small_airport,"Ambohibary Airport",-18.9175,48.2181944444,2960,AF,MG,MG-A,Moramanga,0,FMFE,OHB,OMB,,,"Moramanga Aérodrome, Ambatovy Mine",0,2015-09-11T16:05:58+00:00
318421,MG-0010,small_airport,"Tranoroa Airport",-24.717074,45.059513,,AF,MG,MG-U,Tranoroa,0,,,,,,,0,2016-06-09T07:06:07+00:00
318419,MG-0008,small_airport,"Tsihombe Airport",-25.338352,45.476395,,AF,MG,MG-U,Tsihombe,0,,,,,,,0,2016-06-09T06:51:02+00:00
