id,ident,type,name,latitude_deg,longitude_deg,elevation_ft,continent,iso_country,iso_region,municipality,scheduled_service,gps_code,iata_code,local_code,home_link,wikipedia_link,keywords,score,last_updated
"#meta +id","#meta +code","#loc +airport +type","#loc +airport +name","#geo +lat","#geo +lon","#geo +elevation +ft","#region +continent +code","#country +code +iso2","#adm1 +code +iso","#loc +municipality +name","#status +scheduled","#loc +airport +code +gps","#loc +airport +code +iata","#loc +airport +code +local","#meta +url +airport","#meta +url +wikipedia","#meta +keywords","#meta +score","#date +updated"
4610,LYBE,large_airport,"Belgrade Nikola Tesla Airport",44.8184013367,20.3090991974,335,EU,RS,RS-00,Belgrade,1,LYBE,BEG,,http://www.beg.aero/,http://en.wikipedia.org/wiki/Belgrade_Nikola_Tesla_Airport,"Beograd, Surčin Airport",1275,2014-03-22T11:38:00+00:00
4612,LYNI,medium_airport,"Nis Airport",43.337299,21.853701,648,EU,RS,RS-20,Nis,1,LYNI,INI,,,http://en.wikipedia.org/wiki/Ni%C5%A1_Constantine_the_Great_Airport,,875,2009-10-20T12:07:03+00:00
46639,LYSP,small_airport,"Rudine airfield",44.351389,20.96,,EU,RS,RS-16,"Smederevska palanka",0,LYSP,,,,,,0,2016-05-01T12:00:18+00:00
4611,LYBT,medium_airport,"Batajnica Air Base",44.935299,20.2575,265,EU,RS,RS-07,Batajnica,0,LYBT,BJY,,,http://en.wikipedia.org/wiki/Batajnica_Air_Base,,250,2009-10-20T12:07:03+00:00
4616,LYVR,small_airport,"Vršac International Airport",45.1469,21.3099,276,EU,RS,RS-04,,0,LYVR,,,,http://en.wikipedia.org/wiki/Vr%C5%A1ac_International_Airport,,50,2009-10-20T12:07:03+00:00
32190,LYNS,small_airport,"Cenej Airport",45.385799,19.839199,266,EU,RS,RS-06,"Novi Sad",0,LYNS,QND,,,,,50,2009-10-20T12:07:03+00:00
301358,LYBJ,small_airport,"Airport Lisicji Jarak",44.9397222,20.4455556,233,EU,RS,RS-00,Belgrade,0,LYBJ,,,,http://en.wikipedia.org/wiki/Lisi%C4%8Dji_Jarak_Airport,"Лисичји Јарак, Beograd-Lisičji Jarak",0,2016-09-18T05:19:38+00:00
319554,LYKA,small_airport,"Kraljevo Brege",43.7318,20.717969,660,EU,RS,RS-18,Kraljevo,0,LYKA,,,,,"Aeroklub „Mihajlo Petrović”",0,2016-07-20T08:15:10+00:00
302301,LYZR,small_airport,"Zrenjanin Airport",45.339756,20.454078,246,EU,RS,RS-02,Zrenjanin,0,LYZR,,,,http://en.wikipedia.org/wiki/Zrenjanin_Airport,,0,2016-10-31T11:09:06+00:00
1649,LY88,small_airport,"Ponikve Airport",43.898899,19.697701,2966,EU,RS,RS-16,Užice,0,LYUZ,,,http://aerodromponikve.rs,http://en.wikipedia.org/wiki/U%C5%BEice-Ponikve_Airport,"Аеродром Ужице-Поникве, Lepa Glava",75,2017-10-25T12:15:28+00:00
1648,LY87,small_airport,"Kovin Airport",44.7743,20.9613,280,EU,RS,RS-04,,0,,,,,,,50,2017-10-19T05:01:04+00:00
34926,RS-0001,small_airport,"Bela Crkva Airport",44.925166,21.370155,246,EU,RS,RS-04,"Bela Crkva",0,LYBC,,,,http://en.wikipedia.org/wiki/Bela_Crkva_Airport,,50,2016-09-25T08:10:42+00:00
34927,RS-0002,small_airport,"Bojnik Airport",42.997299,21.721901,929,EU,RS,RS-21,Bojnik,0,,,,,http://en.wikipedia.org/wiki/Bojnik_Airport,,50,2009-10-20T12:07:03+00:00
1650,LY89,small_airport,"Bor Airport",44.0182,22.1371,1266,EU,RS,RS-14,Bor,0,LYBO,,,,http://en.wikipedia.org/wiki/Bor_Airport,Бор,50,2017-10-21T01:34:03+00:00
31872,LYKV,small_airport,"Morava Airport",43.818298,20.5872,686,EU,RS,RS-18,Kraljevo,1,LYKV,,,,http://en.wikipedia.org/wiki/Morava_Airport,"Lađevci Airport",50,2013-11-16T09:16:33+00:00
316358,RS-0009,small_airport,"Banjički Vis Heliport",44.7623,20.4714,584,EU,RS,RS-00,,0,,,,,https://en.wikipedia.org/wiki/Banji%C4%8Dki_Vis_Military_Base,,0,2015-11-15T12:52:45+00:00
321795,RS-0013,small_airport,"Vršački Ritovi Airstrip",45.1594444,21.185,246,EU,RS,RS-04,,0,,,,,,,0,2017-01-11T02:40:27+00:00
320358,RS-0010,small_airport,Bogatić,44.8266667,19.4997222,276,EU,RS,RS-U-A,,0,,,,,,,0,2016-09-18T05:32:36+00:00
320360,LYPN,small_airport,Paracín,43.8663889,21.4869444,144,EU,RS,RS-U-A,,0,LYPN,,,,,Davidovic,0,2016-09-18T06:04:49+00:00
325762,RS-0005,small_airport,"Aerodrom Vojka Nova Pazova",44.9343253,20.1716347,,EU,RS,RS-U-A,,0,,,,,,,0,2017-12-09T05:10:09+00:00
309974,LYCA,small_airport,"Čačak-Preljina Airport",43.8981,20.435,776,EU,RS,RS-17,Čačak,0,LYCA,,,,http://en.wikipedia.org/wiki/%C4%8Ca%C4%8Dak-Preljina_Airport,"Ravan Airport, Аеродром Чачак-Прељина, Раван",0,2013-12-23T12:44:31+00:00
301369,LYKI,small_airport,"Kikinda Airfield",45.768122,20.417261,266,EU,RS,RS-02,Kikinda,0,LYKI,,,,http://en.wikipedia.org/wiki/Kikinda_Airfield,"Drahslerov Salaš",0,2017-02-05T02:15:52+00:00
315698,RS-0008,small_airport,"Sportski Aerodrom ""Kozhirsko Polje""",43.5634552,21.3362595,,EU,RS,RS-19,Kruševac,0,LYKS,,,,,,0,2015-10-07T16:19:52+00:00
320389,LYLE,small_airport,"Sportski Aerodrom Mira",43.019665,21.931963,738,EU,RS,RS-23,Leskovac,0,LYLE,,,,https://en.wikipedia.org/wiki/Mira_Airport,"Аеродром Мира",0,2016-09-20T07:31:17+00:00
313480,LYPA,small_airport,"Pančevo Airfield",44.9,20.641002,245,EU,RS,RS-04,Pančevo,0,LYPA,,,,http://en.wikipedia.org/wiki/Pan%C4%8Devo_Airport,QBG,0,2017-01-07T12:15:05+00:00
317132,RS-0004,closed,"Sjenica Air Base",43.273784,20.046188,,EU,RS,RS-16,Sjenica,0,,,,,,"војни аеродром Дубиње",0,2016-04-27T11:53:09+00:00
315691,RS-0007,small_airport,"Smederevo Airport",44.6439,20.9623,223,EU,RS,RS-10,Smederevo,0,LYSD,,,,https://en.wikipedia.org/wiki/Smederevo_Airport,,0,2016-06-02T08:42:06+00:00
308326,LYSO,closed,"Sombor Airport",45.722333,19.057843,275,EU,RS,RS-05,Sombor,0,LYSO,,,,http://en.wikipedia.org/wiki/Sombor_Airport,Сомбор,0,2017-04-01T14:02:59+00:00
329651,RS-0006,small_airport,"Backi Monostor Airfield",45.7850337,19.0191747,,EU,RS,RS-05,Sombor,0,,,,,,,0,2018-11-08T11:08:05+00:00
308327,LYSM,small_airport,"Veliki Radinci Airfield",45.037453,19.660661,320,EU,RS,RS-07,"Sremska Mitrovica",0,LYSM,,,,http://en.wikipedia.org/wiki/Sremska_Mitrovica_Airport,,0,2013-03-07T13:50:43+00:00
308323,LYSU,small_airport,"Subotica Airport",46.022837,19.706454,340,EU,RS,RS-01,Subotica,0,LYSU,,,,http://en.wikipedia.org/wiki/Subotica_Airport,"Bikovo Airport, Суботица, Биково",0,2016-05-01T11:58:08+00:00
321141,RS-0011,small_airport,"Surčin Airstrip",44.768889,20.304722,240,EU,RS,RS-07,Surčin,0,,,,,,,0,2017-10-15T17:45:55+00:00
321142,RS-0012,small_airport,"Titel Airstrip",45.1975,20.2788889,240,EU,RS,RS-U-A,Titel,0,,,,,,,0,2016-11-12T06:45:34+00:00
302289,LYTR,small_airport,"Trstenik Airport",43.614189,21.030217,534,EU,RS,RS-19,Trstenik,0,LYTR,,,http://aeroklubtrstenik.webs.com/,http://en.wikipedia.org/wiki/Trstenik_Airport,,0,2013-11-16T08:23:02+00:00
308320,LYVA,small_airport,"Divci Airport",44.297817,20.021913,469,EU,RS,RS-09,Valjevo,0,LYVA,,,,http://en.wikipedia.org/wiki/Valjevo_Airport,"QWV, Valjevo Airport",0,2017-01-07T14:37:33+00:00
301357,RS-0003,small_airport,"Aerodrom ""13.Maj""",44.876444,20.305917,260,EU,RS,RS-00,"Zemun Polje",0,LYZP,,,http://letenje.rs/,,,0,2018-05-16T14:51:34+00:00
