id,ident,type,name,latitude_deg,longitude_deg,elevation_ft,continent,iso_country,iso_region,municipality,scheduled_service,gps_code,iata_code,local_code,home_link,wikipedia_link,keywords,score,last_updated
"#meta +id","#meta +code","#loc +airport +type","#loc +airport +name","#geo +lat","#geo +lon","#geo +elevation +ft","#region +continent +code","#country +code +iso2","#adm1 +code +iso","#loc +municipality +name","#status +scheduled","#loc +airport +code +gps","#loc +airport +code +iata","#loc +airport +code +local","#meta +url +airport","#meta +url +wikipedia","#meta +keywords","#meta +score","#date +updated"
2050,DAAG,large_airport,"Houari Boumediene Airport",36.691001892089844,3.215409994125366,82,AF,DZ,DZ-35,Algiers,1,DAAG,ALG,,,http://en.wikipedia.org/wiki/Houari_Boumedienne_Airport,,1275,2008-06-13T14:30:04+00:00
2071,DAOO,medium_airport,"Es Senia Airport",35.6239013672,-0.6211829781529999,295,AF,DZ,DZ-31,Oran,1,DAOO,ORN,,,http://en.wikipedia.org/wiki/Oran_Es_Senia_Airport,,875,2010-08-30T11:40:55+00:00
2060,DABB,medium_airport,"Rabah Bitat Airport",36.822201,7.809174,16,AF,DZ,DZ-36,Annaba,1,DABB,AAE,,,http://en.wikipedia.org/wiki/Rabah_Bitat_Airport,"Les Salines Airport, El Mellah Airport, Annabah",1050,2017-08-19T00:12:36+00:00
2061,DABC,medium_airport,"Mohamed Boudiaf International Airport",36.2760009765625,6.620389938354492,2265,AF,DZ,DZ-25,Constantine,1,DABC,CZL,,,http://en.wikipedia.org/wiki/Mohamed_Boudiaf_International_Airport,,1050,2008-06-13T14:30:04+00:00
2079,DAUH,medium_airport,"Oued Irara Airport",31.673000335699996,6.140439987180001,463,AF,DZ,DZ-30,"Hassi Messaoud",1,DAUH,HME,,,http://en.wikipedia.org/wiki/Oued_Irara_Airport,,875,2010-08-30T11:52:46+00:00
2078,DAUG,medium_airport,"Noumérat - Moufdi Zakaria Airport",32.38410186767578,3.794110059738159,1512,AF,DZ,DZ-47,Ghardaïa,1,DAUG,GHA,,,http://en.wikipedia.org/wiki/Noumerate_Airport,,875,2008-06-13T14:30:04+00:00
2056,DAAT,medium_airport,"Aguenar – Hadj Bey Akhamok Airport",22.8115005493,5.45107984543,4518,AF,DZ,DZ-11,Tamanrasset,1,DAAT,TMR,,,http://en.wikipedia.org/wiki/Tamanrasset_Airport,,875,2010-08-30T11:54:47+00:00
2051,DAAJ,medium_airport,"Djanet Inedbirene Airport",24.292801,9.45244,3176,AF,DZ,DZ-33,Djanet,1,DAAJ,DJG,,,http://en.wikipedia.org/wiki/Djanet_Inedbirene_Airport,"Tiska Djanet Airport",800,2017-05-25T22:43:53+00:00
2080,DAUI,medium_airport,"In Salah Airport",27.250999450699997,2.51202011108,896,AF,DZ,DZ-11,"In Salah",1,DAUI,INZ,,,http://en.wikipedia.org/wiki/In_Salah_Airport,,875,2010-08-30T11:45:43+00:00
2077,DAUE,medium_airport,"El Golea Airport",30.571300506591797,2.8595900535583496,1306,AF,DZ,DZ-47,,1,DAUE,ELG,,,http://en.wikipedia.org/wiki/El_Golea_Airport,,800,2008-06-13T14:30:04+00:00
2072,DAOR,medium_airport,"Béchar Boudghene Ben Ali Lotfi Airport",31.645700454711914,-2.269860029220581,2661,AF,DZ,DZ-08,Béchar,1,DAOR,CBH,,,http://en.wikipedia.org/wiki/B%C3%A9char_Ouakda_Airport,"Béchar Ouakda Airport",800,2008-06-13T14:30:04+00:00
2085,DAUU,medium_airport,"Ain el Beida Airport",31.917200088500977,5.412779808044434,492,AF,DZ,DZ-30,Ouargla,1,DAUU,OGX,,,http://en.wikipedia.org/wiki/Ain_el_Beida_Airport,,800,2008-06-13T14:30:04+00:00
2067,DAOF,medium_airport,"Tindouf Airport",27.7003993988,-8.167099952700001,1453,AF,DZ,DZ-37,Tindouf,1,DAOF,TIN,,,http://en.wikipedia.org/wiki/Tindouf_Airport,,800,2010-08-30T11:55:47+00:00
2086,DAUZ,medium_airport,"In Aménas Airport",28.0515,9.64291,1847,AF,DZ,DZ-33,Aménas,1,DAUZ,IAM,,,https://en.wikipedia.org/wiki/In_Amenas_Airport,,875,2018-09-14T06:28:47+00:00
2049,DAAE,medium_airport,"Soummam Airport",36.7120018005,5.0699200630200005,20,AF,DZ,DZ-06,Béjaïa,1,DAAE,BJA,,,http://en.wikipedia.org/wiki/Soummam_Airport,,875,2010-08-30T11:53:26+00:00
2070,DAON,medium_airport,"Zenata – Messali El Hadj Airport",35.0167007446,-1.45000004768,814,AF,DZ,DZ-13,Tlemcen,1,DAON,TLM,,,http://en.wikipedia.org/wiki/Zenata_Airport,,875,2010-08-30T11:57:47+00:00
2075,DAUA,medium_airport,"Touat Cheikh Sidi Mohamed Belkebir Airport",27.837600708007812,-0.18641400337219238,919,AF,DZ,DZ-01,,1,DAUA,AZR,,,http://en.wikipedia.org/wiki/Touat_Cheikh_Sidi_Mohamed_Belkebir_Airport,,800,2008-06-13T14:30:04+00:00
2064,DAFH,medium_airport,"Hassi R'Mel Airport",32.93040084838867,3.311539888381958,2540,AF,DZ,DZ-03,,1,DAFH,HRM,,,http://en.wikipedia.org/wiki/Hassi_R'Mel_Airport,,800,2008-06-13T14:30:04+00:00
2063,DABT,medium_airport,"Batna Airport",35.752101898199996,6.308589935300001,2697,AF,DZ,DZ-05,Batna,1,DABT,BLJ,,,http://en.wikipedia.org/wiki/Batna_Airport,,800,2010-08-30T11:41:21+00:00
2076,DAUB,medium_airport,"Biskra Airport",34.793300628699996,5.73823022842,289,AF,DZ,DZ-07,Biskra,1,DAUB,BSK,,,http://en.wikipedia.org/wiki/Biskra_Airport,,800,2010-08-30T11:41:46+00:00
2084,DAUT,medium_airport,"Timimoun Airport",29.2371006012,0.276033014059,1027,AF,DZ,DZ-01,Timimoun,1,DAUT,TMX,,,http://en.wikipedia.org/wiki/Timimoun_Airport,,800,2010-08-30T11:55:19+00:00
2081,DAUK,medium_airport,"Touggourt Sidi Madhi Airport",33.06779861450195,6.088669776916504,279,AF,DZ,DZ-30,Touggourt,1,DAUK,TGR,,,http://en.wikipedia.org/wiki/Touggourt_Sidi_Madhi_Airport,,800,2008-06-13T14:30:04+00:00
2048,DAAD,medium_airport,"Bou Saada Airport",35.33250045776367,4.206389904022217,1506,AF,DZ,DZ-28,,0,DAAD,BUJ,,,,,250,2008-06-13T14:30:04+00:00
2082,DAUL,medium_airport,"Laghouat Airport",33.764400482199996,2.92833995819,2510,AF,DZ,DZ-03,Laghouat,0,DAUL,LOO,,,,,250,2010-08-30T11:46:59+00:00
2053,DAAN,small_airport,"Reggane Airport",26.7101,0.285647,955,AF,DZ,DZ-01,,0,DAAN,,,,https://en.wikipedia.org/wiki/Reggane_Airport,,50,2017-05-25T22:27:33+00:00
2149,DA14,small_airport,"Mostaganem Airport",35.9087982178,0.149382993579,732,AF,DZ,DZ-27,,0,DA14,MQV,DA14,,http://en.wikipedia.org/wiki/Mostaganem_Airport,"Matemore Airfield",50,2014-08-07T19:16:15+00:00
2066,DAOE,small_airport,"Bou Sfer Airport",35.73540115356445,-0.8053889870643616,187,AF,DZ,DZ-31,,0,DAOE,,,,,,50,2008-06-13T14:30:04+00:00
2151,DA16,small_airport,"Tindouf East Airport",27.585899353027344,-7.500110149383545,1425,AF,DZ,DZ-37,,0,DA16,,DA16,,,,50,2008-06-13T14:30:04+00:00
30874,DAOC,small_airport,"Ouakda Airport",31.642499923706055,-2.1838901042938232,2660,AF,DZ,DZ-08,Béchar,0,DAOC,,,,,,50,2008-06-13T14:30:04+00:00
2062,DABS,medium_airport,"Cheikh Larbi Tébessi Airport",35.4315986633,8.12071990967,2661,AF,DZ,DZ-12,Tébessi,1,DABS,TEE,,,http://en.wikipedia.org/wiki/T%C3%A9bessa_Airport,,875,2010-08-30T11:43:28+00:00
2083,DAUO,medium_airport,"Guemar Airport",33.5113983154,6.77679014206,203,AF,DZ,DZ-39,Guemar,1,DAUO,ELU,,,http://en.wikipedia.org/wiki/Guemar_Airport,,800,2010-08-30T11:43:59+00:00
2054,DAAP,medium_airport,"Illizi Takhamalt Airport",26.7234992981,8.62265014648,1778,AF,DZ,DZ-33,Illizi,1,DAAP,VVZ,,,http://en.wikipedia.org/wiki/Illizi_Airport,,800,2010-08-30T11:44:23+00:00
2057,DAAV,medium_airport,"Jijel Ferhat Abbas Airport",36.7951011658,5.87361001968,36,AF,DZ,DZ-18,Jijel,1,DAAV,GJL,,,http://en.wikipedia.org/wiki/Jijel_Ferhat_Abbas_Airport,,800,2010-08-30T11:46:29+00:00
30777,DATM,small_airport,"Bordj Badji Mokhtar Airport",21.375,0.923888981342,1303,AF,DZ,DZ-01,"Bordj Badji Mokhtar",1,DATM,BMW,,,http://en.wikipedia.org/wiki/Bordj_Mokhtar_Airport,,450,2011-10-05T00:48:32+00:00
2068,DAOI,medium_airport,"Ech Cheliff Airport",36.2126998901,1.33176994324,463,AF,DZ,DZ-02,,0,DAOI,CFK,,,http://en.wikipedia.org/wiki/Chlef_International_Airport,,275,2014-08-07T18:22:11+00:00
2074,DAOV,medium_airport,"Ghriss Airport",35.207698822021484,0.14714199304580688,1686,AF,DZ,DZ-29,,0,DAOV,MUW,,,,,275,2008-06-13T14:30:04+00:00
2047,DAAB,medium_airport,"Blida Airport",36.50360107421875,2.8141698837280273,535,AF,DZ,DZ-09,,0,DAAB,QLD,,,http://en.wikipedia.org/wiki/Blida_Airport,,250,2008-06-13T14:30:04+00:00
2052,DAAK,medium_airport,"Boufarik Airport",36.545799,2.87611,335,AF,DZ,DZ-09,,0,DAAK,,,,https://en.wikipedia.org/wiki/Boufarik_Airport,QFD,250,2017-01-07T12:21:24+00:00
2069,DAOL,medium_airport,"Tafaraoui Airport",35.54240036010742,-0.5322780013084412,367,AF,DZ,DZ-31,,0,DAOL,TAF,,,,,250,2008-06-13T14:30:04+00:00
2058,DAAY,medium_airport,"Mecheria Airport",33.535900116,-0.242353007197,3855,AF,DZ,DZ-45,Mecheria,0,DAAY,MZW,,,http://fr.wikipedia.org/wiki/A%C3%A9roport_de_Mecheria,,250,2012-04-01T03:41:33+00:00
32193,DAAS,medium_airport,"Ain Arnat Airport",36.178100585900005,5.3244900703399995,3360,AF,DZ,DZ-19,Sétif,1,DAAS,QSF,,http://www.egsa-constantine.dz/,http://en.wikipedia.org/wiki/Ain_Arnat_Airport,"Sétif International Airport, 8 Mai 45 Airport",250,2013-09-20T00:01:50+00:00
2065,DAOB,medium_airport,"Bou Chekif Airport",35.3410987854,1.46315002441,3245,AF,DZ,DZ-14,Tiaret,0,DAOB,TID,,,http://en.wikipedia.org/wiki/Bou_Chekif_Airport,,250,2010-08-30T11:42:39+00:00
2059,DAAZ,medium_airport,"Relizane Airport",35.752201,0.626272,282,AF,DZ,DZ-48,Zemmora,0,DAAZ,,,,https://en.wikipedia.org/wiki/Relizane_Airport,QZN,250,2017-01-07T15:10:06+00:00
2146,DA11,small_airport,"Hamaguir Airport",30.878999710083008,-3.0677499771118164,2454,AF,DZ,DZ-08,,0,DA11,,DA11,,,,50,2008-06-13T14:30:04+00:00
2055,DAAQ,small_airport,"Ain Oussera Airport",35.52539825439453,2.8787100315093994,2132,AF,DZ,DZ-17,,0,DAAQ,,,,,,50,2008-06-13T14:30:04+00:00
2150,DA15,small_airport,"Saida Airport",34.89720153808594,0.15169399976730347,2444,AF,DZ,DZ-20,,0,DA15,,DA15,,,,50,2008-06-13T14:30:04+00:00
2147,DA12,small_airport,"El Abiodh Sidi Cheikh Airport",32.89849853515625,0.52469402551651,2965,AF,DZ,DZ-32,,0,DA12,,DA12,,,,50,2008-06-13T14:30:04+00:00
2145,DA10,small_airport,"Illizi Airport",26.57360076904297,8.483659744262695,1778,AF,DZ,DZ-33,,0,DA10,,DA10,,,,50,2008-06-13T14:30:04+00:00
2148,DA13,small_airport,"Tinfouchy Airport",28.87929916381836,-5.82289981842041,1804,AF,DZ,DZ-37,,0,DA13,,DA13,,,,50,2008-06-13T14:30:04+00:00
30873,DAAW,small_airport,"Bordj Omar Driss Airport",28.131399154663086,6.8336100578308105,1207,AF,DZ,DZ-33,"Bordj Omar Driss",0,DAAW,,,,,,50,2008-06-13T14:30:04+00:00
31678,DATG,small_airport,"In Guezzam Airport",19.566999435424805,5.75,1312,AF,DZ,DZ-11,"In Guezzam",0,DATG,INF,,,,,50,2008-06-13T14:30:04+00:00
42529,DABO,small_airport,"Oum el Bouaghi airport",35.879699707,7.270800113679999,2980,AF,DZ,DZ-04,"Oum El Bouaghi",0,DAEO,QMH,,,http://en.wikipedia.org/wiki/Oum_el_Bouaghi_Airport,DABO,50,2014-08-07T21:53:30+00:00
2073,DAOS,small_airport,"Sidi Bel Abbes Airport",35.1717987061,-0.593275010586,1614,AF,DZ,DZ-22,"Sidi Bel Abbès",0,DAOS,BFW,,,http://en.wikipedia.org/wiki/Sidi_Bel_Abb%C3%A8s_Airport,,50,2014-08-07T19:44:01+00:00
30872,DAAM,small_airport,"Telerghma Airport",36.108699798583984,6.36460018157959,2484,AF,DZ,DZ-43,Telerghma,0,DAAM,,,,,,50,2008-06-13T14:30:04+00:00
312729,DZ-0003,closed,Djanet,24.446579,9.504498,,AF,DZ,DZ-33,,0,,,,,,,0,2014-08-22T17:52:04+00:00
314958,DAAF,small_airport,"Aoulef Airport",27.0624,1.1111,1017,AF,DZ,DZ-01,Aoulef,0,DAAF,,,,,,0,2015-07-11T08:59:52+00:00
312616,DAAX,small_airport,"Chéraga Airport",36.7782,2.9284,396,AF,DZ,DZ-42,Chéraga,0,DAAX,,,,,,0,2014-08-07T21:03:28+00:00
302293,DAFI,small_airport,"Tsletsi Airport",34.6657,3.351,3753,AF,DZ,DZ-17,Djelfa,0,DAFI,QDJ,,,http://en.wikipedia.org/wiki/Tsletsi_Airport,,0,2016-06-02T08:14:22+00:00
300333,DAOY,small_airport,"El Bayadh Airport",33.721666666699996,1.0925,4493,AF,DZ,DZ-32,"El Bayadh",0,DAOY,EBH,,,,,0,2012-01-02T14:30:28+00:00
312635,DZ-0001,small_airport,"Hamra Airport",29.225107,6.4936,,AF,DZ,DZ-30,"Hassi Bel Guebour",0,,,,,,,0,2016-02-09T17:07:05+00:00
312615,DABP,closed,"Skikda Airport",36.8641,6.9516,27,AF,DZ,DZ-21,Skikda,0,DABP,SKI,,,http://en.wikipedia.org/wiki/Skikda_Airport,"Philippeville Airfield",0,2014-08-07T20:16:44+00:00
