id,ident,type,name,latitude_deg,longitude_deg,elevation_ft,continent,iso_country,iso_region,municipality,scheduled_service,gps_code,iata_code,local_code,home_link,wikipedia_link,keywords,score,last_updated
"#meta +id","#meta +code","#loc +airport +type","#loc +airport +name","#geo +lat","#geo +lon","#geo +elevation +ft","#region +continent +code","#country +code +iso2","#adm1 +code +iso","#loc +municipality +name","#status +scheduled","#loc +airport +code +gps","#loc +airport +code +iata","#loc +airport +code +local","#meta +url +airport","#meta +url +wikipedia","#meta +keywords","#meta +score","#date +updated"
3039,FYWH,large_airport,"Hosea Kutako International Airport",-22.4799,17.4709,5640,AF,NA,NA-KH,Windhoek,1,FYWH,WDH,,http://airports.com.na/,http://en.wikipedia.org/wiki/Windhoek_Hosea_Kutako_International_Airport,"J.G. Strijdom Airport",1050,2019-01-13T13:21:50+00:00
3037,FYWB,medium_airport,"Walvis Bay Airport",-22.9799,14.6453,299,AF,NA,NA-ER,"Walvis Bay",1,FYWB,WVB,,,http://en.wikipedia.org/wiki/Walvis_Bay_Airport,,275,2017-09-27T05:48:15+00:00
3038,FYWE,medium_airport,"Eros Airport",-22.612199783325195,17.080400466918945,5575,AF,NA,NA-KH,Windhoek,1,FYWE,ERS,,,http://en.wikipedia.org/wiki/Eros_Airport,,800,2008-06-13T14:30:04+00:00
29627,FYSM,small_airport,"Swakopmund Airport",-22.66189956665,14.568099975586,207,AF,NA,NA-ER,Swakopmund,1,FYSM,SWP,,,https://en.wikipedia.org/wiki/Swakopmund_Airport,,450,2015-09-11T21:38:06+00:00
3027,FYKM,small_airport,"Katima Mulilo Airport",-17.634399,24.176701,3144,AF,NA,NA-CA,Mpacha,0,FYKM,MPA,,,http://en.wikipedia.org/wiki/Katima_Mulilo_Airport,,50,2017-06-24T11:20:28+00:00
3031,FYOA,medium_airport,"Ondangwa Airport",-17.878201,15.9526,3599,AF,NA,NA-ON,Ondangwa,1,FYOA,OND,,,http://en.wikipedia.org/wiki/Ondangwa_Airport,,800,2016-02-19T20:21:18+00:00
3024,FYAR,medium_airport,"Arandis Airport",-22.462200164794922,14.979999542236328,1905,AF,NA,NA-ER,Arandis,0,FYAR,ADI,,,,,250,2008-10-21T18:24:23+00:00
3028,FYKT,medium_airport,"Keetmanshoop Airport",-26.5398006439209,18.111400604248047,3506,AF,NA,NA-KA,Keetmanshoop,0,FYKT,KMP,,,,,250,2008-10-21T18:21:09+00:00
29622,NA-0060,small_airport,"Sossusvlei Lodge Landing Site",-24.49139976501465,15.823599815368652,2628,AF,NA,NA-HA,,0,,,,,,,50,2008-10-21T18:22:08+00:00
29600,FYOO,small_airport,"Okaukuejo Airport",-19.149200439453125,15.91189956665039,3911,AF,NA,NA-KU,Okaukuejo,0,FYOO,OKF,,,,,50,2008-10-21T18:25:52+00:00
3029,FYLZ,medium_airport,"Luderitz Airport",-26.687400817871094,15.242899894714355,457,AF,NA,NA-KA,Luderitz,1,FYLZ,LUD,,,http://en.wikipedia.org/wiki/L%C3%BCderitz_Airport,,800,2008-10-21T18:21:08+00:00
3035,FYRU,medium_airport,"Rundu Airport",-17.956499099731,19.719400405884,3627,AF,NA,NA-KE,Rundu,1,FYRU,NDU,,,"http://ourairports.com/airports/FYRU/#lat=-17.956499099731445,lon=19.71940040588379,zoom=13,type=Satellite,airport=FYRU",,250,2015-09-11T21:32:33+00:00
3036,FYTM,medium_airport,"Tsumeb Airport",-19.26189994812,17.732500076294,4353,AF,NA,NA-OT,Tsumeb,0,FYTM,TSB,,,https://en.wikipedia.org/wiki/Tsumeb_Airport,,250,2015-09-11T21:41:22+00:00
29619,FYSS,small_airport,"Sesriem Airstrip",-24.512800216675,15.746700286865,2454,AF,NA,NA-HA,,0,FYSS,SZM,,,,,50,2015-05-31T04:01:19+00:00
29638,FYWD,small_airport,"Wolwedans Airport",-25.116899490356445,16.000600814819336,3271,AF,NA,NA-HA,,0,FYWD,,,,,,50,2008-10-21T18:21:29+00:00
29541,FYAS,small_airport,"Aus Airport",-26.693899154663086,16.318899154663086,4856,AF,NA,NA-KA,Aus,0,FYAS,,,,,,50,2008-10-21T18:21:08+00:00
29545,FYBJ,small_airport,"Bitterwasser Lodge & Flying Club Airfield",-23.875,17.9911003113,4167,AF,NA,NA-HA,Bitterwasser,0,FYBJ,,,http://www.bitterwasser.com,http://de.wikipedia.org/wiki/Flugplatz_Bitterwasser,,50,2009-11-11T13:04:25+00:00
29579,FYLS,small_airport,"Lianshulu Airport",-18.116699218799997,23.393299102800004,3143,AF,NA,NA-CA,"Lianshulu Lodge",0,FYLS,LHU,,,,Muneambuanas,50,2015-02-21T22:00:18+00:00
31297,FYMB,small_airport,"Meob Bay Landing Site",-24.617000579833984,14.682999610900879,20,AF,NA,NA-HA,"Meob Bay",0,FYMB,,,,,,50,2008-10-21T18:21:57+00:00
29590,FYMO,small_airport,"Mokuti Lodge Airport",-18.81279945373535,17.05940055847168,3665,AF,NA,NA-OT,"Mokuti Lodge",0,FYMO,OKU,,,,,50,2008-10-21T18:25:54+00:00
29621,FYSO,small_airport,"Solitaire Airport",-23.900800704956055,16.00469970703125,3488,AF,NA,NA-KH,Solitaire,0,FYSO,,,,,,50,2008-10-21T18:23:04+00:00
29623,FYSL,small_airport,"Sossusvlei Mountain Lodge Airport",-24.803300857544,15.89109992981,2844,AF,NA,NA-HA,"Sossusvlei Desert Lodge",0,FYSL,,,,,,50,2015-09-12T10:17:07+00:00
309424,FYTE,small_airport,"Terrace Bay Airport",-19.9713,13.0249,32,AF,NA,NA-KU,"Terrace Bay",0,FYTE,TCY,,,,,0,2013-08-24T13:13:55+00:00
3032,FYOG,medium_airport,"Oranjemund Airport",-28.5847,16.446699,14,AF,NA,NA-KA,Oranjemund,1,FYOG,OMD,,,https://en.wikipedia.org/wiki/Oranjemund_Airport,,800,2018-09-16T04:30:10+00:00
3026,FYGF,medium_airport,"Grootfontein Airport",-19.60219955444336,18.122699737548828,4636,AF,NA,NA-OD,Grootfontein,0,FYGF,GFY,,,,,250,2008-10-21T18:25:44+00:00
3030,FYML,medium_airport,"Mariental Airport",-24.60540008544922,17.925399780273438,3650,AF,NA,NA-HA,Mariental,0,FYML,,,,,,250,2008-10-21T18:22:00+00:00
29595,NA-0047,small_airport,"Namibia East Air Base",-17.775299072265625,25.18670082092285,3048,AF,NA,NA-CA,,0,,,,,,,50,2008-10-21T18:26:10+00:00
29553,NA-0016,small_airport,"Eureka Farm Airport",-21.198099,17.8211,4705,AF,NA,NA-ER,,0,,,,,,,50,2016-02-19T20:26:07+00:00
29569,NA-0026,small_airport,"Kamombombe East Airport",-21.614200592041016,16.055599212646484,4098,AF,NA,NA-ER,,0,,,,,,,50,2008-10-21T18:25:04+00:00
29570,NA-0027,small_airport,"Kansimba Landing Site",-22.044700622558594,16.178600311279297,4098,AF,NA,NA-ER,,0,,,,,,,50,2008-10-21T18:24:44+00:00
29607,NA-0053,small_airport,"Onjossa Airport",-22.16830062866211,16.301700592041016,4055,AF,NA,NA-ER,,0,,,,,,,50,2008-10-21T18:24:39+00:00
29613,NA-0054,small_airport,"Roidina Peter Jo Airport",-21.18779945373535,16.06220054626465,4600,AF,NA,NA-ER,,0,,,,,,,50,2008-10-21T18:25:21+00:00
42410,NA-0145,small_airport,"Albrechts Aistrip",-21.9455509185791,16.06999969482422,4478,AF,NA,NA-ER,,0,,,,,,,50,2008-10-21T18:24:51+00:00
42417,NA-0152,small_airport,"Onduruqea Lodge Airport",-21.602500915527344,16.073299407958984,4149,AF,NA,NA-ER,,0,,,,,,,50,2008-10-21T18:25:07+00:00
42420,NA-0155,small_airport,"Rhenoster K Airport",-21.165283203125,16.40250015258789,4775,AF,NA,NA-ER,,0,,,,,,,50,2008-10-21T18:25:22+00:00
29533,NA-0001,small_airport,"Afro Venture Airport",-24.837799072265625,15.906900405883789,2907,AF,NA,NA-HA,,0,,,,,,,50,2008-10-21T18:21:38+00:00
29536,NA-0003,small_airport,"Anib Lodge Landing Site",-24.43470001220703,18.104400634765625,3950,AF,NA,NA-HA,,0,,,,,,,50,2008-10-21T18:22:10+00:00
29540,NA-0006,small_airport,"Auob Lodge Airport",-24.822799682617188,18.762800216674805,3730,AF,NA,NA-HA,,0,,,,,,,50,2008-10-21T18:21:41+00:00
29542,NA-0007,closed,"Basaroot Landing Site",-23.7583007812,18.2938995361,4163,AF,NA,NA-HA,,0,,,,,,,50,2009-11-11T12:32:54+00:00
29543,NA-0008,small_airport,"Bitterwasser N. Sta Airport",-23.865800857543945,17.991100311279297,4150,AF,NA,NA-HA,,0,,,,,,,50,2008-10-21T18:23:10+00:00
29544,NA-0009,small_airport,"Bitterwasser North Airport",-23.86720085144043,17.979999542236328,4154,AF,NA,NA-HA,,0,,,,,,,50,2008-10-21T18:23:08+00:00
29546,NA-0010,small_airport,"Blumfelde Pan Landing Site",-23.565000534057617,18.3710994720459,4219,AF,NA,NA-HA,,0,,,,,,,50,2008-10-21T18:23:40+00:00
29558,NA-0019,small_airport,"Grootpan East Landing Site",-23.543100357055664,18.384199142456055,4259,AF,NA,NA-HA,,0,,,,,,,50,2008-10-21T18:23:43+00:00
29562,FYIA,small_airport,"Intu Africa Pan Airport",-24.088300704956055,17.95170021057129,4012,AF,NA,NA-HA,,0,FYIA,,,,,,50,2008-10-21T18:22:42+00:00
29563,NA-0023,small_airport,"Judaea Strip",-23.745800018310547,18.091100692749023,4216,AF,NA,NA-HA,,0,,,,,,,50,2008-10-21T18:23:21+00:00
29565,FYKE,small_airport,"Kalahari Game Lodge Airport",-25.651100158691406,19.87809944152832,3182,AF,NA,NA-HA,,0,FYKE,,,,,,50,2008-10-21T18:21:21+00:00
29572,NA-0028,small_airport,"Kentani Landing Site",-23.862199783325195,17.857200622558594,4055,AF,NA,NA-HA,,0,,,,,,,50,2008-10-21T18:23:12+00:00
29574,NA-0030,small_airport,"Kerweder Airport",-24.96310043334961,16.013599395751953,3179,AF,NA,NA-HA,,0,,,,,,,50,2008-10-21T18:21:32+00:00
29588,NA-0042,small_airport,"Mbela Big Wings Landing Site",-23.74250030517578,17.911699295043945,4226,AF,NA,NA-HA,,0,,,,,,,50,2008-10-21T18:23:23+00:00
29589,NA-0043,small_airport,"Meier Airstrip Landing Site",-24.89189910888672,16.200300216674805,4849,AF,NA,NA-HA,,0,,,,,,,50,2008-10-21T18:21:34+00:00
29591,NA-0044,small_airport,"Moscow Landing Site",-25.183300018310547,19.256900787353516,3481,AF,NA,NA-HA,,0,,,,,,,50,2008-10-21T18:21:26+00:00
29594,NA-0046,small_airport,"Namib Naukluft Landing Site",-23.9950008392334,15.9306001663208,3232,AF,NA,NA-HA,,0,,,,,,,50,2008-10-21T18:22:56+00:00
29612,FYPO,small_airport,"Pokweni Glider Airport",-23.649999618530273,17.729999542236328,4177,AF,NA,NA-HA,,0,FYPO,,,,,,50,2008-10-21T18:23:34+00:00
29626,FYST,small_airport,"Strate Airport",-23.96780014038086,18.548900604248047,4019,AF,NA,NA-HA,,0,FYST,,,,,,50,2008-10-21T18:22:59+00:00
29628,NA-0062,small_airport,"Tatave Landing Site",-24.389999389648438,18.668100357055664,3839,AF,NA,NA-HA,,0,,,,,,,50,2008-10-21T18:22:12+00:00
29633,NA-0065,small_airport,"Weltevrede Rest Landing Site",-24.18079948425293,15.977499961853027,3563,AF,NA,NA-HA,,0,,,,,,,50,2008-10-21T18:22:29+00:00
29636,NA-0067,small_airport,"Witwater West Airport",-24.67329978942871,15.791899681091309,2402,AF,NA,NA-HA,,0,,,,,,,50,2008-10-21T18:21:51+00:00
29637,NA-0068,small_airport,"Wohlzufrieden Airport",-24.19059944152832,18.161100387573242,3960,AF,NA,NA-HA,,0,,,,,,,50,2008-10-21T18:22:27+00:00
42344,NA-0079,small_airport,"Finger Gottes Airstrip",-25.497217178344727,18.172500610351562,3461,AF,NA,NA-HA,,0,,,,,,,50,2008-10-21T18:21:22+00:00
42345,NA-0080,small_airport,"Tweerivier Landing Site",-25.456382751464844,19.43833351135254,3325,AF,NA,NA-HA,,0,,,,,,,50,2008-10-21T18:21:23+00:00
42346,NA-0081,small_airport,"Guamus Airport",-25.197782516479492,18.273616790771484,3838,AF,NA,NA-HA,,0,,,,,,,50,2008-10-21T18:21:24+00:00
42350,NA-0085,small_airport,"Katzensteg Airport",-24.769716262817383,18.988332748413086,3683,AF,NA,NA-HA,,0,,,,,,,50,2008-10-21T18:21:46+00:00
42352,NA-0087,small_airport,"Lendepas Landing Site",-24.745283126831055,20,3451,AF,NA,NA-HA,,0,,,,,,,50,2008-10-21T18:21:48+00:00
42354,NA-0089,small_airport,"Wandervogel Airstrip",-24.63916778564453,19.703332901000977,3605,AF,NA,NA-HA,,0,,,,,,,50,2008-10-21T18:21:52+00:00
42355,NA-0090,small_airport,"Kouwater Landing Site",-24.62638282775879,18.043617248535156,3777,AF,NA,NA-HA,,0,,,,,,,50,2008-10-21T18:21:55+00:00
42356,NA-0091,small_airport,"Salzbrunn Airstrip",-24.382699966430664,17.96980094909668,3863,AF,NA,NA-HA,,0,,,,,,,50,2008-10-21T18:22:13+00:00
42357,NA-0092,small_airport,"Gianti-1 Airport",-24.252599716186523,16.315500259399414,4521,AF,NA,NA-HA,,0,,,,,,,50,2008-10-21T18:22:22+00:00
42359,NA-0094,small_airport,"Twilight Airstrip",-24.167217254638672,17.989166259765625,4009,AF,NA,NA-HA,,0,,,,,,,50,2008-10-21T18:22:30+00:00
42360,NA-0095,small_airport,"Bullsport Landig Site",-24.116666793823242,16.366666793823242,5120,AF,NA,NA-HA,,0,,,,,,,50,2008-10-21T18:22:35+00:00
42361,NA-0096,small_airport,"Morester Landing Site",-24.116117477416992,19.977783203125,3863,AF,NA,NA-HA,,0,,,,,,,50,2008-10-21T18:22:36+00:00
42362,NA-0097,small_airport,"Lidfontein Landing Site",-24.081666946411133,18.196666717529297,3975,AF,NA,NA-HA,,0,,,,,,,50,2008-10-21T18:22:43+00:00
42364,NA-0099,small_airport,"Nabus Landing Site",-24.038333892822266,18.975000381469727,3968,AF,NA,NA-HA,,0,,,,,,,50,2008-10-21T18:22:51+00:00
42365,NA-0100,small_airport,"Runnersrest Landing Site",-24.01333236694336,17.74471664428711,4031,AF,NA,NA-HA,,0,,,,,,,50,2008-10-21T18:22:52+00:00
42366,NA-0101,small_airport,"Victory Airstrip",-23.969717025756836,18.269166946411133,4048,AF,NA,NA-HA,,0,,,,,,,50,2008-10-21T18:22:57+00:00
42369,NA-0104,small_airport,"Droeplaas Landing Site",-23.81861686706543,19.082500457763672,4058,AF,NA,NA-HA,,0,,,,,,,50,2008-10-21T18:23:13+00:00
42371,NA-0106,small_airport,"Bimsfarm Landing Site",-23.72833251953125,18.147216796875,4215,AF,NA,NA-HA,,0,,,,,,,50,2008-10-21T18:23:25+00:00
42372,NA-0107,small_airport,"Olifantwater West Landing Site",-23.704999923706055,18.36166763305664,4187,AF,NA,NA-HA,,0,,,,,,,50,2008-10-21T18:23:26+00:00
42373,NA-0108,small_airport,"Gomnab Airport",-23.69179916381836,18.27239990234375,4190,AF,NA,NA-HA,,0,,,,,,,50,2008-10-21T18:23:27+00:00
42374,NA-0109,small_airport,"Neuloore Landing Site",-23.68221664428711,18.405550003051758,4172,AF,NA,NA-HA,,0,,,,,,,50,2008-10-21T18:23:28+00:00
42376,NA-0111,small_airport,"Kaukerus Landing Site",-23.617782592773438,17.872217178344727,4314,AF,NA,NA-HA,,0,,,,,,,50,2008-10-21T18:23:36+00:00
42378,NA-0113,small_airport,"Rheinpfalz Landing Site",-23.52888298034668,17.989999771118164,4362,AF,NA,NA-HA,,0,,,,,,,50,2008-10-21T18:23:46+00:00
42389,NA-0124,small_airport,"Louwater S M7 Airport",-23.25830078125,17.969900131225586,4504,AF,NA,NA-HA,,0,,,,,,,50,2008-10-21T18:24:02+00:00
42394,NA-0129,small_airport,"Bergland Landing  Strip",-22.97333335876465,17.144716262817383,5517,AF,NA,NA-HA,,0,,,,,,,50,2008-10-21T18:24:10+00:00
29548,FYXX,small_airport,"Canon Lodge Airport",-27.659700393676758,17.837799072265625,3058,AF,NA,NA-KA,,0,FYXX,,,,,,50,2008-10-21T18:21:04+00:00
42333,NA-0045,small_airport,"Vredeshoop Landing Site",-27.100282669067383,19.53445053100586,2926,AF,NA,NA-KA,,0,,,,,,,50,2008-10-21T18:21:06+00:00
42335,NA-0070,small_airport,"Guibes Landing Strip",-26.700000762939453,16.950000762939453,4091,AF,NA,NA-KA,,0,,,,,,,50,2008-10-21T18:21:08+00:00
42337,NA-0072,small_airport,"Klipdrif Airstrip",-26.516666412353516,16.916667938232422,4245,AF,NA,NA-KA,,0,,,,,,,50,2008-10-21T18:21:10+00:00
42338,NA-0073,small_airport,"Zuuberg Landing Site",-26.266666412353516,17,3645,AF,NA,NA-KA,,0,,,,,,,50,2008-10-21T18:21:11+00:00
42342,NA-0077,closed,"Mata Mata Landing Site",-25.7677822113,20,3125,AF,NA,NA-KA,,0,,,,,,,50,2009-11-11T12:27:10+00:00
29557,NA-0018,small_airport,"Greub Landing Site",-23.12190055847168,16.733600616455078,5604,AF,NA,NA-KH,,0,,,,,,,50,2008-08-03T11:47:02+00:00
29559,NA-0020,small_airport,"Hannover N Airport",-23.361900329589844,17.80389976501465,4459,AF,NA,NA-KH,,0,,,,,,,50,2008-08-03T11:47:04+00:00
29564,NA-0024,small_airport,"Julia Landing Site",-22.969999313354492,18.193899154663086,4616,AF,NA,NA-KH,,0,,,,,,,50,2008-08-03T11:47:06+00:00
29580,NA-0035,small_airport,"Louwater Pan Landing Site",-23.27720069885254,17.723600387573242,4551,AF,NA,NA-KH,,0,,,,,,,50,2008-08-03T11:47:09+00:00
29629,NA-0063,small_airport,"Tivoli Landing Site",-23.461700439453125,18.014400482177734,4386,AF,NA,NA-KH,,0,,,,,,,50,2008-08-03T11:47:11+00:00
29911,FYGV,small_airport,"Gravenstein Prv Airport",-23.458900451660156,17.497800827026367,4370,AF,NA,NA-KH,,0,FYGV,,,,,,50,2008-08-03T11:33:57+00:00
42377,NA-0112,small_airport,"Cowdray Airstrip",-23.54471778869629,17.787782669067383,4314,AF,NA,NA-KH,,0,,,,,,,50,2008-10-21T18:23:41+00:00
42380,NA-0115,small_airport,"Beenbreek Landing Site",-23.483299255371094,17.950000762939453,4399,AF,NA,NA-KH,,0,,,,,,,50,2008-10-21T19:01:38+00:00
42382,NA-0117,small_airport,"Gams Farm Landing Site",-23.366666793823242,16.299999237060547,6063,AF,NA,NA-KH,,0,,,,,,,50,2008-10-21T18:23:53+00:00
42392,NA-0127,small_airport,"Doornpoort Airstrip",-23.073883056640625,18.051382064819336,4597,AF,NA,NA-KH,,0,,,,,,,50,2008-10-21T18:24:06+00:00
29575,NA-0031,small_airport,"Khorab Safari Lodge Airport",-19.641399383544922,17.319400787353516,4616,AF,NA,NA-KU,,0,,,,,,,50,2008-10-21T18:25:42+00:00
30316,FYRR,small_airport,"Rag Rock Airport",-20.53809928894043,14.433099746704102,2100,AF,NA,NA-KU,,0,FYRR,,,,,,50,2008-10-21T18:25:35+00:00
29597,NA-0048,small_airport,"Oha Kaua/Otjiwa Lodge Landing Site",-20.751699447631836,16.798599243164062,5121,AF,NA,NA-OD,,0,,,,,,,50,2008-10-21T18:25:33+00:00
29601,NA-0050,small_airport,"Okosongoro Airport Airport",-21.118099212646484,16.085800170898438,4872,AF,NA,NA-OD,,0,,,,,,,50,2008-10-21T18:25:27+00:00
42421,NA-0156,small_airport,"Omaha Landing Site",-21.13195037841797,16.5261173248291,4954,AF,NA,NA-OD,,0,,,,,,,50,2008-10-21T18:25:23+00:00
29547,NA-0011,small_airport,"Bush Breaks Lodge Landing Site",-22.327800750732422,19.750600814819336,4734,AF,NA,NA-OH,,0,,,,,,,50,2008-10-21T18:24:32+00:00
29554,NA-0017,small_airport,"Georgia Peter Schomarz Landing Site",-23.28059959411621,18.634199142456055,4298,AF,NA,NA-OH,,0,,,,,,,50,2008-10-21T18:24:00+00:00
29561,NA-0022,small_airport,"Hetaku Game Lodge Landing Site",-21.98189926147461,18.507200241088867,5128,AF,NA,NA-OH,,0,,,,,,,50,2008-10-21T18:24:50+00:00
29573,NA-0029,small_airport,"Kentucky Sud Pan Landing Site",-22.7450008392334,19.31329917907715,4554,AF,NA,NA-OH,,0,,,,,,,50,2008-10-21T18:24:16+00:00
29598,NA-0049,small_airport,"Ohlsenhagen Landing Site",-22.271099090576172,19.00189971923828,4954,AF,NA,NA-OH,,0,,,,,,,50,2008-10-21T18:24:36+00:00
29606,NA-0052,small_airport,"Omuramba Airport",-21.423099517822266,19.283599853515625,4728,AF,NA,NA-OH,,0,,,,,,,50,2008-10-21T18:25:10+00:00
29632,NA-0064,small_airport,"Unbekannt Landing Site",-21.130800247192383,18.78969955444336,4718,AF,NA,NA-OH,,0,,,,,,,50,2008-10-21T18:25:25+00:00
29634,NA-0066,small_airport,"Wittenau Pfanne Landing Site",-23.463899612426758,18.873300552368164,4222,AF,NA,NA-OH,,0,,,,,,,50,2008-10-21T18:23:51+00:00
42391,NA-0126,small_airport,"Nossob Gabel Landing Site",-23.120283126831055,18.70166778564453,4178,AF,NA,NA-OH,,0,,,,,,,50,2008-10-21T18:24:05+00:00
42396,NA-0131,small_airport,"Keitzaub Landing Site",-22.810283660888672,18.849716186523438,4469,AF,NA,NA-OH,,0,,,,,,,50,2008-10-21T18:24:12+00:00
42397,NA-0132,small_airport,"Spatzenfeld Landing Site",-22.785282135009766,18.88971710205078,4528,AF,NA,NA-OH,,0,,,,,,,50,2008-10-21T18:24:13+00:00
42401,NA-0136,small_airport,"Ninette Landing Site",-22.399999618530273,18.75,4836,AF,NA,NA-OH,,0,,,,,,,50,2008-10-21T18:24:27+00:00
42402,NA-0137,small_airport,"Solingen Airstrip",-22.39638328552246,19.11083221435547,4866,AF,NA,NA-OH,,0,,,,,,,50,2008-10-21T18:24:28+00:00
42403,NA-0138,small_airport,"Eintracht Airstrip",-22.353050231933594,18.2450008392334,4958,AF,NA,NA-OH,,0,,,,,,,50,2008-10-21T18:24:30+00:00
42408,NA-0143,small_airport,"Swa Knie Landing Site",-22,20,4345,AF,NA,NA-OH,,0,,,,,,,50,2008-10-21T18:24:47+00:00
42409,NA-0144,small_airport,"Wilskrag Landing Site",-22,20.627782821655273,4094,AF,NA,NA-OH,,0,,,,,,,50,2008-10-21T18:24:48+00:00
42411,NA-0146,small_airport,"Okahennesiva Landing Site",-21.86528205871582,18.402782440185547,5284,AF,NA,NA-OH,,0,,,,,,,50,2008-10-21T18:24:52+00:00
42413,NA-0148,small_airport,"Fortuna Landing Site",-21.808332443237305,19.90833282470703,4389,AF,NA,NA-OH,,0,,,,,,,50,2008-10-21T18:24:56+00:00
42414,NA-0149,small_airport,"Okamapu Landing Site",-21.736949920654297,17.885000228881836,5541,AF,NA,NA-OH,,0,,,,,,,50,2008-10-21T18:24:59+00:00
29534,FYAM,small_airport,"Aminuis Airstrip",-23.655799865722656,19.351699829101562,4012,AF,NA,NA-OH,Aminuis,0,FYAM,,,,,,50,2008-10-21T18:23:32+00:00
29535,NA-0002,small_airport,"Aminuis Pan Landing Site",-23.607200622558594,19.915800094604492,4075,AF,NA,NA-OH,Aminuis,0,,,,,,,50,2008-10-21T18:23:38+00:00
29537,NA-0004,small_airport,"Aranos Airport",-24.128299713135,19.114999771118,3904,AF,NA,NA-HA,Aranos,0,FYAN,,,,,,50,2015-09-13T14:51:12+00:00
29538,NA-0005,small_airport,"Aranos Pan Landing Site",-24.109399795532227,19.288299560546875,3891,AF,NA,NA-HA,Aranos,0,,,,,,,50,2008-10-21T18:22:40+00:00
29667,FYAV,small_airport,"Ariamsvley Airport",-28.118900299072266,19.833900451660156,2549,AF,NA,NA-KA,Ariamsvley,0,FYAV,,,,,,50,2008-10-21T18:21:04+00:00
42398,NA-0133,small_airport,"Aris Landrig Strip",-22.756383895874023,17.13526725769043,5820,AF,NA,NA-KH,Aris,0,,,,,,,50,2008-10-21T18:24:14+00:00
29539,FYAB,small_airport,"Aroab B Airport",-26.776100158691406,19.633100509643555,3235,AF,NA,NA-KA,Aroab,0,FYAB,,,,,,50,2008-10-21T18:21:06+00:00
29549,NA-0012,small_airport,"Bagani Airport",-18.1180992126,21.6243991852,3314,AF,NA,NA-KE,Bagani,0,FYBG,BQI,,,,,50,2014-06-21T14:13:27+00:00
29698,FYBC,small_airport,"Bethanien Airport",-26.5448,17.1816,3260,AF,NA,NA-KA,Bethanien,0,FYBC,,,,https://en.wikipedia.org/wiki/Bethanien_Airport,,50,2015-09-11T19:48:37+00:00
42343,NA-0078,small_airport,"Brukkaros Landing Strip",-25.69944953918457,18.053049087524414,3190,AF,NA,NA-KA,Brukkaros,0,,,,,,,50,2008-10-21T18:21:18+00:00
42406,NA-0141,small_airport,"Buitepos Airstrip",-22.266666412353516,20,4210,AF,NA,NA-OH,Buitepos,0,,,,,,,50,2008-10-21T18:24:37+00:00
42387,NA-0122,small_airport,"Rooisand Airport",-23.291200637817383,16.110700607299805,3796,AF,NA,NA-HA,Chausib,0,,,,,,,50,2008-10-21T18:23:58+00:00
29550,NA-0013,small_airport,"Derm East Pan Landing Site",-23.66670036315918,18.216699600219727,4219,AF,NA,NA-HA,Derm,0,,,,,,,50,2008-10-21T18:23:30+00:00
28486,FYGK,small_airport,"Farm Whitwater East Landing Strip",-24.629999,15.9392,857,AF,NA,NA-HA,"Desert Homestead",0,FYGK,,,,,,50,2017-03-15T10:18:27+00:00
29551,NA-0014,small_airport,"Dordabis Carpet Airport",-22.95439910888672,17.639699935913086,4970,AF,NA,NA-KH,Dordabis,0,,,,,,,50,2008-10-21T18:24:11+00:00
42407,NA-0142,small_airport,"Drimiopsis Landing Site",-22.066667556762695,19.066667556762695,5023,AF,NA,NA-OH,Drimiopsis,0,,,,,,,50,2008-10-21T18:24:42+00:00
3025,FYEN,small_airport,"Eenhana Airport",-17.482999801635742,16.32200050354004,3660,AF,NA,NA-OW,Eenhana,0,FYEN,,,,,,50,2008-10-21T18:26:14+00:00
29552,NA-0015,small_airport,"Eirup Landing Site",-24.23189926147461,18.40920066833496,3921,AF,NA,NA-HA,Eirup,0,,,,,,,50,2008-10-21T18:22:24+00:00
29853,FYEK,small_airport,"Epukiro Airport",-21.786699295043945,19.10610008239746,4892,AF,NA,NA-OH,Epukiro,0,FYEK,,,,,,50,2008-10-21T18:24:58+00:00
42415,NA-0150,small_airport,"Epukiro North Landing Site",-21.67526626586914,19.21693229675293,4770,AF,NA,NA-OH,Epukiro,0,,,,,,,50,2008-10-21T18:25:00+00:00
42416,NA-0151,small_airport,"Epukiru Airport",-21.616666793823242,19.399999618530273,4633,AF,NA,NA-OH,Epukiro,0,,,,,,,50,2008-10-21T18:25:02+00:00
42381,NA-0116,small_airport,"Gamsberg Landing Site",-23.36669921875,16.25,5885,AF,NA,NA-KH,Gamsberg,0,,,,,,,50,2008-10-21T19:01:49+00:00
42390,NA-0125,small_airport,"Garib Landing Site",-23.135000228881836,17.63279914855957,4750,AF,NA,NA-KH,Garib,0,,,,,,,50,2008-10-21T19:02:03+00:00
42347,NA-0082,small_airport,"Gibeon Airport",-25.127216339111328,17.76194953918457,3428,AF,NA,NA-HA,Gibeon,0,,,,,,,50,2008-10-21T18:21:27+00:00
29555,FYGB,small_airport,"Gobabis Airport",-22.5044002532959,18.973100662231445,4731,AF,NA,NA-OH,Gobabis,0,FYGB,GOG,,,,,50,2008-10-21T18:24:21+00:00
42400,NA-0135,small_airport,"Gobabis Street-T Airport",-22.43611717224121,19.01361656188965,4815,AF,NA,NA-OH,Gobabis,0,,,,,,,50,2008-10-21T18:24:24+00:00
29556,FYGC,small_airport,"Gochas Airstrip",-24.856399536132812,18.817800521850586,3714,AF,NA,NA-HA,Gochas,0,FYGC,,,,,,50,2008-10-21T18:21:36+00:00
42388,NA-0123,small_airport,"Goellschau Farm Landing Site",-23.274999618530273,16.538883209228516,5934,AF,NA,NA-KH,Goellschau,0,,,,,,,50,2008-10-21T18:24:01+00:00
29560,NA-0021,small_airport,"Haribes Dam Strip",-24.6210994720459,17.540800094604492,3894,AF,NA,NA-HA,"Haribes Dam",0,,,,,,,50,2008-09-14T08:03:12+00:00
29944,FYHH,small_airport,"Helmeringhausen Airport",-25.863300323486328,16.809999465942383,4603,AF,NA,NA-KA,Helmeringhausen,0,FYHH,,,,,,50,2008-10-21T18:21:16+00:00
42341,NA-0076,small_airport,"Helmering Airstrip",-25.863332748413086,16.809999465942383,4563,AF,NA,NA-KA,Helmeringhausen,0,,,,,,,50,2008-10-21T18:21:14+00:00
42368,NA-0103,small_airport,"Hoachanas Airport",-23.915000915527344,18.04916763305664,4137,AF,NA,NA-HA,Hoachanas,0,,,,,,,50,2008-10-21T18:23:04+00:00
29951,FYHS,small_airport,"Hobas Airport",-27.624399185180664,17.693300247192383,2313,AF,NA,NA-KA,Hobas,0,FYHS,,,,,,50,2008-10-21T18:21:04+00:00
42418,NA-0153,small_airport,"Hochfeld Airport",-21.49028205871582,17.85194969177246,5127,AF,NA,NA-OD,Hochfeld,0,,,,,,,50,2008-10-21T18:25:08+00:00
29566,FYKD,small_airport,"Kalkfeld Airport",-20.901399612426758,16.207799911499023,5059,AF,NA,NA-OD,Kalkfeld,0,FYKD,,,,,,50,2008-10-21T18:25:31+00:00
29567,NA-0025,small_airport,"Kalkrand Pan Landing Site",-24.06220054626465,17.596900939941406,4022,AF,NA,NA-HA,Kalkrand,0,,,,,,,50,2008-10-21T18:22:46+00:00
29568,FYKJ,small_airport,"Kamanjab Airport",-19.520599365234375,14.8233003616333,4259,AF,NA,NA-KU,Kamanjab,0,FYKJ,,,,,,50,2008-10-21T18:25:48+00:00
29571,FYKA,small_airport,"Karibib Airport",-21.84779930114746,15.902799606323242,3829,AF,NA,NA-ER,Karibib,0,FYKA,,,,,,50,2008-10-21T18:24:54+00:00
42336,NA-0071,small_airport,"Keetmansh Railroad Airport",-26.593050003051758,18.1422176361084,3231,AF,NA,NA-KA,Keetmanshoop,0,,,,,,,50,2008-10-21T18:21:09+00:00
29577,NA-0033,small_airport,"Klein Aub 15M Landing Site",-23.790599822998047,16.658599853515625,5085,AF,NA,NA-HA,"Klein Aub",0,,,,,,,50,2008-10-21T18:23:15+00:00
29578,NA-0034,small_airport,"Klein Aub Pan Ok Landing Site",-23.78059959411621,16.645000457763672,5105,AF,NA,NA-HA,"Klein Aub",0,,,,,,,50,2008-10-21T18:23:17+00:00
29576,NA-0032,small_airport,"Kiripotib Landing Site",-23.32830047607422,17.946399688720703,4475,AF,NA,NA-KH,"Klein Nauas",0,,,,,,,50,2008-10-21T18:23:53+00:00
42384,NA-0119,small_airport,"Klein Nauas Landing Site",-23.316667556762695,17.844167709350586,4474,AF,NA,NA-KH,"Klein Nauas",0,,,,,,,50,2008-10-21T18:23:55+00:00
42339,NA-0074,small_airport,"Koes Airport",-25.937782287597656,19.12055015563965,3175,AF,NA,NA-KA,Koes,0,,,,,,,50,2008-10-21T18:21:12+00:00
42395,NA-0130,small_airport,"Krumneck Airport",-22.961383819580078,16.934450149536133,5768,AF,NA,NA-KH,Krumneck,0,,,,,,,50,2008-10-21T18:24:11+00:00
42358,NA-0093,small_airport,"Kub Landing Site",-24.21554946899414,17.49333381652832,3982,AF,NA,NA-HA,Kub,0,,,,,,,50,2008-10-21T18:22:25+00:00
42379,NA-0114,small_airport,"Leonardville Airport",-23.50138282775879,18.787782669067383,4166,AF,NA,NA-OH,Leonardville,0,,,,,,,50,2008-10-21T18:23:48+00:00
29581,NA-0036,small_airport,"Maltahoehe 4 Kal Landing Site",-24.531400680541992,17.18440055847168,4446,AF,NA,NA-HA,Maltahoehe,0,,,,,,,50,2008-10-21T18:22:02+00:00
29582,NA-0037,small_airport,"Maltahoehe 5 Kal Landing Site",-24.11079978942871,17.564199447631836,4121,AF,NA,NA-HA,Maltahoehe,0,,,,,,,50,2008-10-21T18:22:38+00:00
29583,NA-0038,small_airport,"Maltahoehe 6 Kal Landing Site",-24.12529945373535,17.55780029296875,4114,AF,NA,NA-HA,Maltahoehe,0,,,,,,,50,2008-10-21T18:22:34+00:00
29584,NA-0039,small_airport,"Maltahoehe 7 Kal Landing Site",-24.336700439453125,17.340599060058594,4229,AF,NA,NA-HA,Maltahoehe,0,,,,,,,50,2008-10-21T18:22:21+00:00
29585,NA-0040,small_airport,"Maltahoehe 8 Kal Landing Site",-24.343900680541992,17.332199096679688,4216,AF,NA,NA-HA,Maltahoehe,0,,,,,,,50,2008-10-21T18:22:19+00:00
29586,NA-0041,small_airport,"Maltahoehe 9 Kal Landing Site",-24.510799407958984,17.18829917907715,4439,AF,NA,NA-HA,Maltahoehe,0,,,,,,,50,2008-10-21T18:22:06+00:00
29587,FYMH,small_airport,"Maltahoehe Airstrip",-24.771900177001953,16.979400634765625,4511,AF,NA,NA-HA,Maltahoehe,0,FYMH,,,,,,50,2008-10-21T18:21:45+00:00
42349,NA-0084,small_airport,"Maltahoehe S Airport",-24.835599899291992,16.975200653076172,4465,AF,NA,NA-HA,Maltahoehe,0,,,,,,,50,2008-10-21T18:21:39+00:00
42351,NA-0086,small_airport,"Maltahoehe Airstrip",-24.768333435058594,16.975282669067383,4419,AF,NA,NA-HA,Maltahoehe,0,,,,,,,50,2008-10-21T18:21:47+00:00
29592,FYME,small_airport,"Mount Etjo Airport",-21.0233001709,16.4528007507,5000,AF,NA,NA-OD,"Mount Etjo Safari Lodge",0,FYME,MJO,,,http://en.wikipedia.org/wiki/Mount_Etjo_Airport,,50,2015-03-15T00:53:09+00:00
29596,FYNA,small_airport,"Namutoni Airport",-18.8064,16.9272,3579,AF,NA,NA-OT,Namutoni,0,FYNA,NNI,,,,,50,2016-02-19T20:22:48+00:00
42375,NA-0110,small_airport,"Nauchas Landing Site",-23.633333206176758,16.325000762939453,5842,AF,NA,NA-KH,Nauchas,0,,,,,,,50,2008-10-21T18:23:35+00:00
42393,NA-0128,small_airport,"Oamites Landing Strip",-23.00749969482422,17.1169490814209,5450,AF,NA,NA-KH,Oamites,0,,,,,,,50,2008-10-21T18:24:07+00:00
29599,FYON,small_airport,"Okahandja Airstrip",-22.013900756835938,16.897499084472656,4321,AF,NA,NA-OD,Okahandja,0,FYON,,,,,,50,2008-10-21T18:24:46+00:00
42399,NA-0134,small_airport,"Okapanje Airport",-22.58916664123535,17.96554946899414,4922,AF,NA,NA-KH,Okapanje,0,,,,,,,50,2008-10-21T18:24:19+00:00
42419,NA-0154,small_airport,"Godehoop Landing Site",-21.28333282470703,15.533332824707031,3567,AF,NA,NA-ER,Okombahe,0,,,,,,,50,2008-10-21T18:25:15+00:00
29604,NA-0051,small_airport,"Omawewoz Airport ",-21.608299255371094,19.408599853515625,4623,AF,NA,NA-OH,Omamewozonyanda,0,,,,,,,50,2008-10-21T18:25:06+00:00
29602,FYOM,small_airport,"Omaruru Airport",-21.415000915527344,15.93809986114502,3993,AF,NA,NA-ER,Omaruru,0,FYOM,,,,,,50,2008-10-21T18:25:12+00:00
29603,FYGL,small_airport,"Omaruru Game Lodge Airport",-21.326099395751953,16.089399337768555,4226,AF,NA,NA-ER,Omaruru,0,FYGL,,,,,,50,2008-10-21T18:25:14+00:00
29605,FYOE,small_airport,"Omega Airport",-18.0303,22.189699,3346,AF,NA,NA-KE,Omega,0,FYOE,OMG,,,https://en.wikipedia.org/wiki/Omega_Airport,,50,2016-02-19T20:14:03+00:00
29608,FYOU,small_airport,"Operet Airport",-18.609399795532227,17.149700164794922,3625,AF,NA,NA-OT,Operet,0,FYOU,,,,,,50,2008-10-21T18:25:58+00:00
29609,FYSN,small_airport,"Osona Airstrip",-22.107799530029297,16.979700088500977,4449,AF,NA,NA-OD,Osona,0,FYSN,,,,,,50,2008-10-21T18:24:41+00:00
42404,NA-0139,small_airport,"Otjihaenena Landing Strip",-22.290283203125,17.77138328552246,5276,AF,NA,NA-KH,Otjihaenena,0,,,,,,,50,2008-10-21T18:24:33+00:00
42422,NA-0157,small_airport,"Otjiwarongo Center Airport",-20.463882446289062,16.647783279418945,4850,AF,NA,NA-OD,Otjiwarongo,0,,,,,,,50,2008-10-21T18:25:36+00:00
29610,FYOW,small_airport,"Otjiwarongo Airport",-20.434700012207,16.660800933838,4859,AF,NA,NA-OH,Otjiwarongo,0,FYOW,OTJ,,,https://en.wikipedia.org/wiki/Otjiwarongo_Airport,,50,2015-09-11T20:39:48+00:00
29611,FYOJ,small_airport,"Outjo Airport",-20.075300216675,16.124700546265,4334,AF,NA,NA-KU,Outjo,0,FYOJ,,,,https://en.wikipedia.org/wiki/Outjo_Airport,,50,2015-09-11T21:28:27+00:00
42383,NA-0118,small_airport,"Rehoboth Town Airport",-23.321666717529297,17.071117401123047,4537,AF,NA,NA-HA,Rehoboth,0,,,,,,,50,2008-10-21T18:23:54+00:00
42385,NA-0120,small_airport,"Rehoboth Airstrip",-23.3125,17.044450759887695,4537,AF,NA,NA-HA,Rehoboth,0,,,,,,,50,2008-10-21T18:23:56+00:00
42386,NA-0121,small_airport,"Rehoboth Sta Airport",-23.310550689697266,17.18833351135254,4537,AF,NA,NA-HA,Rehoboth,0,,,,,,,50,2008-10-21T18:23:57+00:00
42334,NA-0069,small_airport,"Rietfontein Airport",-26.7450008392334,20.03333282470703,2750,AF,NA,NA-KA,Rietfontein,0,,,,,,,50,2008-10-21T18:21:07+00:00
42367,NA-0102,small_airport,"Rietoog Airport",-23.96666717529297,16.56388282775879,4902,AF,NA,NA-HA,Rietoog,0,,,,,,,50,2008-10-21T18:23:01+00:00
3034,FYRP,closed,"Rosh Pinah Airport",-27.9643,16.753901,1274,AF,NA,NA-KA,"Rosh Pinah",0,FYRP,,,,,,50,2016-02-19T19:40:52+00:00
29620,FYSA,small_airport,"Skorpion Mine Airport",-27.8763999939,16.6478004456,1870,AF,NA,NA-KA,"Rosh Pinah",0,FYSA,RHN,,,,,50,2015-04-30T19:08:43+00:00
29614,NA-0055,small_airport,"Rostock Ritz Lodge Airport",-23.542200088500977,15.838899612426758,2927,AF,NA,NA-KH,Rostock,0,,,,,,,50,2008-10-21T18:23:45+00:00
3033,FYRC,small_airport,"Ruacana Airport",-17.420601,14.3717,3765,AF,NA,NA-KU,Ruacana,0,FYRC,,,,https://en.wikipedia.org/wiki/Ruacana_Airport,,50,2016-09-29T16:21:38+00:00
42405,NA-0140,small_airport,"Sandfontein Airstrip",-22.280282974243164,20,4161,AF,NA,NA-OH,Sandfontein,0,,,,,,,50,2008-10-21T18:24:34+00:00
29615,NA-0056,small_airport,"Schlip 1 Road113 Landing Site",-23.963600158691406,17.890600204467773,4049,AF,NA,NA-HA,Schlip,0,,,,,,,50,2008-10-21T18:23:03+00:00
29616,NA-0057,small_airport,"Schlip 2 67 Road Landing Site",-24.05190086364746,17.369699478149414,4173,AF,NA,NA-HA,Schlip,0,,,,,,,50,2008-10-21T18:22:50+00:00
29617,NA-0058,small_airport,"Schlip 2 87 Road Landing Site",-24.057199478149414,17.15999984741211,4383,AF,NA,NA-HA,Schlip,0,,,,,,,50,2008-10-21T18:22:48+00:00
29618,NA-0059,small_airport,"Schlip Kalkrand1 Landing Site",-24.00189971923828,16.89419937133789,4606,AF,NA,NA-HA,Schlip,0,,,,,,,50,2008-10-21T18:22:54+00:00
29624,FYSP,small_airport,"Stampriet Pan Airport",-24.35219955444336,18.433300018310547,3819,AF,NA,NA-HA,Stampriet,0,FYSP,,,,,,50,2008-10-21T18:22:15+00:00
29625,NA-0061,small_airport,"Stamprietpan Ok Landing Site",-24.349700927734375,18.32670021057129,3822,AF,NA,NA-HA,Stampriet,0,,,,,,,50,2008-10-21T18:22:17+00:00
42412,NA-0147,small_airport,"Steinhausen Landing Site",-21.82444953918457,18.231950759887695,5382,AF,NA,NA-OH,Steinhausen,0,,,,,,,50,2008-10-21T18:24:55+00:00
42340,NA-0075,small_airport,"Tses Airstrip",-25.890283584594727,18.12638282775879,3152,AF,NA,NA-KA,Tses,0,,,,,,,50,2008-10-21T18:21:13+00:00
42370,NA-0105,small_airport,"Tsumis Airport",-23.72861671447754,17.440000534057617,4178,AF,NA,NA-HA,Tsumis,0,,,,,,,50,2008-10-21T18:23:24+00:00
29630,FYTK,small_airport,"Tsumkwe Airport",-19.584999084473,20.452800750732,3780,AF,NA,NA-OD,Tsumkwe,0,FYTK,,,,https://en.wikipedia.org/wiki/Tsumkwe_Airport,,50,2015-09-11T21:57:56+00:00
29631,FYUS,small_airport,"Uis Mine Airport",-21.229999542236328,14.867199897766113,2644,AF,NA,NA-ER,"Uis Mine",0,FYUS,,,,,,50,2008-10-21T18:25:17+00:00
42348,NA-0083,small_airport,"Witbooisvley Landing Site",-25.068883895874023,18.45166778564453,3813,AF,NA,NA-HA,Witbooisvley,0,,,,,,,50,2008-10-21T18:21:30+00:00
29635,FYWI,small_airport,"Witvlei Airport",-22.40530014038086,18.459199905395508,4800,AF,NA,NA-OH,Witvlei,0,FYWI,,,,,,50,2008-10-21T18:24:26+00:00
318532,NA-0167,small_airport,"B8 Airstrip",-19.059552,18.664579,,AF,NA,NA-OD,,0,,,,,,,0,2016-06-13T04:00:07+00:00
318537,NA-0170,small_airport,"Uukwaluudhi Airport",-18.109282,14.410431,,AF,NA,NA-OS,,0,,,,,,,0,2016-06-13T05:23:34+00:00
315385,FYAA,small_airport,"Ai-Ais Airport",-27.995,17.5966,2000,AF,NA,NA-KU,Ai-Ais,0,FYAA,AIW,,,,,0,2015-09-11T17:51:08+00:00
315405,FYAK,small_airport,"Aussenkehr Airport",-28.4587,17.4645,970,AF,NA,NA-KA,Aussenkehr,0,FYAK,,,,,,0,2015-09-12T21:06:20+00:00
318535,NA-0169,small_airport,"Ehomba Airport",-17.488,13.836836,,AF,NA,NA-KU,Ehomba,0,,,,,,,0,2016-06-13T05:17:48+00:00
322414,NA-0174,small_airport,"Farm Etemba Landing Strip",-21.405111,15.606778,3503,AF,NA,NA-ER,"Etemba Wilderness Camp",0,,,,,,,0,2017-03-15T10:19:08+00:00
318844,NA-0172,small_airport,"Haklesdoorn Airport",-28.886092,18.239166,,AF,NA,NA-KA,Haklesdoorn,0,,,,,,,0,2016-06-17T05:47:49+00:00
312717,FYHI,small_airport,"Halali Airport",-19.0285,16.4585,3639,AF,NA,NA-OT,Halali,1,FYHI,HAL,,,http://en.wikipedia.org/wiki/Halali_Airport,,0,2014-08-21T13:52:27+00:00
322415,NA-0175,small_airport,"Farm Dawib Ost Landing Strip",-21.774528,15.515361,3503,AF,NA,NA-ER,"Hohenstein Lodge",0,,,,,,,0,2017-03-15T10:18:52+00:00
315399,NA-0158,small_airport,"Isibis Airstrip",-23.4178,16.5075,5600,AF,NA,NA-KH,Isibis,0,,,,,,,0,2015-09-12T09:39:28+00:00
322416,NA-0176,small_airport,"Farm Gurus Landing Strip",-24.07675,17.610417,4061,AF,NA,NA-HA,Kalkrand,0,,,,,,,0,2017-03-15T10:18:42+00:00
312737,FYKB,small_airport,"Karasburg Airport",-28.0297,18.7385,3275,AF,NA,NA-KA,Karasburg,0,FYKB,KAS,,,http://en.wikipedia.org/wiki/Karasburg_Airport,,0,2014-08-22T22:49:21+00:00
318395,NA-0159,small_airport,"Khorixas Airport",-20.366192,15.059298,,AF,NA,NA-KU,Khorixas,0,,,,,,,0,2016-06-09T03:07:07+00:00
318401,NA-0162,small_airport,"Kongola Airport",-17.775197,23.307089,,AF,NA,NA-CA,Kongola,0,,,,,,,0,2016-06-09T03:23:23+00:00
318402,NA-0163,closed,"Susuwe Airport",-17.775984,23.278472,,AF,NA,NA-CA,Kongola,0,,,,,,,0,2016-06-09T03:25:38+00:00
314120,FYMG,small_airport,"Midgard Airport",-22.0106,17.37,5125,AF,NA,NA-OD,Midgard,0,FYMG,MQG,,,,,0,2015-03-19T18:04:42+00:00
324059,FYOH,small_airport,"Okahao Airport",-17.881279,15.075491,,AF,NA,NA-OS,Okahao,0,FYOH,,,,,,0,2017-06-24T12:46:21+00:00
318406,NA-0166,small_airport,"Okakarara Airport",-20.601996,17.468807,,AF,NA,NA-OD,Okakarara,0,,,,,,,0,2016-06-09T03:47:26+00:00
318397,NA-0161,small_airport,"Okongo Airport",-17.565947,17.225298,,AF,NA,NA-OW,Okongo,0,,,,,,,0,2016-06-09T03:15:00+00:00
318396,NA-0160,small_airport,"Okongwati Airport",-17.43873,13.2782,,AF,NA,NA-KU,Okongwati,0,,,,,,,0,2016-06-09T03:12:09+00:00
326993,NA-0088,small_airport,"Ongava Lodge Airstrip",-19.328533,15.915003,3740,AF,NA,NA-KU,Ombika,0,,,,,,,0,2018-04-08T12:45:11+00:00
318394,FYOP,small_airport,"Opuwa Airport",-18.061424,13.85047,3770,AF,NA,NA-KU,Opuwa,0,FYOP,OPW,,,https://en.wikipedia.org/wiki/Opuwa_Airport,,0,2016-06-09T03:04:51+00:00
315376,FYOS,small_airport,"Oshakati Airport",-17.797,15.6993,3616,AF,NA,NA-ON,Oshakati,0,FYOS,OHI,,,https://en.wikipedia.org/wiki/Oshakati_Airport,,0,2015-09-10T23:49:16+00:00
318405,NA-0165,small_airport,"Otjituuo Airport",-19.652406,18.558635,,AF,NA,NA-OD,Otjituuo,0,,,,,,,0,2016-06-09T03:46:14+00:00
318834,NA-0171,small_airport,"Outapi Airport",-17.574847,15.007946,,AF,NA,NA-OS,Outapi,0,,,,,,,0,2016-06-17T04:10:23+00:00
318534,NA-0168,small_airport,"Palmwag Airport",-19.873201,13.943931,,AF,NA,NA-KU,Palmwag,0,,,,,,,0,2016-06-13T05:10:43+00:00
319258,NA-0173,small_airport,"Ndonga Linena Airstrip",-17.98345,20.534708,,AF,NA,NA-KW,Shitemo,0,,,,,,,0,2016-06-29T09:02:34+00:00
318404,NA-0164,small_airport,"Sikereti Airport",-19.104117,20.698375,,AF,NA,NA-KE,Sikereti,0,,,,,,,0,2016-06-09T03:41:33+00:00
