id,ident,type,name,latitude_deg,longitude_deg,elevation_ft,continent,iso_country,iso_region,municipality,scheduled_service,gps_code,iata_code,local_code,home_link,wikipedia_link,keywords,score,last_updated
"#meta +id","#meta +code","#loc +airport +type","#loc +airport +name","#geo +lat","#geo +lon","#geo +elevation +ft","#region +continent +code","#country +code +iso2","#adm1 +code +iso","#loc +municipality +name","#status +scheduled","#loc +airport +code +gps","#loc +airport +code +iata","#loc +airport +code +local","#meta +url +airport","#meta +url +wikipedia","#meta +keywords","#meta +score","#date +updated"
28118,VTBS,large_airport,"Suvarnabhumi Airport",13.681099891662598,100.74700164794922,5,AS,TH,TH-10,Bangkok,1,VTBS,BKK,,,http://en.wikipedia.org/wiki/Suvarnabhumi_Airport,,51150,2009-01-29T16:23:22+00:00
26638,VTBD,large_airport,"Don Mueang International Airport",13.9125995636,100.607002258,9,AS,TH,TH-10,Bangkok,1,VTBD,DMK,,http://www2.airportthai.co.th/airportnew/bangkok/index.asp?lang=en,http://en.wikipedia.org/wiki/Don_Mueang_International_Airport,"Old Bangkok International Airport, Don Muang Royal Thai Air Force Base",875,2014-01-27T11:03:44+00:00
26674,VTSP,large_airport,"Phuket International Airport",8.1132,98.316902,82,AS,TH,TH-83,Phuket,1,VTSP,HKT,,,http://en.wikipedia.org/wiki/Phuket_International_Airport,,1050,2017-04-28T19:11:13+00:00
26647,VTCC,large_airport,"Chiang Mai International Airport",18.766799926799997,98.962600708,1036,AS,TH,TH-50,"Chiang Mai",1,VTCC,CNX,,,http://en.wikipedia.org/wiki/Chiang_Mai_International_Airport,,1050,2010-09-01T19:15:28+00:00
26672,VTSM,medium_airport,"Samui Airport",9.547789573669998,100.06199646,64,AS,TH,TH-80,"Na Thon (Ko Samui Island)",1,VTSM,USM,,http://www.samuiairportonline.com,http://en.wikipedia.org/wiki/Samui_Airport,,800,2010-08-30T15:52:48+00:00
26669,VTSG,medium_airport,"Krabi Airport",8.09912014008,98.9861984253,82,AS,TH,TH-81,Krabi,1,VTSG,KBV,,,http://en.wikipedia.org/wiki/Krabi_Airport,,1050,2010-09-01T19:17:14+00:00
26676,VTSS,medium_airport,"Hat Yai International Airport",6.93320989609,100.392997742,90,AS,TH,TH-90,"Hat Yai",1,VTSS,HDY,,,http://en.wikipedia.org/wiki/Hat_Yai_International_Airport,,1050,2010-09-02T20:40:57+00:00
26645,VTBU,medium_airport,"U-Tapao International Airport",12.679900169372559,101.00499725341797,42,AS,TH,TH-21,Rayong,1,VTBU,UTP,,http://www.utapao.com/,http://en.wikipedia.org/wiki/U-Tapao_International_Airport,"Utapao, U-Taphao, U-Tapao Royal Thai Navy Airfield",1000,2009-03-04T17:46:31+00:00
26653,VTCT,medium_airport,"Chiang Rai International Airport",19.952299118,99.88289642330001,1280,AS,TH,TH-57,"Chiang Rai",1,VTCT,CEI,,,http://en.wikipedia.org/wiki/Chiang_Rai_International_Airport,,1050,2010-09-02T19:17:37+00:00
26678,VTUD,medium_airport,"Udon Thani Airport",17.386400222800003,102.788002014,579,AS,TH,TH-41,"Udon Thani",1,VTUD,UTH,,http://www.udonthaniairport.com/,http://en.wikipedia.org/wiki/Udon_Thani_International_Airport,,1050,2010-09-02T20:43:32+00:00
26665,VTSB,medium_airport,"Surat Thani Airport",9.13259983063,99.135597229,20,AS,TH,TH-84,"Surat Thani",1,VTSB,URT,,,http://en.wikipedia.org/wiki/Surat_Thani_Airport,,1050,2010-09-02T14:54:23+00:00
26661,VTPP,medium_airport,"Phitsanulok Airport",16.782899856567383,100.27899932861328,154,AS,TH,TH-65,,1,VTPP,PHS,,,http://en.wikipedia.org/wiki/Phitsanulok_Airport,,1050,2008-06-13T14:30:04+00:00
26683,VTUN,small_airport,"Khorat Airport",14.9344997406,102.07900238,729,AS,TH,TH-30,,0,VTUN,,,,http://en.wikipedia.org/wiki/Korat_Royal_Thai_Air_Force_Base,"Korat Air Base",50,2009-11-02T07:58:59+00:00
32595,VTBT,small_airport,"Bang Pra Airport",13.2324259496,100.956802368,10,AS,TH,TH-20,"Bang Pra",0,VTBT,,,http://www.thaiflyingclub.com/,,,50,2012-08-06T01:00:57+00:00
26660,VTPO,medium_airport,"Sukhothai Airport",17.238000869750977,99.81819915771484,179,AS,TH,TH-64,,1,VTPO,THS,,,http://en.wikipedia.org/wiki/Sukhothai_Airport,,1050,2008-06-13T14:30:04+00:00
26687,VTUU,medium_airport,"Ubon Ratchathani Airport",15.2512998581,104.870002747,406,AS,TH,TH-34,"Ubon Ratchathani",1,VTUU,UBP,,,http://en.wikipedia.org/wiki/Ubon_Ratchathani_Airport,,1050,2010-09-02T20:42:35+00:00
26648,VTCH,medium_airport,"Mae Hong Son Airport",19.301300048828125,97.97579956054688,929,AS,TH,TH-58,,1,VTCH,HGN,,,http://en.wikipedia.org/wiki/Mae_Hong_Son_Airport,,875,2008-06-13T14:30:04+00:00
26658,VTPM,medium_airport,"Mae Sot Airport",16.699899673461914,98.54509735107422,690,AS,TH,TH-63,,1,VTPM,MAQ,,,http://en.wikipedia.org/wiki/Mae_Sot_Airport,,875,2008-06-13T14:30:04+00:00
26656,VTPI,medium_airport,"Takhli Airport",15.277299881,100.29599762,107,AS,TH,TH-60,,0,VTPI,TKH,,,http://en.wikipedia.org/wiki/Takhli_Royal_Thai_Air_Force_Base,,325,2012-06-20T22:11:51+00:00
26689,VTUW,medium_airport,"Nakhon Phanom Airport",17.383800506591797,104.64299774169922,587,AS,TH,TH-48,,1,VTUW,KOP,,,http://en.wikipedia.org/wiki/Nakhon_Phanom_Airport,,1050,2008-12-30T14:07:23+00:00
26655,VTPH,medium_airport,"Hua Hin Airport",12.6361999512,99.951499939,62,AS,TH,TH-76,"Hua Hin",1,VTPH,HHQ,,,http://en.wikipedia.org/wiki/Hua_Hin_Airport,,800,2010-02-21T14:25:46+00:00
26654,VTPB,medium_airport,"Phetchabun Airport",16.6760005951,101.194999695,450,AS,TH,TH-67,,1,VTPB,PHY,,,http://en.wikipedia.org/wiki/Phetchabun_Airport,,400,2012-03-11T10:12:51+00:00
26667,VTSE,medium_airport,"Chumphon Airport",10.711199760437012,99.36170196533203,18,AS,TH,TH-86,,0,VTSE,CJM,,,,,400,2008-06-13T14:30:04+00:00
26642,VTBL,medium_airport,"Khok Kathiam Airport",14.8746004105,100.663002014,123,AS,TH,TH-16,,0,VTBL,,,,,,250,2012-11-22T08:35:29+00:00
26643,VTBO,medium_airport,"Trat Airport",12.274600029,102.319000244,105,AS,TH,TH-23,,1,VTBO,TDX,,,http://en.wikipedia.org/wiki/Trat_Airport,,250,2012-08-06T01:02:39+00:00
32597,VTCI,small_airport,"Mae Hong Son Airport",19.3719997406,98.43699646,1271,AS,TH,TH-58,"Mae Hong Son",0,VTCI,PYY,,,http://en.wikipedihttp://en.wikipedia.org/wiki/Pai_Airporta.org/wiki/Pai_Airport,"Pai Airport",50,2012-01-22T10:40:29+00:00
302324,TH-0001,small_airport,"Eastern Flying Club",12.901714,100.932856,160,AS,TH,TH-20,"Bang Lamung",0,,,EFC,http://www.thaiflyingclub.com/linkairporteastern.html,,,0,2016-05-10T12:00:05+00:00
298312,YTBF,small_airport,"Pattaya Airpark",12.8325,100.949444,100,AS,TH,TH-20,Pattaya,0,VTBF,PYX,,http://www.pattayaairpark.com/,,,0,2018-06-07T01:46:41+00:00
26679,VTUI,medium_airport,"Sakon Nakhon Airport",17.195100784301758,104.11900329589844,529,AS,TH,TH-47,,1,VTUI,SNO,,,http://en.wikipedia.org/wiki/Sakon_Nakhon_Airport,,1050,2008-06-13T14:30:04+00:00
26650,VTCN,medium_airport,"Nan Airport",18.807899475097656,100.78299713134766,685,AS,TH,TH-55,,1,VTCN,NNT,,,http://en.wikipedia.org/wiki/Nan_Airport,,1050,2008-06-13T14:30:04+00:00
26675,VTSR,medium_airport,"Ranong Airport",9.777620315551758,98.58550262451172,57,AS,TH,TH-85,,1,VTSR,UNN,,,http://en.wikipedia.org/wiki/Ranong_Airport,,1050,2008-06-13T14:30:04+00:00
26677,VTST,medium_airport,"Trang Airport",7.508739948272705,99.6166000366211,67,AS,TH,TH-92,,1,VTST,TST,,,http://en.wikipedia.org/wiki/Trang_Airport,,1050,2008-06-13T14:30:04+00:00
26666,VTSC,medium_airport,"Narathiwat Airport",6.5199198722839355,101.74299621582031,16,AS,TH,TH-96,,1,VTSC,NAW,,,http://en.wikipedia.org/wiki/Narathiwat_Airport,,1050,2008-06-13T14:30:04+00:00
26684,VTUO,medium_airport,"Buri Ram Airport",15.229499816894531,103.25299835205078,590,AS,TH,TH-31,,1,VTUO,BFV,,,http://en.wikipedia.org/wiki/Buriram_Airport,,1000,2008-06-13T14:30:04+00:00
26688,VTUV,medium_airport,"Roi Et Airport",16.11680030822754,103.77400207519531,451,AS,TH,TH-45,,1,VTUV,ROI,,,http://en.wikipedia.org/wiki/Roi_Et_Airport,,1000,2008-06-13T14:30:04+00:00
26668,VTSF,medium_airport,"Nakhon Si Thammarat Airport",8.539620399475098,99.9447021484375,13,AS,TH,TH-80,"Nakhon Si Thammarat",1,VTSF,NST,,,http://en.wikipedia.org/wiki/Nakhon_Si_Thammarat_Airport,ท่าอากาศยานนครศรีธรรมราช,1000,2009-03-16T07:52:20+00:00
26649,VTCL,medium_airport,"Lampang Airport",18.27090072631836,99.50420379638672,811,AS,TH,TH-52,,1,VTCL,LPT,,,http://en.wikipedia.org/wiki/Lampang_Airport,,975,2008-06-13T14:30:04+00:00
26682,VTUL,medium_airport,"Loei Airport",17.43910026550293,101.72200012207031,860,AS,TH,TH-42,,1,VTUL,LOE,,,http://en.wikipedia.org/wiki/Loei_Airport,,875,2008-06-13T14:30:04+00:00
26681,VTUK,medium_airport,"Khon Kaen Airport",16.466600418099997,102.783996582,670,AS,TH,TH-40,"Khon Kaen",1,VTUK,KKC,,,http://en.wikipedia.org/wiki/Khon_Kaen_Airport,,875,2010-09-02T20:42:03+00:00
26673,VTSN,medium_airport,"Cha Eian Airport",8.47115039825,99.9555969238,44,AS,TH,TH-80,"Nakhon Si Thammarat",0,VTSN,,,,http://en.wikipedia.org/wiki/Cha_Eian_Airport,NST,800,2015-12-20T03:30:54+00:00
26685,VTUQ,medium_airport,"Nakhon Ratchasima Airport",14.94950008392334,102.31300354003906,765,AS,TH,TH-30,,0,VTUQ,NAK,,,http://en.wikipedia.org/wiki/Nakhon_Ratchasima_Airport,,400,2008-06-13T14:30:04+00:00
26651,VTCP,medium_airport,"Phrae Airport",18.132200241088867,100.16500091552734,538,AS,TH,TH-54,,0,VTCP,PRH,,,,,275,2008-06-13T14:30:04+00:00
26662,VTPT,medium_airport,"Tak Airport",16.895999908447266,99.25330352783203,478,AS,TH,TH-63,,0,VTPT,TKT,,,,,275,2008-06-13T14:30:04+00:00
26671,VTSK,medium_airport,"Pattani Airport",6.785459995269775,101.15399932861328,8,AS,TH,TH-94,,0,VTSK,PAN,,,,,275,2008-06-13T14:30:04+00:00
26670,VTSH,medium_airport,"Songkhla Airport",7.186560153961182,100.60800170898438,12,AS,TH,TH-90,,0,VTSH,SGZ,,,,,250,2008-06-13T14:30:04+00:00
26641,VTBK,medium_airport,"Kamphaeng Saen Airport",14.1020002365,99.9171981812,30,AS,TH,TH-72,"Nakhon Pathom",0,VTBK,KDT,,,,,250,2013-02-23T14:42:24+00:00
26680,VTUJ,medium_airport,"Surin Airport",14.868300437927,103.49800109863,478,AS,TH,TH-32,Surin,1,VTUJ,PXR,,,https://en.wikipedia.org/wiki/Surin_Airport,"Surin Bhakdi Airport",250,2016-01-15T00:13:15+00:00
26639,VTBH,small_airport,"Sa Pran Nak Airport",14.9493999481,100.642997742,95,AS,TH,TH-16,,0,VTBH,KKM,,,,,50,2012-11-22T11:32:45+00:00
26640,VTBI,small_airport,"Khao E To Airport",14.077799797058105,101.37999725341797,80,AS,TH,TH-25,,0,VTBI,,,,,,50,2008-12-30T14:07:23+00:00
26646,VTBW,small_airport,"Watthana Nakhon Airport",13.768799781799316,102.31500244140625,200,AS,TH,TH-25,,0,VTBW,,,,,,50,2008-12-30T14:07:23+00:00
26686,VTUR,small_airport,"Rob Muang Airport",16.07040023803711,103.64600372314453,459,AS,TH,TH-45,,0,VTUR,,,,,,50,2008-06-13T14:30:04+00:00
26652,VTCR,small_airport,"Chiang Rai Airport",19.885400772094727,99.82679748535156,1312,AS,TH,TH-57,,0,VTCR,,,,http://en.wikipedia.org/wiki/Chiang_Rai_Airport,,50,2008-06-13T14:30:04+00:00
26659,VTPN,small_airport,"Nakhon Sawan Airport",15.67300033569336,100.13700103759766,113,AS,TH,TH-60,,0,VTPN,,,,,,50,2008-06-13T14:30:04+00:00
26663,VTPY,small_airport,"Khunan Phumipol Airport",17.23419952392578,99.05789947509766,492,AS,TH,TH-63,,0,VTPY,,,,,,50,2008-06-13T14:30:04+00:00
26657,VTPL,small_airport,"Sak Long Airport",16.82430076599121,101.2509994506836,500,AS,TH,TH-67,,0,VTPL,,,,,,50,2008-06-13T14:30:04+00:00
26644,VTBP,small_airport,"Prachuap Airport",11.788399696350098,99.80470275878906,10,AS,TH,TH-77,,0,VTBP,,,,,,50,2008-12-30T14:07:23+00:00
26664,VTSA,small_airport,"Khoun Khan Airport",6.661399841308594,100.08000183105469,18,AS,TH,TH-91,,0,VTSA,,,,,,50,2008-06-13T14:30:04+00:00
30677,VTED,small_airport,"Udorn Air Base",17.382999420166016,102.80000305175781,,AS,TH,TH-41,"Ban Mak Khaen",0,VTED,BAO,,,,,50,2008-12-30T14:07:23+00:00
32603,VTUZ,small_airport,"Nam Phung Dam Airport",16.65220069885254,102.96700286865234,,AS,TH,TH-40,"Khon Kaen",0,VTUZ,,,,,VTEZ,50,2008-08-03T11:51:43+00:00
32598,VTCS,small_airport,"Mae Sariang Airport",18.183000564575195,97.93299865722656,1030,AS,TH,TH-58,"Mae Sariang",0,VTCS,,,,,,50,2008-08-03T11:51:32+00:00
32596,VTCB,small_airport,"Phayao Ban Chiang Kham Airport",19.5,100.28299713134766,1272,AS,TH,TH-56,"Phayao Ban Chiang Kham",0,VTCB,,,,,,50,2008-08-03T11:51:28+00:00
32602,VTPR,small_airport,"Photharam Airport",13.668600082397461,99.73139953613281,88,AS,TH,TH-70,Photharam,0,VTPR,,,,,,50,2008-08-03T11:51:34+00:00
32594,VTBN,small_airport,"Prachuap Khiri Khan Airport",12.417200088500977,99.86940002441406,,AS,TH,TH-77,"Prachuap Khiri Khan",0,VTBN,,,,,,50,2008-08-03T11:51:25+00:00
32560,VTPU,small_airport,"Uttaradit Airport",17.617000579833984,100.0999984741211,262,AS,TH,TH-53,Uttaradit,0,VTPU,UTR,,,,,50,2008-08-03T11:51:36+00:00
308759,TH-0004,small_airport,"Prachom Klao Airfield",14.1636034477,101.337118149,,AS,TH,TH-25,,0,,,,,,,0,2013-05-24T01:03:55+00:00
308758,TH-0003,small_airport,"Klong 15 Airfield",14.113873150100002,100.947768688,15,AS,TH,TH-26,,0,,,,,,,0,2013-05-24T00:50:17+00:00
302310,VTCO,small_airport,"Lamphun Airport",18.546816,99.012029,925,AS,TH,TH-51,,1,VTCO,,,,http://en.wikipedia.org/wiki/Lamphun_Airport,,0,2012-08-04T23:25:07+00:00
314031,PMM,small_airport,"Phanom Sarakham Airport",13.7553,101.395,166,AS,TH,TH-24,"Phanom Sarakham",0,,PMM,,,,,0,2015-03-13T11:56:28+00:00
