id,ident,type,name,latitude_deg,longitude_deg,elevation_ft,continent,iso_country,iso_region,municipality,scheduled_service,gps_code,iata_code,local_code,home_link,wikipedia_link,keywords,score,last_updated
"#meta +id","#meta +code","#loc +airport +type","#loc +airport +name","#geo +lat","#geo +lon","#geo +elevation +ft","#region +continent +code","#country +code +iso2","#adm1 +code +iso","#loc +municipality +name","#status +scheduled","#loc +airport +code +gps","#loc +airport +code +iata","#loc +airport +code +local","#meta +url +airport","#meta +url +wikipedia","#meta +keywords","#meta +score","#date +updated"
4296,LHBP,large_airport,"Budapest Liszt Ferenc International Airport",47.42976,19.261093,495,EU,HU,HU-PE,Budapest,1,LHBP,BUD,,http://www.bud.hu/english,http://en.wikipedia.org/wiki/Budapest_Ferenc_Liszt_International_Airport,"Ferihegyi nemzetközi repülőtér, Budapest Liszt Ferenc international Airport",51675,2018-10-09T00:04:01+00:00
29732,LHBS,small_airport,"Budaörs Airfield",47.451099,18.9806,397,EU,HU,HU-BU,Budaörs,0,LHBS,,,,,,50,2016-09-10T12:59:40+00:00
4298,LHFM,small_airport,"Fertőszentmiklós Airport",47.582802,16.8454,440,EU,HU,HU-GS,Fertőszentmiklós,0,LHFM,,,http://www.lhfm.hu/,,Meidl,50,2016-07-30T13:38:23+00:00
29681,LHSK,small_airport,"Siófok-Kiliti Airport",46.856899,18.0958,417,EU,HU,HU-SO,Siófok-Kiliti,0,LHSK,,,http://www.bud.hu/english/about_us/siofok-kiliti_airport/,,,50,2016-07-30T13:40:37+00:00
4305,LHSM,medium_airport,"Sármellék International Airport",46.686391,17.159084,408,EU,HU,HU-ZA,Sármellék,1,LHSM,SOB,,http://www.flybalaton.com/?null&lang=en,http://en.wikipedia.org/wiki/S%C3%A1rmell%C3%A9k_International_Airport,"FlyBatalon Airport, Batalon Airport, Sármellék Nemzetközi Repülőtér",975,2016-07-30T13:43:37+00:00
4303,LHPR,medium_airport,"Győr-Pér International Airport",47.624401,17.813601,424,EU,HU,HU-GS,Győr,1,LHPR,,,http://www.gyor-perairport.hu/index.php?displang=eng,http://en.wikipedia.org/wiki/Gy%C5%91r-P%C3%A9r_International_Airport,,800,2016-10-26T08:36:19+00:00
4297,LHDC,medium_airport,"Debrecen International Airport",47.48889923095703,21.615299224853516,359,EU,HU,HU-HB,Debrecen,1,LHDC,DEB,,http://www.airportdebrecen.hu/,http://en.wikipedia.org/wiki/Debrecen_International_Airport,"Debreceni nemzetközi repülőtér",975,2009-01-14T17:34:08+00:00
4299,LHKE,medium_airport,"Kecskemét Airport",46.91749954223633,19.74920082092285,376,EU,HU,HU-BK,Kecskemét,0,LHKE,,,,,,250,2009-01-14T17:52:04+00:00
30488,LHTL,medium_airport,"Tököl Airport",47.345298767100005,18.980800628699996,318,EU,HU,HU-PE,Tököl,0,LHTL,,,http://www.lhtl.hu/,,,250,2014-02-05T14:17:31+00:00
29987,LHJK,small_airport,"Jakabszállás Airport",46.74720001220703,19.605600357055664,348,EU,HU,HU-BK,Jakabszállás,0,LHJK,,,,,,50,2009-01-14T18:24:29+00:00
30454,LHUD,small_airport,"Szeged Airfield",46.246895,20.090799,249,EU,HU,HU-CS,Szeged,0,LHUD,,,,https://en.wikipedia.org/wiki/Szeged_Airport,QZD,50,2017-01-07T15:02:59+00:00
4302,LHPP,medium_airport,"Pécs-Pogány Airport",45.990898,18.240996,1000,EU,HU,HU-BA,Pécs-Pogány,1,LHPP,PEV,,http://www.airport-pecs.hu/,https://en.wikipedia.org/wiki/P%C3%A9cs-Pog%C3%A1ny_International_Airport,"Pecs South Airport",975,2016-07-30T14:01:13+00:00
29934,LHHO,small_airport,"Hajdúszoboszló Airport",47.459202,21.391105,335,EU,HU,HU-HB,Hajdúszoboszló,0,LHHO,,,,,,50,2016-07-30T14:07:29+00:00
30009,LHKV,small_airport,"Kaposvar Kaposújlak Airport",46.386398315399994,17.7339000702,499,EU,HU,HU-SO,Kaposújlak,0,LHKV,,,,,,50,2015-01-11T12:32:07+00:00
30178,LHNK,small_airport,"Nagykanizsa Airport",46.432000785899994,16.9581699371,466,EU,HU,HU-ZA,Nagykanizsa,0,LHNK,,,,,,50,2009-10-31T09:41:10+00:00
4301,LHOY,small_airport,"Őcsény Airport",46.30390167236328,18.76919937133789,295,EU,HU,HU-TO,Őcsény,0,LHOY,,,,,,50,2009-01-14T18:37:16+00:00
46653,lhkk,small_airport,Kiskunlacháza-airport,47.16888520449999,19.084968566900002,322,EU,HU,HU-PE,Budapest,0,LHKK,,,http://www.kiskunlachaza-airport.hu,http://hu.wikipedia.org/wiki/Kiskunlacházi_repülőtér,"Lachaza, LHKK, Lacháza, Kiskunlacháza, Budapest, LHTL, LHBP, ferihegy",0,2012-11-04T08:11:40+00:00
43983,HU-0002,medium_airport,"Kalocsa/Foktő Airport",46.549613,18.942421,284,EU,HU,HU-BK,Kalocsa/Foktő,0,LHKA,,,http://www.aeroportkalocsa.hu,,,0,2016-09-03T05:57:34+00:00
4306,LHSN,medium_airport,"Szolnok Air Base",47.122897,20.2355,322,EU,HU,HU-JN,Szolnok,0,LHSN,,,,http://en.wikipedia.org/wiki/Szolnok_Air_Base,"Szolnok Air Base, MH86",250,2018-06-09T13:00:10+00:00
30003,LHTA,medium_airport,"Taszár Air Base",46.39310073852539,17.917499542236328,531,EU,HU,HU-SO,Taszár,0,LHTA,TZR,,,,"Kaland Taszar",250,2009-01-14T17:54:56+00:00
29691,LHBC,small_airport,"Békéscsaba Airfield",46.67527,21.152674,279,EU,HU,HU-BE,Békéscsaba,0,LHBC,,,,,,50,2017-02-13T02:12:05+00:00
43032,LHHH,small_airport,"Hármashatárhegy Airport",47.55030059814453,18.978700637817383,960,EU,HU,HU-BU,Budapest,0,LHHH,,,,,,50,2009-04-07T13:05:38+00:00
29832,LHDV,small_airport,"Dunaújváros Airfield",46.895802,18.9139,394,EU,HU,HU-FE,Dunaújváros,0,LHDV,,,,,,50,2017-02-13T02:05:48+00:00
43033,LHEM,small_airport,"Esztergom Airfield",47.758247,18.731164,342,EU,HU,HU-KE,Esztergom,0,LHEM,,,,,,50,2016-11-16T04:25:12+00:00
43034,LHFH,small_airport,"Farkashegy Airport",47.486900329589844,18.91469955444336,690,EU,HU,HU-PE,Farkashegy,0,LHFH,,,,,,50,2009-04-07T13:05:55+00:00
30029,LHKH,small_airport,"Kiskunfélegyháza Airport",46.73310089111328,19.893299102783203,289,EU,HU,HU-BK,Kiskunfélegyháza,0,LHKH,,,,,,50,2009-01-14T18:31:03+00:00
30143,LHMC,small_airport,"Miskolc Airport",48.13690185546875,20.791400909423828,390,EU,HU,HU-BZ,Miskolc,0,LHMC,MCQ,,http://www.lhmc.hu/,http://en.wikipedia.org/wiki/Miskolc_Airport,,50,2009-01-14T17:40:38+00:00
30575,LHZA,small_airport,"Zalaegerszeg Airport",46.884700775146484,16.78890037536621,617,EU,HU,HU-ZA,Zalaegerszeg,0,LHZA,,,,,,50,2009-01-14T18:41:45+00:00
309445,HU-0015,small_airport,"Dáka Airport",47.271801,17.4105,492,EU,HU,HU-VE,Dáka,0,LHDA,,,,,,0,2018-03-23T18:19:53+00:00
309451,LHER,small_airport,"Eger Apollo Airfield",47.9052,20.4055,790,EU,HU,HU-HE,Eger,0,LHER,,,http://www.halley.hu,,,0,2017-10-07T13:46:07+00:00
43982,LHEC,small_airport,"Érsekcsanád Airport",46.24624252319336,18.921022415161133,285,EU,HU,HU-BK,Érsekcsanád,0,LHEC,,,,,,0,2009-04-07T13:05:31+00:00
309204,LH0,small_airport,"Hertelendy Kastely Field",46.372103,17.428524,469,EU,HU,HU-SO,Kutas,0,LHKU,,,http://www.hotel-hertelendy.com/airfield_information,,,0,2018-03-23T16:14:09+00:00
316170,HU-0021,small_airport,Papkutapuszta,46.870577,18.041413,459,EU,HU,HU-SO,Papkutapuszta,0,LHPK,,,,,,0,2016-03-30T15:26:38+00:00
43988,HU-0006,small_airport,"Szatymaz Airport",46.3226509094,20.053209304800003,251,EU,HU,HU-CS,Szatymaz,0,LHST,,,,,,0,2013-08-26T17:14:03+00:00
3261,LH58,closed,"Csákvár Airport",47.3508987427,18.4300003052,1000,EU,HU,HU-FE,Csákvár,0,,,,,,,50,2014-10-09T14:17:23+00:00
29831,LHDK,small_airport,"Dunakeszi Airport",47.61389923095703,19.143299102783203,397,EU,HU,HU-PE,Dunakeszi,0,LHDK,,,,,,50,2009-01-14T18:04:24+00:00
29841,LHMR,small_airport,"Maklár Airfield",47.8111,20.4228,407,EU,HU,HU-HE,Eger,0,LHMR,,,,,,50,2017-10-07T13:46:34+00:00
31817,LHGD,small_airport,"Gödöllő Airport",47.57099914550781,19.338600158691406,600,EU,HU,HU-PE,Gödöllő,0,LHGD,,,,,,50,2009-01-14T18:18:29+00:00
43035,LHGY,small_airport,"Gyöngyös Pipishegy Airport",47.81449890136719,19.97760009765625,1150,EU,HU,HU-HE,"Gyöngyös Pipishegy",0,LHGY,,,,,,50,2009-04-07T13:05:48+00:00
43036,LHKD,small_airport,"Kecskéd Airport",47.50790023803711,18.32270050048828,570,EU,HU,HU-KE,Kecskéd,0,LHKD,,,,,,50,2009-04-07T13:05:52+00:00
4300,LHNY,small_airport,"Nyíregyháza Airport",47.9838981628418,21.69230079650879,338,EU,HU,HU-SZ,Nyíregyháza,0,LHNY,,,http://www.trenerkft.hu/,,,50,2009-01-14T17:47:55+00:00
30239,LHPA,small_airport,"Pápa Air Base",47.3636016846,17.5007991791,466,EU,HU,HU-VE,Pápa,0,LHPA,,,,http://en.wikipedia.org/wiki/P%C3%A1pa_Air_Base,,50,2014-04-21T23:14:15+00:00
30455,LHSZ,small_airport,"Szentes Aerodrome",46.61330032348633,20.282800674438477,259,EU,HU,HU-CS,Szentes,0,LHSZ,,,,,,50,2009-01-14T18:39:10+00:00
4304,LHSA,small_airport,"Szentkirályszabadja Airport",47.07789993286133,17.968399047851562,919,EU,HU,HU-VE,Szentkirályszabadja,0,LHSA,,,,,,50,2009-01-14T18:39:36+00:00
30457,LHSS,small_airport,"Szolnok-Szandaszőlős Sport Airport",47.14440155029297,20.197799682617188,266,EU,HU,HU-JN,Szolnok-Szandaszőlős,0,LHSS,,,,,,50,2009-01-14T18:33:03+00:00
30456,LHSY,small_airport,"Szombathely Airfield",47.279999,16.6264,732,EU,HU,HU-VA,Szombathely,0,LHSY,,,,,,50,2017-09-15T09:38:01+00:00
320501,HU-0039,small_airport,Gyomaendrőd,46.9112958,20.7615195,,EU,HU,HU-BE,,0,,,,,,,0,2016-09-25T00:38:02+00:00
317532,LHSB,small_airport,Szabadszállás,46.9002778,19.3663889,,EU,HU,HU-BK,,0,LHSB,,,,,,0,2016-04-13T08:08:48+00:00
329132,HU-0045,heliport,"Bácsbokod Border Police Heliport",46.1083234,19.1576028,,EU,HU,HU-BK,,0,,,,,,,0,2018-08-29T06:21:42+00:00
318221,HU-0034,small_airport,Aranyos,48.2970545,21.2229079,,EU,HU,HU-BZ,,0,,,,,,"Abaújkér,Aranyospuszta",0,2016-06-02T11:39:16+00:00
317730,HU-0032,small_airport,Mezőhegyes,46.296989,20.813389,,EU,HU,HU-CS,,0,,,,,,,0,2016-04-26T12:39:52+00:00
317555,LHFC,small_airport,Bodmér,47.44462,18.55632,492,EU,HU,HU-FE,,0,LHFC,,,,,Felcsút,0,2016-05-31T11:36:32+00:00
318135,LHLI,small_airport,Lipót,47.8575,17.4483333,,EU,HU,HU-GS,,0,LHLI,,,,,"Lipót,Szigetköz",0,2016-05-29T03:28:19+00:00
317531,LHTE,closed,Terpes,47.974924,20.146968,,EU,HU,HU-HE,,0,LHTE,,,,,,0,2016-04-13T08:04:37+00:00
317630,HU-0029,small_airport,"Atkár Margit-kút",47.7228611,19.902642,,EU,HU,HU-HE,,0,,,,,,,0,2016-04-19T13:22:22+00:00
317566,LHSU,small_airport,Surjány,47.20072,20.48079,,EU,HU,HU-JN,,0,LHSU,,,,,,0,2016-04-15T13:42:17+00:00
315662,HU-0019,small_airport,"Bátonyterenye-Világosipuszta sportreptér",48.025531,19.805066,869,EU,HU,HU-NO,,0,LHBT,,,,,,0,2018-03-23T18:47:53+00:00
315679,HU-0020,small_airport,"Rétság reptér",47.9321175,19.1246144,,EU,HU,HU-NO,,0,,,,,,,0,2015-10-07T08:58:26+00:00
317444,HU-0026,small_airport,Dány,47.50083,19.50529,,EU,HU,HU-PE,,0,,,,,,,0,2016-04-05T11:11:27+00:00
317554,LHCL,small_airport,Cegléd,47.160833,19.878611,315,EU,HU,HU-PE,,0,LHCL,,,,,,0,2016-05-31T11:34:47+00:00
316466,HU-0022,heliport,"Pécs Hospital Heliport",46.0750033,18.20536,,EU,HU,HU-PS,,0,,,,,,,0,2015-12-04T14:12:11+00:00
317557,LHKT,small_airport,Kadarkút,46.2462,17.6088,,EU,HU,HU-SO,,0,LHKT,,,,,,0,2016-04-15T06:38:07+00:00
324738,HU-0043,small_airport,"Mórahalom Repülőtér",46.251378,19.949197,,EU,HU,HU-U-A,,0,,,,,,,0,2017-08-16T11:44:15+00:00
44911,HU-0011,closed,"Tokorcs Airfield",47.273391,17.106593,,EU,HU,HU-VA,,0,LHTK,,,,,,0,2016-04-15T13:50:10+00:00
317567,LHSI,small_airport,Sitke,47.2355556,17.0263889,,EU,HU,HU-VA,,0,LHSI,,,,,,0,2016-04-15T13:52:20+00:00
315487,HU-0018,small_airport,"Balatonfőkajár Repülőtér",47.0077226,18.2098861,,EU,HU,HU-VE,,0,,,,,,,0,2015-09-19T09:08:02+00:00
317695,HU-0030,small_airport,Tapolca,46.8671914,17.4063802,,EU,HU,HU-VE,,0,,,,,https://hu.wikipedia.org/wiki/Tapolcai_rep%C3%BCl%C5%91t%C3%A9r,,0,2016-04-24T05:02:47+00:00
317696,HU-0031,small_airport,Balatonederics,46.78503,17.37905,,EU,HU,HU-VE,,0,,,,,,,0,2016-04-24T05:12:38+00:00
317447,HU-0027,small_airport,Zalacsány,46.8009556,17.110511,,EU,HU,HU-ZA,,0,,,,,,,0,2016-04-05T11:25:28+00:00
317377,LHBO,small_airport,"Bácsbokod repülőtér",46.152181,19.150439,512,EU,HU,HU-BK,Bácsbokod,0,LHBO,,,,,,0,2016-05-31T11:33:52+00:00
309443,HU-0013,small_airport,"Baja Airport",46.1455,19.0428,378,EU,HU,HU-BK,Baja,0,,,,,,,0,2013-08-27T00:04:56+00:00
43993,LHBA,closed,"Balassagyarmat Airfield",48.078037,19.321749,466,EU,HU,HU-NO,Balassagyarmat,0,LHBA,,,,,,0,2016-11-16T04:58:18+00:00
309444,HU-0014,small_airport,"Balatonkeresztúr Airport",46.6933,17.3974,337,EU,HU,HU-SO,Balatonkeresztúr,0,LHBK,,,http://balatonflugplatz.com/,,,0,2016-05-29T04:42:35+00:00
317421,HU-0025,small_airport,"Balatonlelle sárkány repülőtér",46.7603557,17.6906821,,EU,HU,HU-SO,Balatonlelle,0,,,,,,,0,2016-04-03T05:58:00+00:00
309447,HU-0016,small_airport,"Ballószög Airport",46.8618,19.5566,393,EU,HU,HU-BK,Ballószög,0,LHBL,,,,,,0,2018-03-24T04:41:43+00:00
317553,LHBF,small_airport,Bükfördö,47.3848,16.80264,545,EU,HU,HU-VA,Bö,0,LHBF,,,,,,0,2016-04-15T05:46:59+00:00
328592,HU-0044,small_airport,"Dévaványa Airfield",47.011512,20.982331,,EU,HU,HU-BE,Dévaványa,0,,,,,,"Füves repülőtér",0,2018-07-01T12:45:12+00:00
319486,HU-0035,small_airport,Aeroglobus,47.7740525,19.0615739,,EU,HU,HU-PE,Dunabogdány,0,,,,http://www.aeroglobus.hu/,,,0,2016-07-15T05:00:28+00:00
320902,HU-0041,small_airport,Felsőráda,47.264,19.1759,,EU,HU,HU-U-A,Felsőráda,0,,,,,,,0,2016-10-23T07:14:13+00:00
318132,LHFP,small_airport,Piusz-Puszta,47.744444,16.614167,486,EU,HU,HU-GS,FERTŐRÁKOS,0,LHFP,,,,,,0,2016-05-31T11:37:49+00:00
43980,LHGM,small_airport,"Gyomai Airport",46.9561653137207,20.88312339782715,265,EU,HU,HU-BE,Gyomai,0,LHGM,,,,,,0,2009-04-07T13:05:27+00:00
309452,HU-0017,small_airport,"Gyõrszentiván-Bõny Airport",47.6672,17.784801,490,EU,HU,HU-GS,Gyõrszentiván/Bõny,0,LHBY,,,,,,0,2018-03-23T18:40:22+00:00
318133,LHGU,heliport,"Győrújbarát Heliport",47.605143,17.660188,397,EU,HU,HU-GS,Győrújbarát,0,LHGU,,,,,,0,2018-03-23T17:59:41+00:00
309481,LHGR,small_airport,"Gyúró Airport",47.3914,18.75786,640,EU,HU,HU-FE,Gyúró,0,LHGR,,,,http://hu.wikipedia.org/wiki/Gy%C3%BAr%C3%B3i_rep%C3%BCl%C5%91t%C3%A9r,,0,2013-08-31T20:01:42+00:00
318134,HU-0033,small_airport,"Hajmáskér repülőtér",47.141868,17.998214,,EU,HU,HU-VE,Hajmáskér,0,LHHK,,,,,,0,2016-05-29T03:23:49+00:00
320183,HU-0037,closed,Kerekharaszt,47.678889,19.644167,407,EU,HU,HU-HE,Hatvan,0,LHKZ,,LHKZ,,,,0,2018-03-23T15:47:22+00:00
44986,HU-0012,small_airport,"Héviz Airfield",46.809114,17.19974,,EU,HU,HU-ZA,Héviz,0,,,,,,,0,2009-10-20T12:09:45+00:00
43987,HU-0005,closed,"Hódmezővásárhely  Airport",46.456257,20.392963,259,EU,HU,HU-CS,Hódmezővásárhely,0,,,,,,,0,2019-01-24T07:42:16+00:00
316485,HU-0023,small_airport,"Hódmezővásárhelyi Airport",46.384444,20.308333,262,EU,HU,HU-CS,Hódmezővásárhelyi,0,LHHM,,,,,,0,2018-03-23T16:56:28+00:00
320203,HU-0038,small_airport,"Inárcs repülőtér",47.263641,19.313225,,EU,HU,HU-U-A,Inárcs,0,LHIN,,,,,,0,2017-05-02T12:16:43+00:00
43984,LHKC,heliport,"Kecel Heliport",46.5363883972168,19.241703033447266,323,EU,HU,HU-BK,Kecel,0,LHKC,,,,,,0,2009-04-07T13:05:36+00:00
43991,HU-0009,small_airport,"Kenderes Airport",47.27153015136719,20.670406341552734,268,EU,HU,HU-JN,Kenderes,0,,,,,,,0,2009-04-07T13:05:50+00:00
317552,LHKI,small_airport,Kiskőrös-Akasztó,46.6569444,19.2425,305,EU,HU,HU-BK,Kiskőrös,0,LHKI,,,,,Akasztó,0,2016-04-15T05:42:50+00:00
320510,HU-0040,small_airport,Kiskunhalas-Füzespuszta,46.368333,19.478889,,EU,HU,HU-BK,Kiskunhalas,0,LHKF,,,,,,0,2017-05-02T12:17:46+00:00
43992,HU-0010,small_airport,"Kunmadaras Air Base",47.390839,20.785009,279,EU,HU,HU-JN,Kunmadaras,0,LHKM,,,,,,0,2017-05-09T14:56:01+00:00
43985,HU-0003,small_airport,"Matkópuszta Airfield",46.800343,19.68257,367,EU,HU,HU-BK,Matkópuszta,0,LHMP,,,http://www.matkoairport.hu/,,,0,2016-10-12T01:09:33+00:00
43986,HU-0004,closed,"Mezőkövesd Air Base",47.812222,20.632221,357,EU,HU,HU-BZ,Mezokovesd,0,,,,,,,0,2016-07-30T12:29:51+00:00
318136,LHNS,small_airport,Nagyszénás,46.6980556,20.6686111,,EU,HU,HU-BE,Nagyszénás,0,LHNS,,,,,,0,2016-05-29T03:38:00+00:00
317535,HU-0028,small_airport,"Pásztó-Hasznos repülőtér",47.9327379,19.7747449,,EU,HU,HU-NO,Pásztó,0,,,,,,,0,2016-04-13T10:46:14+00:00
43990,HU-0008,small_airport,"Pusztacsalád Airport",47.493935,16.897216,497,EU,HU,HU-GS,Pusztacsalád,0,LHPC,,,,,,0,2018-03-23T14:30:28+00:00
317133,HU-0024,small_airport,Pusztaszer,46.57687,19.99022,292,EU,HU,HU-CS,Pusztaszer,0,LHPS,,,,,,0,2016-12-14T01:20:49+00:00
321512,HU-0042,small_airport,"Pusztaszer West",46.546667,19.96,,EU,HU,HU-CS,Pusztaszer,0,LHPW,,,,,,0,2017-05-09T14:56:57+00:00
319722,HU-0036,small_airport,"Sárospatak Airport",48.318035,21.586117,315,EU,HU,HU-BZ,Sárospatak,0,,,,,,,0,2016-07-30T08:49:17+00:00
318138,LHUH,small_airport,Úrhida,47.1263889,18.3116667,633,EU,HU,HU-FE,Sárszentmihály,0,LHUH,,,,,,0,2016-05-29T04:03:28+00:00
43981,HU-0001,small_airport,"Szarvas Airport",46.803936,20.527838,256,EU,HU,HU-BE,Szarvas,0,LHSV,,,,,,0,2018-03-23T14:15:16+00:00
43989,HU-0007,small_airport,"Börgönd Airfield",47.12795,18.50014,392,EU,HU,HU-FE,Székesfehérvár,0,LHBD,,,,,,0,2016-11-16T04:32:01+00:00
318137,LHTM,small_airport,Tápiószentmárton,47.3136111,19.7738889,,EU,HU,HU-PE,Tápiószentmárton,0,LHTM,,,,,,0,2016-05-29T03:48:06+00:00
318141,LHVE,small_airport,Veresegyház,47.6383333,19.2563889,,EU,HU,HU-PE,Veresegyház,0,LHVE,,,,,"East Line Air Team",0,2016-05-29T04:12:43+00:00
309480,LHZK,small_airport,"Zalakaros Airport",46.5539,17.15118,370,EU,HU,HU-ZA,Zalakaros,0,LHZK,,,,,,0,2013-08-31T19:47:04+00:00
