id,ident,type,name,latitude_deg,longitude_deg,elevation_ft,continent,iso_country,iso_region,municipality,scheduled_service,gps_code,iata_code,local_code,home_link,wikipedia_link,keywords,score,last_updated
"#meta +id","#meta +code","#loc +airport +type","#loc +airport +name","#geo +lat","#geo +lon","#geo +elevation +ft","#region +continent +code","#country +code +iso2","#adm1 +code +iso","#loc +municipality +name","#status +scheduled","#loc +airport +code +gps","#loc +airport +code +iata","#loc +airport +code +local","#meta +url +airport","#meta +url +wikipedia","#meta +keywords","#meta +score","#date +updated"
2894,FLLS,large_airport,"Kenneth Kaunda International Airport Lusaka",-15.3308000565,28.4526004791,3779,AF,ZM,ZM-09,Lusaka,1,FLKK,LUN,,http://www.nacl.co.zm/?page_id=336,http://en.wikipedia.org/wiki/Lusaka_International_Airport,,1050,2016-01-11T14:14:11+00:00
2893,FLLI,medium_airport,"Livingstone Airport",-17.821800231933594,25.82270050048828,3302,AF,ZM,ZM-07,Livingstone,1,FLLI,LVI,,,http://en.wikipedia.org/wiki/Livingstone_Airport,,875,2008-09-15T08:40:45+00:00
2895,FLMF,medium_airport,"Mfuwe Airport",-13.258899688720703,31.936599731445312,1853,AF,ZM,ZM-03,Mfuwe,1,FLMF,MFU,,,http://en.wikipedia.org/wiki/Mfuwe_Airport,,875,2008-09-15T08:34:08+00:00
2897,FLND,medium_airport,"Simon Mwansa Kapwepwe International Airport",-12.998100280762,28.66489982605,4167,AF,ZM,ZM-08,Ndola,1,FLSK,NLA,,,http://en.wikipedia.org/wiki/Ndola_Airport,"FLND, Ndola Airport",875,2015-12-06T13:15:03+00:00
30427,FLSW,small_airport,"Solwesi Airport",-12.173700332641602,26.365100860595703,4551,AF,ZM,ZM-06,Solwesi,1,FLSW,SLI,,,http://en.wikipedia.org/wiki/Solwezi_Airport,"Solwezi Airport",450,2008-09-15T08:46:44+00:00
2898,FLSO,medium_airport,"Southdowns Airport",-12.900500297546387,28.149900436401367,4145,AF,ZM,ZM-08,Kitwe,0,FLSO,KIW,,,,,250,2008-09-15T08:34:49+00:00
30012,FLKS,small_airport,"Kasama Airport",-10.216699600219727,31.13330078125,4541,AF,ZM,ZM-05,Kasama,0,FLKS,KAA,,,,,50,2008-09-15T08:33:42+00:00
2892,FLLC,medium_airport,"Lusaka City Airport",-15.4138002396,28.3306999207,4200,AF,ZM,ZM-09,Lusaka,0,FLLC,,,,,,50,2013-02-08T17:05:30+00:00
308257,ZM-0002,small_airport,Mumbwa,-15.072745130299998,27.1867847443,,AF,ZM,ZM-02,,0,,,,,,Military,0,2013-02-09T06:53:07+00:00
319027,ZM-0017,small_airport,"Kashikishi Airport",-9.308608,28.752645,,AF,ZM,ZM-04,Kashikishi,0,,,,,,,0,2016-06-22T10:04:27+00:00
29781,FLCP,small_airport,"Chipata Airport",-13.558300018310547,32.58720016479492,3360,AF,ZM,ZM-03,Chipata,1,FLCP,CIP,,,http://en.wikipedia.org/wiki/Chipata_Airport,,450,2008-09-15T08:42:59+00:00
2891,FLKE,medium_airport,"Kasompe Airport",-12.572799682617,27.893899917603,4636,AF,ZM,ZM-08,Chingola,0,FLKE,CGJ,,,https://en.wikipedia.org/wiki/Kasompe_Airport,,250,2015-09-23T02:00:13+00:00
2896,FLMG,medium_airport,"Mongu Airport",-15.254500389099121,23.16230010986328,3488,AF,ZM,ZM-01,Mongu,0,FLMG,MNR,,,,,250,2008-09-15T08:34:14+00:00
31140,FLEA,small_airport,"East One Airport",-11.635700225830078,29.73590087890625,3900,AF,ZM,ZM-04,Bwambwa,0,FLEA,,,,,,50,2008-09-15T08:32:09+00:00
31182,FLWG,small_airport,"West Seven Airport",-11.912699699401855,25.68440055847168,4000,AF,ZM,ZM-06,Chanika,0,FLWG,,,,,,50,2008-09-15T08:34:59+00:00
30605,FLEE,small_airport,"East Five Airport",-10.535699844360352,33.40719985961914,4200,AF,ZM,ZM-05,Chidulka,0,FLEE,,,,,,50,2008-09-15T08:33:27+00:00
31176,FLWA,small_airport,"West One Airport",-12.854900360107422,27.072200775146484,4000,AF,ZM,ZM-08,Chinka,0,FLWA,,,,,,50,2008-09-15T08:34:57+00:00
31139,FLCS,small_airport,"Chinsali Airport",-10.532999992370605,32.06700134277344,4350,AF,ZM,ZM-05,Chinsali,0,FLCS,,,,,,50,2008-09-15T08:33:21+00:00
31144,FLEF,small_airport,"East Six Airport",-11.134200096099999,30.01720047,3800,AF,ZM,ZM-05,Chiwanangala,0,FLEF,,,,,,50,2013-02-08T17:16:17+00:00
31137,FLCC,small_airport,"Chocha Airport",-8.428730010986328,29.80590057373047,3270,AF,ZM,ZM-05,Chocha,0,FLCC,,,,,,50,2008-09-15T08:33:25+00:00
31138,FLCH,small_airport,"Choma Airport",-16.783000946044922,27,4300,AF,ZM,ZM-07,Choma,0,FLCH,,,,,,50,2008-09-15T08:40:41+00:00
31148,FLIK,small_airport,"Isoka Airport",-10.116999626159668,32.632999420166016,4462,AF,ZM,ZM-05,Isoka,0,FLIK,,,,,,50,2008-09-15T08:33:31+00:00
31170,FLPO,small_airport,"Kabompo Airport",-13.576000213623047,24.229999542236328,3535,AF,ZM,ZM-06,Kabompo,0,FLPO,,,,,,50,2008-09-15T08:32:17+00:00
31153,FLKW,small_airport,"Milliken Airport",-14.450599670410156,28.379199981689453,3920,AF,ZM,ZM-02,Kabwe,0,FLKW,,,,,,50,2008-09-15T08:34:10+00:00
31756,FLKL,small_airport,"Kalabo Airport",-14.998299598693848,22.64539909362793,3450,AF,ZM,ZM-01,Kalabo,0,FLKL,KLB,,,,,50,2008-09-15T08:33:33+00:00
31150,FLKG,small_airport,"Kalengwa Airport",-13.474100112915039,25.01409912109375,4093,AF,ZM,ZM-06,Kalengwa,0,FLKG,,,,,,50,2008-09-15T08:32:19+00:00
31156,FLLO,small_airport,"Kalomo Airport",-16.982999801635742,26.482999801635742,4100,AF,ZM,ZM-07,Kalomo,0,FLLO,,,,,,50,2008-09-15T08:40:43+00:00
31151,FLKJ,small_airport,"Kanja Airport",-16.450000762939453,23.367000579833984,3370,AF,ZM,ZM-01,Kanja,0,FLKJ,,,,,,50,2008-09-15T08:33:35+00:00
31145,FLEG,small_airport,"East Seven Airport",-12.449999809265137,29.482999801635742,4000,AF,ZM,ZM-04,Kanshela,0,FLEG,,,,,,50,2008-09-15T08:32:11+00:00
31152,FLKU,small_airport,"Kanyau Airport",-16.5,22.41699981689453,3448,AF,ZM,ZM-01,Kanyau,0,FLKU,,,,,,50,2008-09-15T08:33:37+00:00
31762,FLKO,small_airport,"Kaoma Airport",-14.800000190734863,24.783000946044922,3670,AF,ZM,ZM-01,Kaoma,0,FLKO,KMZ,,,,,50,2008-09-15T08:33:38+00:00
31146,FLEH,small_airport,"East Eight Airport",-12.116999626159668,29.450000762939453,4000,AF,ZM,ZM-04,Kapu,0,FLEH,,,,,,50,2008-09-15T08:32:05+00:00
32746,FLKY,small_airport,"Kasaba Bay Airport",-8.524999618530273,30.663000106811523,2780,AF,ZM,ZM-05,"Kasaba Bay",0,FLKY,ZKB,,,,,50,2008-09-15T08:33:40+00:00
31167,FLPA,small_airport,"Kasempa Airport",-13.4399995803833,25.785999298095703,4150,AF,ZM,ZM-06,Kasempa,0,FLPA,,,,,,50,2008-09-15T08:32:21+00:00
31136,FLAT,small_airport,"Katete Airport",-14.12030029296875,32.06439971923828,3520,AF,ZM,ZM-03,Katete,0,FLAT,,,,,,50,2008-09-15T08:33:44+00:00
31181,FLWF,small_airport,"West Six Airport",-12.21720027923584,27.49049949645996,4000,AF,ZM,ZM-06,Kauni,0,FLWF,,,,,,50,2008-09-15T08:35:01+00:00
31149,FLKB,small_airport,"Kawambwa Airport",-9.798060417175293,29.091699600219727,4640,AF,ZM,ZM-04,Kawambwa,0,FLKB,,,,,,50,2008-09-15T08:32:25+00:00
41851,ZM-0001,small_airport,"Lilayi Airport",-15.512200355500001,28.3246002197,4264,AF,ZM,ZM-09,Lilayi,0,,,,,,,50,2013-02-08T17:04:54+00:00
31180,FLWE,small_airport,"West Five Airport",-13.9642000198,24.4605998993,3550,AF,ZM,ZM-01,Lipanda,0,FLWE,,,,,,50,2013-02-08T17:24:02+00:00
31142,FLEC,small_airport,"East Three Airport",-14.1134996414,30.1294994354,2300,AF,ZM,ZM-02,Luano,0,FLEC,,,,,,50,2013-02-08T17:08:00+00:00
30087,FLLA,small_airport,"Luanshya Zambia Airport",-13.14169979095459,28.424999237060547,4101,AF,ZM,ZM-08,Luanshya,0,FLLA,,,,,,50,2008-09-15T08:33:51+00:00
31869,FLLK,small_airport,"Lukulu Airport",-14.374799728393555,23.249500274658203,3480,AF,ZM,ZM-01,Lukulu,0,FLLK,LXU,,,,,50,2008-09-15T08:33:53+00:00
31154,FLLD,small_airport,"Lundazi Airport",-12.28600025177002,33.18600082397461,3750,AF,ZM,ZM-03,Lundazi,0,FLLD,,,,,,50,2008-09-15T08:33:57+00:00
31155,FLLG,small_airport,"Luwingu Airport",-10.24530029296875,29.913999557495117,4650,AF,ZM,ZM-05,Luwingu,0,FLLG,,,,,,50,2008-09-15T08:34:02+00:00
31158,FLMB,small_airport,"Maamba Airport",-17.367000579833984,27.183000564575195,2050,AF,ZM,ZM-07,Maamba,0,FLMB,,,,,,50,2008-09-15T08:40:46+00:00
30110,FLMA,small_airport,"Mansa Airport",-11.13700008392334,28.872600555419922,4101,AF,ZM,ZM-04,Mansa,0,FLMA,MNS,,,,,50,2008-09-15T08:34:04+00:00
31164,FLMZ,small_airport,"Mazabuka Airport",-15.861332,27.828324,3450,AF,ZM,ZM-07,Mazabuka,0,FLMZ,,,,,,50,2016-06-22T09:13:50+00:00
31922,FLBA,small_airport,"Mbala Airport",-8.859169960021973,31.33639907836914,5454,AF,ZM,ZM-05,Mbala,0,FLBA,MMQ,,,,,50,2008-09-15T08:34:06+00:00
31177,FLWB,small_airport,"West Two Airport",-13.766400337219238,27.51729965209961,3760,AF,ZM,ZM-08,Metamba,0,FLWB,,,,,,50,2008-09-15T08:35:04+00:00
31159,FLMK,small_airport,"Mkushi Airport",-13.616999626159668,29.382999420166016,4195,AF,ZM,ZM-02,Mkushi,0,FLMK,,,,,,50,2008-09-15T08:34:12+00:00
31141,FLEB,small_airport,"East Two Airport",-11.1034002304,30.3381996155,3900,AF,ZM,ZM-05,Mofu,0,FLEB,,,,,,50,2013-02-08T17:15:40+00:00
31160,FLMO,small_airport,"Monze Airport",-16.283000946044922,27.517000198364258,3700,AF,ZM,ZM-07,Monze,0,FLMO,,,,,,50,2008-09-15T08:40:50+00:00
31161,FLMP,small_airport,"Mpika Airport",-11.899200439453125,31.43470001220703,4600,AF,ZM,ZM-05,Mpika,0,FLMP,,,,,,50,2008-09-15T08:34:16+00:00
31169,FLPK,small_airport,"Mporokoso Airport",-9.3697,30.128,4787,AF,ZM,ZM-05,Mporokoso,0,FLPK,,,,,,50,2015-12-06T12:18:04+00:00
30170,FLML,small_airport,"Mufulira Airport",-12.565199851989746,28.294300079345703,4350,AF,ZM,ZM-08,Mufulira,0,FLML,,,,,,50,2008-09-15T08:34:20+00:00
31162,FLMU,small_airport,"Mulobezi Airport",-16.767000198364258,25.183000564575195,3175,AF,ZM,ZM-01,Mulobezi,0,FLMU,,,,,,50,2008-09-15T08:34:22+00:00
31143,FLED,small_airport,"East Four Airport",-14.833000183105469,30.08300018310547,1880,AF,ZM,ZM-09,Mululowera,0,FLED,,,,,,50,2008-09-15T08:32:07+00:00
31163,FLMW,small_airport,"Mwinilunga Airport",-11.654000282287598,24.430999755859375,4524,AF,ZM,ZM-06,Mwinilunga,0,FLMW,,,,,,50,2008-09-15T08:34:24+00:00
31165,FLNL,small_airport,"Namwala Airport",-15.765000343322754,26.431900024414062,3200,AF,ZM,ZM-07,Namwala,0,FLNL,,,,,,50,2008-09-15T08:40:52+00:00
30090,FLKZ,small_airport,"Lukuzi Airport",-12.81190013885498,32.06489944458008,1801,AF,ZM,ZM-03,Nansolo,0,FLKZ,,,,,,50,2008-09-15T08:33:55+00:00
32742,FLNA,small_airport,"Ngoma Airport",-15.965800285339355,25.933300018310547,3400,AF,ZM,ZM-07,Ngoma,0,FLNA,ZGM,,,http://en.wikipedia.org/wiki/Ngoma_Airport,,50,2008-09-15T08:46:08+00:00
31166,FLNY,small_airport,"Nyimba Airport",-14.568599700927734,30.8341007232666,2600,AF,ZM,ZM-03,Nyimba,0,FLNY,,,,,,50,2008-09-15T08:34:28+00:00
31178,FLWC,small_airport,"West Three Airport",-13.355299949645996,26.60059928894043,3650,AF,ZM,ZM-06,Nyoka,0,FLWC,,,,,,50,2008-09-15T08:35:03+00:00
31168,FLPE,small_airport,"Petauke Airport",-14.2167,31.2256,3217,AF,ZM,ZM-03,Petauke,0,FLPE,,,,,,50,2015-12-06T12:04:15+00:00
31171,FLRO,small_airport,"Rosa Airport",-9.526829719543457,31.237499237060547,5000,AF,ZM,ZM-05,Rosa,0,FLRO,,,,,,50,2008-09-15T08:34:32+00:00
31172,FLRU,small_airport,"Rufansa Airport",-15.083000183105469,29.632999420166016,3000,AF,ZM,ZM-09,Rufansa,0,FLRU,,,,,,50,2008-09-15T08:34:34+00:00
31175,FLSJ,small_airport,"Sakeji Airport",-11.23270034790039,24.3164005279541,4500,AF,ZM,ZM-06,Sakeji,0,FLSJ,,,,,,50,2008-09-15T08:34:35+00:00
31184,FLYA,small_airport,"Samfya Airport",-11.365300178527832,29.548099517822266,3800,AF,ZM,ZM-04,Samfya,0,FLYA,,,,,,50,2008-09-15T08:34:37+00:00
32405,FLSN,small_airport,"Senanga Airport",-16.113,23.2982,3347,AF,ZM,ZM-01,Senanga,0,FLSN,SXG,,,https://en.wikipedia.org/wiki/Senanga_Airport,,50,2015-08-04T00:35:19+00:00
31173,FLSE,small_airport,"Serenje Airport",-13.198,30.2398,4650,AF,ZM,ZM-02,Serenje,0,FLSE,,,,,,50,2015-12-06T13:04:52+00:00
32304,FLSS,small_airport,"Sesheke Airport",-17.476299285888672,24.30470085144043,3100,AF,ZM,ZM-01,Sesheke,0,FLSS,SJQ,,,,,50,2008-09-15T08:34:43+00:00
31174,FLSH,small_airport,"Shiwa n'gandu Airport",-11.200900077819824,31.748199462890625,4600,AF,ZM,ZM-05,"Shiwa n'gandu",0,FLSH,,,,,,50,2008-09-15T08:34:45+00:00
31183,FLWW,small_airport,"Waka Waka Airport",-12.450400352478027,32.25699996948242,1800,AF,ZM,ZM-03,"Waka Waka",0,FLWW,,,,,,50,2008-09-15T08:34:51+00:00
31179,FLWD,small_airport,"West Four Airport",-13.645400047302246,25.421899795532227,3400,AF,ZM,ZM-06,"West Four",0,FLWD,,,,,,50,2008-09-15T08:34:55+00:00
30685,FLZB,small_airport,"Zambezi Airport",-13.537018,23.108092,3538,AF,ZM,ZM-06,Zambezi,0,FLZB,BBZ,,,https://en.wikipedia.org/wiki/Zambezi_Airport,,50,2016-06-06T07:50:23+00:00
318932,FLCU,small_airport,"Chunga Airport",-15.053957,25.985673,,AF,ZM,ZM-02,,0,FLCU,,,,,,0,2016-06-20T07:10:52+00:00
319046,ZM-0022,closed,"D181 Airport",-13.956405,26.311195,,AF,ZM,ZM-06,,0,,,,,,,0,2016-06-23T02:50:08+00:00
319047,ZM-0023,small_airport,"Lufupa Lodge Airstrip",-14.603896,26.168059,,AF,ZM,ZM-06,,0,,,,,,,0,2016-06-23T02:51:31+00:00
319006,ZM-0005,small_airport,"Stakota Airport",-16.788029,28.006395,1850,AF,ZM,ZM-07,,0,,,,,,,0,2016-06-22T04:55:36+00:00
312366,FLRZ,small_airport,"Royal Zambesi Lodge Airstrip",-15.7255,29.3021,1243,AF,ZM,ZM-09,,0,FLRZ,,,http://www.royalzambezilodge.com/,,,0,2014-07-04T18:55:32+00:00
326766,ZM-0027,small_airport,"Mufumbwe Airstrip",-13.088211,25.003993,3763,AF,ZM,ZM-03,";ifi,bwe",0,,,,,,,0,2018-03-23T11:22:16+00:00
319045,ZM-0021,small_airport,"Bwanda Airport",-16.009561,27.249314,,AF,ZM,ZM-07,Bwanda,0,,,,,,,0,2016-06-23T02:37:37+00:00
319019,ZM-0009,small_airport,"Chisamba Airport",-14.85601,28.310738,,AF,ZM,ZM-02,Chisamba,0,,,,,,,0,2016-06-22T09:19:05+00:00
319023,ZM-0013,small_airport,"Chiwala Airport",-14.608313,28.343263,,AF,ZM,ZM-02,Chiwala,0,,,,,,,0,2016-06-22T09:27:29+00:00
319017,ZM-0007,small_airport,"Kafue Airport",-15.729562,28.093427,,AF,ZM,ZM-09,Kafue,0,,,,,,,0,2016-06-22T09:09:59+00:00
319021,ZM-0011,small_airport,"Kamilonga Airport",-15.003311,28.08601,,AF,ZM,ZM-02,Kamilonga,0,,,,,,,0,2016-06-22T09:21:53+00:00
319043,ZM-0019,small_airport,"Kamwe Airport",-15.930906,27.956752,,AF,ZM,ZM-07,Kamwe,0,,,,,,,0,2016-06-23T02:34:58+00:00
319044,ZM-0020,small_airport,"Kamwe West Airport",-15.915225,27.931955,,AF,ZM,ZM-U-A,Kamwe,0,,,,,,,0,2016-06-23T02:35:39+00:00
319025,ZM-0015,small_airport,"Karubwe Airport",-15.091233,28.274492,,AF,ZM,ZM-02,Karubwe,0,,,,,,,0,2016-06-22T09:54:19+00:00
319243,ZM-0025,small_airport,"Katemo Airport",-15.607539,29.806837,,AF,ZM,ZM-09,Katemo,0,,,,,,,0,2016-06-29T05:47:58+00:00
319022,ZM-0012,small_airport,"Liteta Airport",-14.826645,28.023642,,AF,ZM,ZM-02,Liteta,0,,,,,,,0,2016-06-22T09:25:40+00:00
316480,FLJK,small_airport,"Jeki Airport",-15.6334,29.6036,1165,AF,ZM,ZM-09,"Lower Zambezi Natational Park",0,FLJK,JEK,,,,,0,2015-12-06T01:33:08+00:00
318959,ZM-0003,small_airport,"Luangwa Airport",-15.606715,30.395529,,AF,ZM,ZM-09,Luangwa,0,,,,,,,0,2016-06-20T09:57:34+00:00
319016,ZM-0006,small_airport,"Macha Airport",-16.373833,26.800379,,AF,ZM,ZM-07,Macha,0,,,,,,,0,2016-06-22T08:50:04+00:00
319240,ZM-0024,small_airport,"Majuaneti Airport",-15.913306,28.861505,,AF,ZM,ZM-09,Majuaneti,0,,,,,,,0,2016-06-29T05:21:10+00:00
326767,ZM-0028,small_airport,"Loloma Airstrip",-13.400203,24.335572,3626,AF,ZM,ZM-06,Manyinga,0,,,,,,,0,2018-03-23T11:27:02+00:00
319024,ZM-0014,small_airport,"Mpongwe Airport",-13.636671,27.758297,,AF,ZM,ZM-08,Mpongwe,0,,,,,,,0,2016-06-22T09:52:28+00:00
319042,ZM-0018,small_airport,"Nakambala Airport",-15.774672,27.842683,,AF,ZM,ZM-07,Nakambala,0,,,,,,,0,2016-06-23T02:32:03+00:00
319018,ZM-0008,small_airport,"Nega Nega Airport",-15.81435,27.969187,,AF,ZM,ZM-07,"Nega Nega",0,,,,,,,0,2016-06-22T09:11:03+00:00
319020,ZM-0010,small_airport,"Sandwe Airport",-14.944389,28.115043,,AF,ZM,ZM-02,Sandwe,0,,,,,,,0,2016-06-22T09:20:58+00:00
319026,ZM-0016,small_airport,"Silver Rest Airport",-15.37784,28.53434,,AF,ZM,ZM-09,"Silver Rest",0,,,,,,,0,2016-06-22T09:55:56+00:00
319247,ZM-0026,small_airport,"Simonga Airport",-17.795194,25.626729,,AF,ZM,ZM-07,Simonga,0,,,,,,,0,2016-06-29T06:14:23+00:00
319005,ZM-0004,small_airport,"Sinazongwe Airport",-17.212746,27.488112,,AF,ZM,ZM-07,Sinasongwe,0,,,,,,,0,2016-06-22T04:50:08+00:00
